[
  {
    "id": 1,
    "name": "Université 8 Mai 1945 de Guelma",
    "type": "universite",
    "type_fr": "Université",
    "website": "http://www.univ-guelma.dz/",
    "commune": "Guelma",
    "wilaya_code": "24",
    "wilaya_name": "Guelma",
    "lat": 36.4512265,
    "lng": 7.4193826,
    "geo_precision": "campus",
    "source": "https://www.mesrs.dz/en/university-network/"
  },
  {
    "id": 2,
    "name": "Université Blida 1 – Saad Dahlab",
    "type": "universite",
    "type_fr": "Université",
    "website": "http://www.univ-blida.dz/",
    "commune": "El-Affroun",
    "wilaya_code": "09",
    "wilaya_name": "Blida",
    "lat": 36.4488956,
    "lng": 2.65017,
    "geo_precision": "campus",
    "source": "https://www.mesrs.dz/en/university-network/"
  },
  {
    "id": 3,
    "name": "Université d’Adrar – Ahmed Draya",
    "type": "universite",
    "type_fr": "Université",
    "website": "https://en.univ-adrar.edu.dz/",
    "commune": "Adrar",
    "wilaya_code": "01",
    "wilaya_name": "Adrar",
    "lat": 27.8807196,
    "lng": -0.2819364,
    "geo_precision": "campus",
    "source": "https://www.mesrs.dz/en/university-network/"
  },
  {
    "id": 4,
    "name": "Université d’Alger 1 – Benyoucef Benkhedda",
    "type": "universite",
    "type_fr": "Université",
    "website": "http://www.univ-alger.dz/",
    "commune": null,
    "wilaya_code": "16",
    "wilaya_name": "Alger",
    "lat": 36.7325,
    "lng": 3.08722,
    "geo_precision": "wilaya",
    "source": "https://www.mesrs.dz/en/university-network/"
  },
  {
    "id": 5,
    "name": "Université d’Alger 2 – Abou el Kacem Saâdallah",
    "type": "universite",
    "type_fr": "Université",
    "website": "http://www.univ-alger2.dz/",
    "commune": "Bouzareah",
    "wilaya_code": "16",
    "wilaya_name": "Alger",
    "lat": 36.7762723,
    "lng": 3.00429,
    "geo_precision": "campus",
    "source": "https://www.mesrs.dz/en/university-network/"
  },
  {
    "id": 6,
    "name": "Université d’Alger 3 – Brahim Soltane Chaibout",
    "type": "universite",
    "type_fr": "Université",
    "website": "http://www.univ-alger3.dz/",
    "commune": "Dely Ibrahim",
    "wilaya_code": "16",
    "wilaya_name": "Alger",
    "lat": 36.7571283,
    "lng": 2.9843066,
    "geo_precision": "campus",
    "source": "https://www.mesrs.dz/en/university-network/"
  },
  {
    "id": 7,
    "name": "Université d’El Oued – Hamma Lakhdar",
    "type": "universite",
    "type_fr": "Université",
    "website": "https://www.univ-eloued.dz/",
    "commune": "Kouinine",
    "wilaya_code": "39",
    "wilaya_name": "El Oued",
    "lat": 33.398174,
    "lng": 6.856438,
    "geo_precision": "campus",
    "source": "https://www.mesrs.dz/en/university-network/"
  },
  {
    "id": 8,
    "name": "Université d’El Tarf – Chadli Bendjedid",
    "type": "universite",
    "type_fr": "Université",
    "website": "http://univ-eltarf.dz/ucbet/",
    "commune": "El Tarf",
    "wilaya_code": "36",
    "wilaya_name": "El Tarf",
    "lat": 36.761003,
    "lng": 8.3234287,
    "geo_precision": "campus",
    "source": "https://www.mesrs.dz/en/university-network/"
  },
  {
    "id": 9,
    "name": "Université d’Oran 1 – Ahmed Ben Bella",
    "type": "universite",
    "type_fr": "Université",
    "website": "http://www.univ-oran1.dz/",
    "commune": null,
    "wilaya_code": "31",
    "wilaya_name": "Oran",
    "lat": 35.69694,
    "lng": -0.63306,
    "geo_precision": "wilaya",
    "source": "https://www.mesrs.dz/en/university-network/"
  },
  {
    "id": 10,
    "name": "Université d’Oran 2 – Mohamed Ben Ahmed",
    "type": "universite",
    "type_fr": "Université",
    "website": "http://www.univ-oran2.dz/",
    "commune": "Bir El Djir",
    "wilaya_code": "31",
    "wilaya_name": "Oran",
    "lat": 35.7077781,
    "lng": -0.579255,
    "geo_precision": "campus",
    "source": "https://www.mesrs.dz/en/university-network/"
  },
  {
    "id": 11,
    "name": "Université de Aïn Témouchent",
    "type": "universite",
    "type_fr": "Université",
    "website": "https://www.univ-temouchent.edu.dz/",
    "commune": "Ain Temouchent",
    "wilaya_code": "46",
    "wilaya_name": "Aïn Témouchent",
    "lat": 35.2915519,
    "lng": -1.1237098,
    "geo_precision": "campus",
    "source": "https://www.mesrs.dz/en/university-network/"
  },
  {
    "id": 12,
    "name": "Université de Annaba – Badji Mokhtar",
    "type": "universite",
    "type_fr": "Université",
    "website": "http://www.univ-annaba.dz/",
    "commune": "Annaba",
    "wilaya_code": "23",
    "wilaya_name": "Annaba",
    "lat": 36.9122744,
    "lng": 7.7486742,
    "geo_precision": "campus",
    "source": "https://www.mesrs.dz/en/university-network/"
  },
  {
    "id": 13,
    "name": "Université de Batna 1 – Hadj Lakhder",
    "type": "universite",
    "type_fr": "Université",
    "website": "http://www.univ-batna.dz/",
    "commune": "Fesdis",
    "wilaya_code": "05",
    "wilaya_name": "Batna",
    "lat": 35.6306518,
    "lng": 6.2665035,
    "geo_precision": "campus",
    "source": "https://www.mesrs.dz/en/university-network/"
  },
  {
    "id": 14,
    "name": "Université de Batna 2 – Mustapha Ben Boulaid",
    "type": "universite",
    "type_fr": "Université",
    "website": "http://www.univ-batna2.dz/",
    "commune": "Fesdis",
    "wilaya_code": "05",
    "wilaya_name": "Batna",
    "lat": 35.6298819,
    "lng": 6.2741797,
    "geo_precision": "campus",
    "source": "https://www.mesrs.dz/en/university-network/"
  },
  {
    "id": 15,
    "name": "Université de Béchar – Mohamed Tahri",
    "type": "universite",
    "type_fr": "Université",
    "website": "http://www.univ-bechar.dz/",
    "commune": "Bechar",
    "wilaya_code": "08",
    "wilaya_name": "Béchar",
    "lat": 31.6059855,
    "lng": -2.2349535,
    "geo_precision": "campus",
    "source": "https://www.mesrs.dz/en/university-network/"
  },
  {
    "id": 16,
    "name": "Université de Béjaia – Abderrahmane Mira",
    "type": "universite",
    "type_fr": "Université",
    "website": "http://www.univ-bejaia.dz/",
    "commune": "Tala Hamza",
    "wilaya_code": "06",
    "wilaya_name": "Béjaïa",
    "lat": 36.7040811,
    "lng": 5.0535872,
    "geo_precision": "campus",
    "source": "https://www.mesrs.dz/en/university-network/"
  },
  {
    "id": 17,
    "name": "Université de Biskra – Mohamed Khider",
    "type": "universite",
    "type_fr": "Université",
    "website": "http://www.univ-biskra.dz/",
    "commune": "Biskra",
    "wilaya_code": "07",
    "wilaya_name": "Biskra",
    "lat": 34.8450582,
    "lng": 5.7473592,
    "geo_precision": "campus",
    "source": "https://www.mesrs.dz/en/university-network/"
  },
  {
    "id": 18,
    "name": "Université de Blida 2 – Lounici Ali",
    "type": "universite",
    "type_fr": "Université",
    "website": "http://www.univ-blida2.dz/",
    "commune": "El-Affroun",
    "wilaya_code": "09",
    "wilaya_name": "Blida",
    "lat": 36.4521408,
    "lng": 2.6348992,
    "geo_precision": "campus",
    "source": "https://www.mesrs.dz/en/university-network/"
  },
  {
    "id": 19,
    "name": "Université de Bordj Bou Arréridj – Mohamed Bachir El Ibrahimi",
    "type": "universite",
    "type_fr": "Université",
    "website": "http://www.univ-bba.dz/",
    "commune": "Belimour",
    "wilaya_code": "34",
    "wilaya_name": "Bordj Bou Arreridj",
    "lat": 36.037974,
    "lng": 4.8141892,
    "geo_precision": "campus",
    "source": "https://www.mesrs.dz/en/university-network/"
  },
  {
    "id": 20,
    "name": "Université de Bouira – Akli Mohand Oulhadj",
    "type": "universite",
    "type_fr": "Université",
    "website": "http://www.univ-bouira.dz/",
    "commune": "Bouira",
    "wilaya_code": "10",
    "wilaya_name": "Bouira",
    "lat": 36.3745083,
    "lng": 3.8737279,
    "geo_precision": "campus",
    "source": "https://www.mesrs.dz/en/university-network/"
  },
  {
    "id": 21,
    "name": "Université de Boumerdès – M’hamed Bougara",
    "type": "universite",
    "type_fr": "Université",
    "website": "http://www.univ-boumerdes.dz/",
    "commune": "Boumerdes",
    "wilaya_code": "35",
    "wilaya_name": "Boumerdès",
    "lat": 36.7627057,
    "lng": 3.4746586,
    "geo_precision": "campus",
    "source": "https://www.mesrs.dz/en/university-network/"
  },
  {
    "id": 22,
    "name": "Université de Chlef – Hassiba Benbouali",
    "type": "universite",
    "type_fr": "Université",
    "website": "http://www.univ-chlef.dz/",
    "commune": "Chlef",
    "wilaya_code": "02",
    "wilaya_name": "Chlef",
    "lat": 36.1664301,
    "lng": 1.3379934,
    "geo_precision": "campus",
    "source": "https://www.mesrs.dz/en/university-network/"
  },
  {
    "id": 23,
    "name": "Université de Constantine 1 – Frères Mentouri",
    "type": "universite",
    "type_fr": "Université",
    "website": "http://www.umc.edu.dz/",
    "commune": "Constantine",
    "wilaya_code": "25",
    "wilaya_name": "Constantine",
    "lat": 36.3391374,
    "lng": 6.6224622,
    "geo_precision": "campus",
    "source": "https://www.mesrs.dz/en/university-network/"
  },
  {
    "id": 24,
    "name": "Université de Constantine 2 – Abdelhamid Mehri",
    "type": "universite",
    "type_fr": "Université",
    "website": "http://www.univ-constantine2.dz/",
    "commune": "Ain Smara",
    "wilaya_code": "25",
    "wilaya_name": "Constantine",
    "lat": 36.2447667,
    "lng": 6.569947,
    "geo_precision": "campus",
    "source": "https://www.mesrs.dz/en/university-network/"
  },
  {
    "id": 25,
    "name": "Université de Constantine 3 -Salah Boubnider",
    "type": "universite",
    "type_fr": "Université",
    "website": "http://www.univ-constantine3.dz/",
    "commune": null,
    "wilaya_code": "25",
    "wilaya_name": "Constantine",
    "lat": 36.35,
    "lng": 6.6,
    "geo_precision": "wilaya",
    "source": "https://www.mesrs.dz/en/university-network/"
  },
  {
    "id": 26,
    "name": "Université de Djelfa – Ziane Achour",
    "type": "universite",
    "type_fr": "Université",
    "website": "http://www.univ-djelfa.dz/",
    "commune": "Djelfa",
    "wilaya_code": "17",
    "wilaya_name": "Djelfa",
    "lat": 34.6568244,
    "lng": 3.2873369,
    "geo_precision": "campus",
    "source": "https://www.mesrs.dz/en/university-network/"
  },
  {
    "id": 27,
    "name": "Université de Ghardaia",
    "type": "universite",
    "type_fr": "Université",
    "website": "http://www.univ-ghardaia.dz/",
    "commune": "El Atteuf",
    "wilaya_code": "47",
    "wilaya_name": "Ghardaïa",
    "lat": 32.3891206,
    "lng": 3.7686698,
    "geo_precision": "campus",
    "source": "https://www.mesrs.dz/en/university-network/"
  },
  {
    "id": 28,
    "name": "Université de Jijel – Mohammed Seddik Ben yahia",
    "type": "universite",
    "type_fr": "Université",
    "website": "http://www.univ-jijel.dz/",
    "commune": "Jijel",
    "wilaya_code": "18",
    "wilaya_name": "Jijel",
    "lat": 36.8024453,
    "lng": 5.7530633,
    "geo_precision": "campus",
    "source": "https://www.mesrs.dz/en/university-network/"
  },
  {
    "id": 29,
    "name": "Université de Khemis Miliana – Djilali Bounaama",
    "type": "universite",
    "type_fr": "Université",
    "website": "http://www.univ-km.dz/",
    "commune": "Khemis-Miliana",
    "wilaya_code": "44",
    "wilaya_name": "Aïn Defla",
    "lat": 36.2553567,
    "lng": 2.2374411,
    "geo_precision": "campus",
    "source": "https://www.mesrs.dz/en/university-network/"
  },
  {
    "id": 30,
    "name": "Université de Khenchela – Abbas Laghrour",
    "type": "universite",
    "type_fr": "Université",
    "website": "http://www.univ-khenchela.dz/",
    "commune": "Khenchela",
    "wilaya_code": "40",
    "wilaya_name": "Khenchela",
    "lat": 35.4440791,
    "lng": 7.1556195,
    "geo_precision": "campus",
    "source": "https://www.mesrs.dz/en/university-network/"
  },
  {
    "id": 31,
    "name": "Université de la Formation Continue",
    "type": "universite",
    "type_fr": "Université",
    "website": "http://www.ufc.dz/",
    "commune": "Dely Ibrahim",
    "wilaya_code": "16",
    "wilaya_name": "Alger",
    "lat": 36.7528506,
    "lng": 2.9800558,
    "geo_precision": "commune",
    "source": "https://www.mesrs.dz/en/university-network/"
  },
  {
    "id": 32,
    "name": "Université de Laghouat – Amar Telidji",
    "type": "universite",
    "type_fr": "Université",
    "website": "http://www.lagh-univ.dz/",
    "commune": "Laghouat",
    "wilaya_code": "03",
    "wilaya_name": "Laghouat",
    "lat": 33.796661,
    "lng": 2.8466973,
    "geo_precision": "campus",
    "source": "https://www.mesrs.dz/en/university-network/"
  },
  {
    "id": 33,
    "name": "Université de M’sila – Mohamed Boudiaf",
    "type": "universite",
    "type_fr": "Université",
    "website": "http://www.univ-msila.dz/",
    "commune": "M'sila",
    "wilaya_code": "28",
    "wilaya_name": "M'sila",
    "lat": 35.7416528,
    "lng": 4.5467418,
    "geo_precision": "campus",
    "source": "https://www.mesrs.dz/en/university-network/"
  },
  {
    "id": 34,
    "name": "Université de Mascara – Mustapha Stambouli",
    "type": "universite",
    "type_fr": "Université",
    "website": "http://www.univ-mascara.dz/",
    "commune": "Mascara",
    "wilaya_code": "29",
    "wilaya_name": "Mascara",
    "lat": 35.4152817,
    "lng": 0.1276161,
    "geo_precision": "campus",
    "source": "https://www.mesrs.dz/en/university-network/"
  },
  {
    "id": 35,
    "name": "Université de Mila – Abdelhafid Boussouf",
    "type": "universite",
    "type_fr": "Université",
    "website": "https://www.centre-univ-mila.dz/?lang=fr",
    "commune": "Mila",
    "wilaya_code": "43",
    "wilaya_name": "Mila",
    "lat": 36.4565193,
    "lng": 6.2317486,
    "geo_precision": "campus",
    "source": "https://www.mesrs.dz/en/university-network/"
  },
  {
    "id": 36,
    "name": "Université de Mostaganem – Abdelhamid Ibn Badis",
    "type": "universite",
    "type_fr": "Université",
    "website": "http://www.univ-mosta.dz/",
    "commune": "Mostaganem",
    "wilaya_code": "27",
    "wilaya_name": "Mostaganem",
    "lat": 35.9312755,
    "lng": 0.0884236,
    "geo_precision": "campus",
    "source": "https://www.mesrs.dz/en/university-network/"
  },
  {
    "id": 37,
    "name": "Université de Naama – Ahmed Salhi",
    "type": "universite",
    "type_fr": "Université",
    "website": "http://www.cuniv-naama.dz/",
    "commune": null,
    "wilaya_code": "45",
    "wilaya_name": "Naâma",
    "lat": 33.26222,
    "lng": -0.31444,
    "geo_precision": "wilaya",
    "source": "https://www.mesrs.dz/en/university-network/"
  },
  {
    "id": 38,
    "name": "Université de Ouargla – Kasdi Merbah",
    "type": "universite",
    "type_fr": "Université",
    "website": "http://www.univ-ouargla.dz/",
    "commune": "Ouargla",
    "wilaya_code": "30",
    "wilaya_name": "Ouargla",
    "lat": 31.9398356,
    "lng": 5.3067979,
    "geo_precision": "campus",
    "source": "https://www.mesrs.dz/en/university-network/"
  },
  {
    "id": 39,
    "name": "Université de Oum El Bouaghi – Larbi Ben M’hidi",
    "type": "universite",
    "type_fr": "Université",
    "website": "http://www.univ-oeb.dz/",
    "commune": "Oum El Bouaghi",
    "wilaya_code": "04",
    "wilaya_name": "Oum El Bouaghi",
    "lat": 35.8753116,
    "lng": 7.0890982,
    "geo_precision": "campus",
    "source": "https://www.mesrs.dz/en/university-network/"
  },
  {
    "id": 40,
    "name": "Université de Relizane",
    "type": "universite",
    "type_fr": "Université",
    "website": "https://www.univ-relizane.dz/index.php/fr",
    "commune": "Relizane",
    "wilaya_code": "48",
    "wilaya_name": "Relizane",
    "lat": 35.7050116,
    "lng": 0.5805459,
    "geo_precision": "campus",
    "source": "https://www.mesrs.dz/en/university-network/"
  },
  {
    "id": 41,
    "name": "Université de Saida – Tahar Moulay",
    "type": "universite",
    "type_fr": "Université",
    "website": "http://www.univ-saida.dz/",
    "commune": "Ouled Khaled",
    "wilaya_code": "20",
    "wilaya_name": "Saïda",
    "lat": 34.8588609,
    "lng": 0.152995,
    "geo_precision": "campus",
    "source": "https://www.mesrs.dz/en/university-network/"
  },
  {
    "id": 42,
    "name": "Université de Sétif 1 – Ferhat Abbas",
    "type": "universite",
    "type_fr": "Université",
    "website": "http://www.univ-setif.dz/",
    "commune": null,
    "wilaya_code": "19",
    "wilaya_name": "Sétif",
    "lat": 36.19,
    "lng": 5.41,
    "geo_precision": "wilaya",
    "source": "https://www.mesrs.dz/en/university-network/"
  },
  {
    "id": 43,
    "name": "Université de Sétif 2 – Mohamed Lamine Debaghine",
    "type": "universite",
    "type_fr": "Université",
    "website": "http://www.univ-setif2.dz/",
    "commune": "Setif",
    "wilaya_code": "19",
    "wilaya_name": "Sétif",
    "lat": 36.2137324,
    "lng": 5.4449312,
    "geo_precision": "campus",
    "source": "https://www.mesrs.dz/en/university-network/"
  },
  {
    "id": 44,
    "name": "Université de Souk Ahras – Mohammed-Chérif Messaadia",
    "type": "universite",
    "type_fr": "Université",
    "website": "http://www.univ-soukahras.dz/fr/",
    "commune": "Souk Ahras",
    "wilaya_code": "41",
    "wilaya_name": "Souk Ahras",
    "lat": 36.2984539,
    "lng": 7.9242269,
    "geo_precision": "campus",
    "source": "https://www.mesrs.dz/en/university-network/"
  },
  {
    "id": 45,
    "name": "Université de Tamenghasset",
    "type": "universite",
    "type_fr": "Université",
    "website": "https://univ-tam.dz/fr/",
    "commune": "Tamanrasset",
    "wilaya_code": "11",
    "wilaya_name": "Tamanrasset",
    "lat": 22.8057761,
    "lng": 5.5060445,
    "geo_precision": "campus",
    "source": "https://www.mesrs.dz/en/university-network/"
  },
  {
    "id": 46,
    "name": "Université de Tébessa – Larbi Tébessi",
    "type": "universite",
    "type_fr": "Université",
    "website": "http://www.univ-tebessa.dz/",
    "commune": "Tebessa",
    "wilaya_code": "12",
    "wilaya_name": "Tébessa",
    "lat": 35.4243876,
    "lng": 8.0760054,
    "geo_precision": "campus",
    "source": "https://www.mesrs.dz/en/university-network/"
  },
  {
    "id": 47,
    "name": "Université de Tiaret – Ibn Khaldoun",
    "type": "universite",
    "type_fr": "Université",
    "website": "http://www.univ-tiaret.dz/",
    "commune": "Tiaret",
    "wilaya_code": "14",
    "wilaya_name": "Tiaret",
    "lat": 35.3542264,
    "lng": 1.3147695,
    "geo_precision": "campus",
    "source": "https://www.mesrs.dz/en/university-network/"
  },
  {
    "id": 48,
    "name": "Université de Tindouf-Ali Kafi",
    "type": "universite",
    "type_fr": "Université",
    "website": "http://www.cuniv-tindouf.dz/",
    "commune": null,
    "wilaya_code": "37",
    "wilaya_name": "Tindouf",
    "lat": 27.67528,
    "lng": -8.12861,
    "geo_precision": "wilaya",
    "source": "https://www.mesrs.dz/en/university-network/"
  },
  {
    "id": 49,
    "name": "université de Tipaza – Abdallah Morsli",
    "type": "universite",
    "type_fr": "Université",
    "website": "https://ar.cu-tipaza.dz/",
    "commune": "Tipaza",
    "wilaya_code": "42",
    "wilaya_name": "Tipaza",
    "lat": 36.5900041,
    "lng": 2.4492364,
    "geo_precision": "campus",
    "source": "https://www.mesrs.dz/en/university-network/"
  },
  {
    "id": 50,
    "name": "Université de Tissemsilt",
    "type": "universite",
    "type_fr": "Université",
    "website": "http://www.cuniv-tissemsilt.dz/",
    "commune": null,
    "wilaya_code": "38",
    "wilaya_name": "Tissemsilt",
    "lat": 35.60778,
    "lng": 1.81111,
    "geo_precision": "wilaya",
    "source": "https://www.mesrs.dz/en/university-network/"
  },
  {
    "id": 51,
    "name": "Université de Tizi Ouzou – Mouloud Maameri",
    "type": "universite",
    "type_fr": "Université",
    "website": "http://www.ummto.dz/",
    "commune": "Tizi-Ouzou",
    "wilaya_code": "15",
    "wilaya_name": "Tizi Ouzou",
    "lat": 36.6978991,
    "lng": 4.0577472,
    "geo_precision": "campus",
    "source": "https://www.mesrs.dz/en/university-network/"
  },
  {
    "id": 52,
    "name": "Université de Tlemcen – Abou Bekr Belkaid",
    "type": "universite",
    "type_fr": "Université",
    "website": "http://www.univ-tlemcen.dz/",
    "commune": "Mansourah",
    "wilaya_code": "13",
    "wilaya_name": "Tlemcen",
    "lat": 34.895279,
    "lng": -1.350444,
    "geo_precision": "campus",
    "source": "https://www.mesrs.dz/en/university-network/"
  },
  {
    "id": 53,
    "name": "Université des sciences et de la technologie d’Alger, Houari Boumediène",
    "type": "universite",
    "type_fr": "Université",
    "website": "http://www.usthb.dz/",
    "commune": "Bab Ezzouar",
    "wilaya_code": "16",
    "wilaya_name": "Alger",
    "lat": 36.7121849,
    "lng": 3.1810204,
    "geo_precision": "campus",
    "source": "https://www.mesrs.dz/en/university-network/"
  },
  {
    "id": 54,
    "name": "Université des sciences islamiques Emir Abdelkader de Constantine",
    "type": "universite",
    "type_fr": "Université",
    "website": "http://www.univ-emir.dz/",
    "commune": null,
    "wilaya_code": "25",
    "wilaya_name": "Constantine",
    "lat": 36.35,
    "lng": 6.6,
    "geo_precision": "wilaya",
    "source": "https://www.mesrs.dz/en/university-network/"
  },
  {
    "id": 55,
    "name": "Université du 20 Août 1955 de Skikda",
    "type": "universite",
    "type_fr": "Université",
    "website": "http://www.univ-skikda.dz/",
    "commune": null,
    "wilaya_code": "21",
    "wilaya_name": "Skikda",
    "lat": 36.86667,
    "lng": 6.9,
    "geo_precision": "wilaya",
    "source": "https://www.mesrs.dz/en/university-network/"
  },
  {
    "id": 56,
    "name": "Université Médéa – Yahia Farès",
    "type": "universite",
    "type_fr": "Université",
    "website": "http://www.univ-medea.dz/",
    "commune": "Medea",
    "wilaya_code": "26",
    "wilaya_name": "Médéa",
    "lat": 36.2649519,
    "lng": 2.7976246,
    "geo_precision": "campus",
    "source": "https://www.mesrs.dz/en/university-network/"
  },
  {
    "id": 57,
    "name": "Université Mohamed Boudiaf des sciences et de la technologie – Mohamed Boudiaf",
    "type": "universite",
    "type_fr": "Université",
    "website": "http://www.univ-usto.dz/",
    "commune": "Bir El Djir",
    "wilaya_code": "31",
    "wilaya_name": "Oran",
    "lat": 35.7368,
    "lng": -0.545,
    "geo_precision": "commune",
    "source": "https://www.mesrs.dz/en/university-network/"
  },
  {
    "id": 58,
    "name": "Université Sidi Bel Abbès – Djillali Liabes",
    "type": "universite",
    "type_fr": "Université",
    "website": "http://www.univ-sba.dz/",
    "commune": "Sidi Lahcene",
    "wilaya_code": "22",
    "wilaya_name": "Sidi Bel Abbès",
    "lat": 35.1795014,
    "lng": -0.660442,
    "geo_precision": "campus",
    "source": "https://www.mesrs.dz/en/university-network/"
  },
  {
    "id": 59,
    "name": "Ecole des hautes études commerciales",
    "type": "grande_ecole",
    "type_fr": "Grande école",
    "website": "http://www.hec.dz/",
    "commune": "Kolea",
    "wilaya_code": "42",
    "wilaya_name": "Tipaza",
    "lat": 36.638549,
    "lng": 2.78867,
    "geo_precision": "campus",
    "source": "https://www.mesrs.dz/en/university-network/"
  },
  {
    "id": 60,
    "name": "Ecole Nationale Polytechnique",
    "type": "grande_ecole",
    "type_fr": "Grande école",
    "website": "http://www.enp.edu.dz/",
    "commune": "El Harrach",
    "wilaya_code": "16",
    "wilaya_name": "Alger",
    "lat": 36.7164,
    "lng": 3.715,
    "geo_precision": "commune",
    "source": "https://www.mesrs.dz/en/university-network/"
  },
  {
    "id": 61,
    "name": "Ecole Nationale Polytechnique d’Oran – Maurice Audin",
    "type": "grande_ecole",
    "type_fr": "Grande école",
    "website": "http://www.enset-oran.dz/",
    "commune": "Es Senia",
    "wilaya_code": "31",
    "wilaya_name": "Oran",
    "lat": 35.6664067,
    "lng": -0.6327268,
    "geo_precision": "campus",
    "source": "https://www.mesrs.dz/en/university-network/"
  },
  {
    "id": 62,
    "name": "Ecole Nationale Polytechnique de Constantine- Malek Bennabi",
    "type": "grande_ecole",
    "type_fr": "Grande école",
    "website": "http://www.enp-constantine.dz/",
    "commune": null,
    "wilaya_code": "25",
    "wilaya_name": "Constantine",
    "lat": 36.35,
    "lng": 6.6,
    "geo_precision": "wilaya",
    "source": "https://www.mesrs.dz/en/university-network/"
  },
  {
    "id": 63,
    "name": "Ecole nationale supérieure agronomique- Khalef Abdellah alias Kasdi Merbah",
    "type": "grande_ecole",
    "type_fr": "Grande école",
    "website": "http://www.ensa.dz/",
    "commune": "El Harrach",
    "wilaya_code": "16",
    "wilaya_name": "Alger",
    "lat": 36.7164,
    "lng": 3.715,
    "geo_precision": "commune",
    "source": "https://www.mesrs.dz/en/university-network/"
  },
  {
    "id": 64,
    "name": "Ecole nationale supérieure d’hydraulique – Arbaoui Abdellah",
    "type": "grande_ecole",
    "type_fr": "Grande école",
    "website": "http://www.ensh.dz/",
    "commune": "Soumaa",
    "wilaya_code": "09",
    "wilaya_name": "Blida",
    "lat": 36.51833,
    "lng": 2.905278,
    "geo_precision": "commune",
    "source": "https://www.mesrs.dz/en/university-network/"
  },
  {
    "id": 65,
    "name": "Ecole nationale supérieure d’informatique",
    "type": "grande_ecole",
    "type_fr": "Grande école",
    "website": "http://www.esi.dz/",
    "commune": "Bab Ezzouar",
    "wilaya_code": "16",
    "wilaya_name": "Alger",
    "lat": 36.7059919,
    "lng": 3.1720073,
    "geo_precision": "campus",
    "source": "https://www.mesrs.dz/en/university-network/"
  },
  {
    "id": 66,
    "name": "Ecole Nationale Supérieure de Biotechnologie de Constantine – Tewfik Khaznadar",
    "type": "grande_ecole",
    "type_fr": "Grande école",
    "website": "http://ensbiotech.edu.dz/",
    "commune": "Ain Smara",
    "wilaya_code": "25",
    "wilaya_name": "Constantine",
    "lat": 36.2799184,
    "lng": 6.5906367,
    "geo_precision": "campus",
    "source": "https://www.mesrs.dz/en/university-network/"
  },
  {
    "id": 67,
    "name": "Ecole nationale supérieure de journalisme et des sciences de l’information",
    "type": "grande_ecole",
    "type_fr": "Grande école",
    "website": "https://ensjsi.dz/",
    "commune": "Ben Aknoun",
    "wilaya_code": "16",
    "wilaya_name": "Alger",
    "lat": 36.758895,
    "lng": 3.0100658,
    "geo_precision": "commune",
    "source": "https://www.mesrs.dz/en/university-network/"
  },
  {
    "id": 68,
    "name": "Ecole nationale supérieure de management",
    "type": "grande_ecole",
    "type_fr": "Grande école",
    "website": "http://www.ensm.dz/",
    "commune": "Kolea",
    "wilaya_code": "42",
    "wilaya_name": "Tipaza",
    "lat": 36.6389,
    "lng": 2.768,
    "geo_precision": "commune",
    "source": "https://www.mesrs.dz/en/university-network/"
  },
  {
    "id": 69,
    "name": "Ecole Nationale Supérieure de Technologie",
    "type": "grande_ecole",
    "type_fr": "Grande école",
    "website": "http://www.enst.dz/",
    "commune": "Herraoua",
    "wilaya_code": "16",
    "wilaya_name": "Alger",
    "lat": 36.7761552,
    "lng": 3.2581993,
    "geo_precision": "campus",
    "source": "https://www.mesrs.dz/en/university-network/"
  },
  {
    "id": 70,
    "name": "Ecole nationale supérieure des mines et de la métallurgie – Amar Laskri",
    "type": "grande_ecole",
    "type_fr": "Grande école",
    "website": "http://ensmm-annaba.dz/",
    "commune": "Annaba",
    "wilaya_code": "23",
    "wilaya_name": "Annaba",
    "lat": 36.9,
    "lng": 7.7667,
    "geo_precision": "commune",
    "source": "https://www.mesrs.dz/en/university-network/"
  },
  {
    "id": 71,
    "name": "Ecole nationale supérieure des sciences de la mer et de l’aménagement du littoral",
    "type": "grande_ecole",
    "type_fr": "Grande école",
    "website": "http://www.enssmal.dz/",
    "commune": "Dely Ibrahim",
    "wilaya_code": "16",
    "wilaya_name": "Alger",
    "lat": 36.7553186,
    "lng": 2.9817799,
    "geo_precision": "campus",
    "source": "https://www.mesrs.dz/en/university-network/"
  },
  {
    "id": 72,
    "name": "Ecole Nationale Supérieure des sciences politiques",
    "type": "grande_ecole",
    "type_fr": "Grande école",
    "website": "http://www.enssp.dz/",
    "commune": "Ben Aknoun",
    "wilaya_code": "16",
    "wilaya_name": "Alger",
    "lat": 36.758895,
    "lng": 3.0100658,
    "geo_precision": "commune",
    "source": "https://www.mesrs.dz/en/university-network/"
  },
  {
    "id": 73,
    "name": "Ecole nationale supérieure des travaux publics – Francis Jeanson",
    "type": "grande_ecole",
    "type_fr": "Grande école",
    "website": "http://www.entp.edu.dz/",
    "commune": "Kouba",
    "wilaya_code": "16",
    "wilaya_name": "Alger",
    "lat": 36.74413,
    "lng": 3.086474,
    "geo_precision": "commune",
    "source": "https://www.mesrs.dz/en/university-network/"
  },
  {
    "id": 74,
    "name": "École Nationale Supérieure en Intelligence Artificielle",
    "type": "grande_ecole",
    "type_fr": "Grande école",
    "website": "https://ensia.edu.dz/",
    "commune": null,
    "wilaya_code": "16",
    "wilaya_name": "Alger",
    "lat": 36.7325,
    "lng": 3.08722,
    "geo_precision": "wilaya",
    "source": "https://www.mesrs.dz/en/university-network/"
  },
  {
    "id": 75,
    "name": "Ecole nationale supérieure en statistique et en économie appliquée",
    "type": "grande_ecole",
    "type_fr": "Grande école",
    "website": "http://www.enssea.net/",
    "commune": "Kolea",
    "wilaya_code": "42",
    "wilaya_name": "Tipaza",
    "lat": 36.6389,
    "lng": 2.768,
    "geo_precision": "commune",
    "source": "https://www.mesrs.dz/en/university-network/"
  },
  {
    "id": 76,
    "name": "Ecole nationale supérieure vétérinaire – Rabie Bouchama",
    "type": "grande_ecole",
    "type_fr": "Grande école",
    "website": "http://www.ensv.dz/",
    "commune": "Bab Ezzouar",
    "wilaya_code": "16",
    "wilaya_name": "Alger",
    "lat": 36.7122437,
    "lng": 3.1694233,
    "geo_precision": "campus",
    "source": "https://www.mesrs.dz/en/university-network/"
  },
  {
    "id": 77,
    "name": "Ecole Polytechnique d’architecture et d’Urbanisme-Hocine Aït Ahmed",
    "type": "grande_ecole",
    "type_fr": "Grande école",
    "website": "http://www.epau-alger.edu.dz/",
    "commune": "El Harrach",
    "wilaya_code": "16",
    "wilaya_name": "Alger",
    "lat": 36.7164,
    "lng": 3.715,
    "geo_precision": "commune",
    "source": "https://www.mesrs.dz/en/university-network/"
  },
  {
    "id": 78,
    "name": "Ecole Supérieure Agronomique de Mostaganem ex EP SNV Mostaganem",
    "type": "grande_ecole",
    "type_fr": "Grande école",
    "website": "https://www.esa-mosta.dz",
    "commune": null,
    "wilaya_code": "27",
    "wilaya_name": "Mostaganem",
    "lat": 35.933,
    "lng": 0.083,
    "geo_precision": "wilaya",
    "source": "https://www.mesrs.dz/en/university-network/"
  },
  {
    "id": 79,
    "name": "Ecole Supérieure d’Economie d’Oran ex EPSECG Oran",
    "type": "grande_ecole",
    "type_fr": "Grande école",
    "website": "https://ese-oran.dz/",
    "commune": null,
    "wilaya_code": "31",
    "wilaya_name": "Oran",
    "lat": 35.69694,
    "lng": -0.63306,
    "geo_precision": "wilaya",
    "source": "https://www.mesrs.dz/en/university-network/"
  },
  {
    "id": 80,
    "name": "Ecole Supérieure d’Informatique (Sidi Bel Abbes)- 08 Mai 1945",
    "type": "grande_ecole",
    "type_fr": "Grande école",
    "website": "http://www.esi-sba.dz/",
    "commune": null,
    "wilaya_code": "22",
    "wilaya_name": "Sidi Bel Abbès",
    "lat": 35.19389,
    "lng": -0.64139,
    "geo_precision": "wilaya",
    "source": "https://www.mesrs.dz/en/university-network/"
  },
  {
    "id": 81,
    "name": "Ecole Supérieure de Commerce-Mouloud Kacem Naït Belkacem",
    "type": "grande_ecole",
    "type_fr": "Grande école",
    "website": "http://www.esc-alger.dz/",
    "commune": "Kolea",
    "wilaya_code": "42",
    "wilaya_name": "Tipaza",
    "lat": 36.6389,
    "lng": 2.768,
    "geo_precision": "commune",
    "source": "https://www.mesrs.dz/en/university-network/"
  },
  {
    "id": 82,
    "name": "Ecole Supérieure de Comptabilité et de Finance de Constantine ex EPSECG Constantine",
    "type": "grande_ecole",
    "type_fr": "Grande école",
    "website": "http://www.escf-constantine.dz/",
    "commune": null,
    "wilaya_code": "25",
    "wilaya_name": "Constantine",
    "lat": 36.35,
    "lng": 6.6,
    "geo_precision": "wilaya",
    "source": "https://www.mesrs.dz/en/university-network/"
  },
  {
    "id": 83,
    "name": "Ecole Supérieure de Gestion et d’Economie Numérique",
    "type": "grande_ecole",
    "type_fr": "Grande école",
    "website": "http://www.esgen.edu.dz/",
    "commune": "Kolea",
    "wilaya_code": "42",
    "wilaya_name": "Tipaza",
    "lat": 36.6389,
    "lng": 2.768,
    "geo_precision": "commune",
    "source": "https://www.mesrs.dz/en/university-network/"
  },
  {
    "id": 84,
    "name": "Ecole Supérieure de Management de Tlemcen ex EPSECG Tlemcen",
    "type": "grande_ecole",
    "type_fr": "Grande école",
    "website": "http://www.epsecg-tlemcen.dz/",
    "commune": null,
    "wilaya_code": "13",
    "wilaya_name": "Tlemcen",
    "lat": 34.88278,
    "lng": -1.31667,
    "geo_precision": "wilaya",
    "source": "https://www.mesrs.dz/en/university-network/"
  },
  {
    "id": 85,
    "name": "Ecole Supérieure des Sciences appliquées d’Alger ex EP ST Alger",
    "type": "grande_ecole",
    "type_fr": "Grande école",
    "website": "http://www.essa-alger.dz/",
    "commune": "Casbah",
    "wilaya_code": "16",
    "wilaya_name": "Alger",
    "lat": 36.7885836,
    "lng": 3.0613066,
    "geo_precision": "campus",
    "source": "https://www.mesrs.dz/en/university-network/"
  },
  {
    "id": 86,
    "name": "Ecole Supérieure des Sciences Appliquées de Tlemcen ex EP ST Tlemcen",
    "type": "grande_ecole",
    "type_fr": "Grande école",
    "website": "http://www.essa-tlemcen.dz/",
    "commune": null,
    "wilaya_code": "13",
    "wilaya_name": "Tlemcen",
    "lat": 34.88278,
    "lng": -1.31667,
    "geo_precision": "wilaya",
    "source": "https://www.mesrs.dz/en/university-network/"
  },
  {
    "id": 87,
    "name": "Ecole Supérieure des sciences Biologiques d’ Oran ex EP SNV Oran",
    "type": "grande_ecole",
    "type_fr": "Grande école",
    "website": "http://www.essb-oran.edu.dz/index.php/fr/",
    "commune": null,
    "wilaya_code": "31",
    "wilaya_name": "Oran",
    "lat": 35.69694,
    "lng": -0.63306,
    "geo_precision": "wilaya",
    "source": "https://www.mesrs.dz/en/university-network/"
  },
  {
    "id": 88,
    "name": "Ecole Supérieure des Sciences de l’Aliment et des Industries Agroalimentaires d’Alger ex EP SNV Alger",
    "type": "grande_ecole",
    "type_fr": "Grande école",
    "website": "http://www.essaia.dz/",
    "commune": null,
    "wilaya_code": "16",
    "wilaya_name": "Alger",
    "lat": 36.7325,
    "lng": 3.08722,
    "geo_precision": "wilaya",
    "source": "https://www.mesrs.dz/en/university-network/"
  },
  {
    "id": 89,
    "name": "Ecole Supérieure des Technologies Industrielles de Annaba ex EP ST Annaba",
    "type": "grande_ecole",
    "type_fr": "Grande école",
    "website": "https://esti-annaba.dz/",
    "commune": null,
    "wilaya_code": "23",
    "wilaya_name": "Annaba",
    "lat": 36.9,
    "lng": 7.767,
    "geo_precision": "wilaya",
    "source": "https://www.mesrs.dz/en/university-network/"
  },
  {
    "id": 90,
    "name": "Ecole Supérieure en Génie Electrique et Energétique d’Oran ex EP ST Oran",
    "type": "grande_ecole",
    "type_fr": "Grande école",
    "website": "http://www.esgee-oran.dz/",
    "commune": null,
    "wilaya_code": "31",
    "wilaya_name": "Oran",
    "lat": 35.69694,
    "lng": -0.63306,
    "geo_precision": "wilaya",
    "source": "https://www.mesrs.dz/en/university-network/"
  },
  {
    "id": 91,
    "name": "École Supérieure en Sciences et Technologies de l’Informatique et du Numérique de Bejaia",
    "type": "grande_ecole",
    "type_fr": "Grande école",
    "website": "https://estin.dz/",
    "commune": "Amizour",
    "wilaya_code": "06",
    "wilaya_name": "Béjaïa",
    "lat": 36.6635093,
    "lng": 4.9132188,
    "geo_precision": "campus",
    "source": "https://www.mesrs.dz/en/university-network/"
  },
  {
    "id": 92,
    "name": "L’Ecole nationale supérieure des énergies renouvelables, environnement et développement durable – Batna",
    "type": "grande_ecole",
    "type_fr": "Grande école",
    "website": "http://www.hns-re2sd.dz/",
    "commune": null,
    "wilaya_code": "05",
    "wilaya_name": "Batna",
    "lat": 35.55,
    "lng": 6.16667,
    "geo_precision": "wilaya",
    "source": "https://www.mesrs.dz/en/university-network/"
  },
  {
    "id": 93,
    "name": "L’Ecole supérieure de l’agriculture saharienne – El Oued",
    "type": "grande_ecole",
    "type_fr": "Grande école",
    "website": "http://esas-eloued.dz/",
    "commune": null,
    "wilaya_code": "39",
    "wilaya_name": "El Oued",
    "lat": 33.36111,
    "lng": 6.86056,
    "geo_precision": "wilaya",
    "source": "https://www.mesrs.dz/en/university-network/"
  },
  {
    "id": 94,
    "name": "Ecole normale supérieure d’enseignement technologique de Skikda",
    "type": "ens",
    "type_fr": "École normale supérieure",
    "website": "http://www.enset-skikda.dz/",
    "commune": null,
    "wilaya_code": "21",
    "wilaya_name": "Skikda",
    "lat": 36.86667,
    "lng": 6.9,
    "geo_precision": "wilaya",
    "source": "https://www.mesrs.dz/en/university-network/"
  },
  {
    "id": 95,
    "name": "Ecole Normale Supérieure d’Oran",
    "type": "ens",
    "type_fr": "École normale supérieure",
    "website": "http://www.ens-oran.dz/index.php/fr/",
    "commune": null,
    "wilaya_code": "31",
    "wilaya_name": "Oran",
    "lat": 35.69694,
    "lng": -0.63306,
    "geo_precision": "wilaya",
    "source": "https://www.mesrs.dz/en/university-network/"
  },
  {
    "id": 96,
    "name": "Ecole normale supérieure de Béchar",
    "type": "ens",
    "type_fr": "École normale supérieure",
    "website": "http://ensb.univ-bechar.dz/ensb/?page_id=971",
    "commune": null,
    "wilaya_code": "08",
    "wilaya_name": "Béchar",
    "lat": 31.617,
    "lng": -2.217,
    "geo_precision": "wilaya",
    "source": "https://www.mesrs.dz/en/university-network/"
  },
  {
    "id": 97,
    "name": "Ecole normale supérieure de Bou Saâda",
    "type": "ens",
    "type_fr": "École normale supérieure",
    "website": "http://www.ens-bousaada.dz/ar/",
    "commune": "Bou Saada",
    "wilaya_code": "68",
    "wilaya_name": "Bou Saâda",
    "lat": 35.2577086,
    "lng": 4.1811706,
    "geo_precision": "campus",
    "source": "https://www.mesrs.dz/en/university-network/"
  },
  {
    "id": 98,
    "name": "Ecole normale supérieure de Bouzaréah – Cheikh Mubarak Ben Mohamed Brahimi El Mili",
    "type": "ens",
    "type_fr": "École normale supérieure",
    "website": "http://www.ensb.dz/",
    "commune": "Bouzareah",
    "wilaya_code": "16",
    "wilaya_name": "Alger",
    "lat": 36.79,
    "lng": 3.0177,
    "geo_precision": "commune",
    "source": "https://www.mesrs.dz/en/university-network/"
  },
  {
    "id": 99,
    "name": "Ecole normale supérieure de Constantine -Assia Djebar",
    "type": "ens",
    "type_fr": "École normale supérieure",
    "website": "http://www.ensc.dz/",
    "commune": null,
    "wilaya_code": "25",
    "wilaya_name": "Constantine",
    "lat": 36.35,
    "lng": 6.6,
    "geo_precision": "wilaya",
    "source": "https://www.mesrs.dz/en/university-network/"
  },
  {
    "id": 100,
    "name": "Ecole normale supérieure de Kouba – Mohamed Bachir El Ibrahimi",
    "type": "ens",
    "type_fr": "École normale supérieure",
    "website": "http://www.ens-kouba.dz/",
    "commune": "Kouba",
    "wilaya_code": "16",
    "wilaya_name": "Alger",
    "lat": 36.74413,
    "lng": 3.086474,
    "geo_precision": "commune",
    "source": "https://www.mesrs.dz/en/university-network/"
  },
  {
    "id": 101,
    "name": "Ecole normale supérieure de Laghouat – Taleb Abderrahmane",
    "type": "ens",
    "type_fr": "École normale supérieure",
    "website": "https://www.ens-lagh.dz/en/",
    "commune": "Laghouat",
    "wilaya_code": "03",
    "wilaya_name": "Laghouat",
    "lat": 33.8108153,
    "lng": 2.8641055,
    "geo_precision": "campus",
    "source": "https://www.mesrs.dz/en/university-network/"
  },
  {
    "id": 102,
    "name": "Ecole Normale Supérieure de Mostaganem",
    "type": "ens",
    "type_fr": "École normale supérieure",
    "website": "http://ens.univ-mosta.dz/",
    "commune": null,
    "wilaya_code": "27",
    "wilaya_name": "Mostaganem",
    "lat": 35.933,
    "lng": 0.083,
    "geo_precision": "wilaya",
    "source": "https://www.mesrs.dz/en/university-network/"
  },
  {
    "id": 103,
    "name": "Ecole normale supérieure de Ouargla",
    "type": "ens",
    "type_fr": "École normale supérieure",
    "website": "http://ens-ouargla.dz/",
    "commune": null,
    "wilaya_code": "30",
    "wilaya_name": "Ouargla",
    "lat": 31.95,
    "lng": 5.317,
    "geo_precision": "wilaya",
    "source": "https://www.mesrs.dz/en/university-network/"
  },
  {
    "id": 104,
    "name": "Ecole normale supérieure de setif – Messaoud Zeghar",
    "type": "ens",
    "type_fr": "École normale supérieure",
    "website": "http://www.ens-setif.dz/",
    "commune": "El Eulma",
    "wilaya_code": "19",
    "wilaya_name": "Sétif",
    "lat": 36.1579698,
    "lng": 5.6643673,
    "geo_precision": "campus",
    "source": "https://www.mesrs.dz/en/university-network/"
  },
  {
    "id": 105,
    "name": "Ecole normale supérieure de sourds muets",
    "type": "ens",
    "type_fr": "École normale supérieure",
    "website": "http://www.enssm.dz/",
    "commune": null,
    "wilaya_code": "16",
    "wilaya_name": "Alger",
    "lat": 36.7325,
    "lng": 3.08722,
    "geo_precision": "wilaya",
    "source": "https://www.mesrs.dz/en/university-network/"
  },
  {
    "id": 106,
    "name": "Centre universitaire d’Aflou",
    "type": "centre_universitaire",
    "type_fr": "Centre universitaire",
    "website": "https://www.cu-aflou.dz/index_fr.php",
    "commune": null,
    "wilaya_code": "59",
    "wilaya_name": "Aflou",
    "lat": 34.10889,
    "lng": 2.10194,
    "geo_precision": "wilaya",
    "source": "https://www.mesrs.dz/en/university-network/"
  },
  {
    "id": 107,
    "name": "Centre universitaire d’El Bayadh – Nour Bachir",
    "type": "centre_universitaire",
    "type_fr": "Centre universitaire",
    "website": "http://www.cu-elbayadh.dz/",
    "commune": null,
    "wilaya_code": "32",
    "wilaya_name": "El Bayadh",
    "lat": 33.68028,
    "lng": 1.02028,
    "geo_precision": "wilaya",
    "source": "https://www.mesrs.dz/en/university-network/"
  },
  {
    "id": 108,
    "name": "Centre Universitaire d’Illizi-Cheikh Amoud ben Mokhtar",
    "type": "centre_universitaire",
    "type_fr": "Centre universitaire",
    "website": "http://www.cuillizi.dz/?page_id=528&amp;lang=fr#pll_switcher",
    "commune": null,
    "wilaya_code": "33",
    "wilaya_name": "Illizi",
    "lat": 26.505,
    "lng": 8.482,
    "geo_precision": "wilaya",
    "source": "https://www.mesrs.dz/en/university-network/"
  },
  {
    "id": 109,
    "name": "Centre Universitaire de Barika – Si El Haouès",
    "type": "centre_universitaire",
    "type_fr": "Centre universitaire",
    "website": "http://www.cu-barika.dz/",
    "commune": "Barika",
    "wilaya_code": "60",
    "wilaya_name": "Barika",
    "lat": 35.3632697,
    "lng": 5.3549741,
    "geo_precision": "campus",
    "source": "https://www.mesrs.dz/en/university-network/"
  },
  {
    "id": 110,
    "name": "Centre universitaire de Maghnia",
    "type": "centre_universitaire",
    "type_fr": "Centre universitaire",
    "website": "http://www.cu-maghnia.edu.dz/",
    "commune": "Maghnia",
    "wilaya_code": "13",
    "wilaya_name": "Tlemcen",
    "lat": 34.8361199,
    "lng": -1.7295867,
    "geo_precision": "campus",
    "source": "https://www.mesrs.dz/en/university-network/"
  }
]
