name,type,wilaya_code,lat,lng,source,osm_id,id,name_ar,name_fr,wikidata,heritage_status,wikipedia,heritage
Ancienne piste d'aviation,aircraft,01,26.4062703,0.0192765,OpenStreetMap,4318916905,1,,,,,,
قصر كتاب,archaeological_site,01,27.218676,-0.189249,OpenStreetMap,332254300,2,قصر كتاب,Ksar Kteb,,,,
Arsenaria,archaeological_site,02,36.3310278,0.8528333,Wikidata,,3,,Arsenaria,Q125375915,,,
Former French Army military camp المعسكر العسكري السابق للجيش الفرنسي,archaeological_site,02,36.4713574,1.2494142,OpenStreetMap,339657931,4,المعسكر العسكري السابق للجيش الفرنسي,,,,,
French Army observation post مركز مراقبة للجيش الفرنسي,archaeological_site,02,36.4853829,1.2838242,OpenStreetMap,1495651530,5,مركز مراقبة للجيش الفرنسي,,,,,
French Army observation post مركز مراقبة للجيش الفرنسي,archaeological_site,02,36.4852148,1.2778745,OpenStreetMap,1495651534,6,مركز مراقبة للجيش الفرنسي,,,,,
The Dome el goba القبة,archaeological_site,02,36.4863444,1.2761913,OpenStreetMap,1495651535,7,القبة,,,,,
Amphithéâtre المدرج,archaeological_site,05,35.4892143,6.2598365,OpenStreetMap,266444698,8,المدرج,Amphithéâtre,Q28969516,,,
Arc de Trajan,archaeological_site,05,35.4850379,6.4671671,OpenStreetMap,5434161242,9,,,,,,
Byzantine Fort in Timgad,archaeological_site,05,35.479736,6.46852,Wikidata,,10,القلعة البيزنطية في تيمقاد,Fort byzantin de Timgad,Q87745203,part of UNESCO World Heritage Site,,
Capitolium,archaeological_site,05,35.4834949,6.4666444,OpenStreetMap,5434295573,11,,Capitole,Q108449034,,,
Chasseurs baths,archaeological_site,05,35.4798512,6.2700657,OpenStreetMap,1261252372,12,,,,,,
Eastern Market of Timgad,archaeological_site,05,35.485103,6.4696197,Wikidata,,13,سوق تيمقاد الشرقي,Marché de l'Est,Q108449547,part of UNESCO World Heritage Site,,
Fort Byzantin,archaeological_site,05,35.4794837,6.4680411,OpenStreetMap,11680106,14,,,,,,
Forum,archaeological_site,05,35.4848096,6.4688325,OpenStreetMap,7948650860,15,,,,,,
Forum,archaeological_site,05,35.4785866,6.2694314,OpenStreetMap,1261252370,16,,,,,,
Forum of Timgad,archaeological_site,05,35.485052,6.468737,Wikidata,,17,فوروم تيمقاد,Forum de Timgad,Q87745332,part of UNESCO World Heritage Site,,
Ghoufi,archaeological_site,05,35.049153,6.16725,Wikidata,,18,غوفي,Canyon du Ghoufi,Q960102,,,
Grand Thermes du sud,archaeological_site,05,35.4830416,6.468364,OpenStreetMap,1104422614,19,,,,,,
Grand north baths of Timgad,archaeological_site,05,35.48744,6.46773,Wikidata,,20,,,Q94995286,,,
Great North Baths,archaeological_site,05,35.4873892,6.4677386,OpenStreetMap,911542227,21,,Grands Thermes du Nord,,,,
Lambaesis,archaeological_site,05,35.48928,6.25987,Wikidata,,22,,,Q23846130,,,
Lambaesis آثار رومانية تازولت,archaeological_site,05,35.4893542,6.2544112,OpenStreetMap,266446235,23,آثار رومانية تازولت,,Q1309744,,ar:لامبايزيس,
Market of Sertius,archaeological_site,05,35.4846177,6.4667722,OpenStreetMap,5433752626,24,,Marchè de Sertius,,,,
Market of Sertius,archaeological_site,05,35.4847222,6.4666667,Wikidata,,25,سوق سيرتيوس,Marché de Sertius,Q140070128,part of UNESCO World Heritage Site,,
Medracen,archaeological_site,05,35.7070701,6.4346439,OpenStreetMap,266446803,26,إيمدغاسن,,Q1538575,,fr:Medracen,
Medracen,archaeological_site,05,35.707267,6.4348192,OpenStreetMap,266446815,27,,,,,,
Pequeña Terma norte,archaeological_site,05,35.4865595,6.468836,OpenStreetMap,1104422262,28,,,,,,
Roman arch,archaeological_site,05,35.4795662,6.2718491,OpenStreetMap,1261247163,29,,,,,,
Ruines Romaines de Timgad,archaeological_site,05,35.4837052,6.4670134,OpenStreetMap,331768105,30,الآثار الرومانية تيمقاد,Ruines Romaines de Timgad,Q459629,,fr:Timgad,1
Ruines romaines de Diana Veteranorum,archaeological_site,05,35.7797772,6.0746127,OpenStreetMap,188544755,31,,,Q1573776,,en:Diana Veteranorum,
Ruins of an ancient village,archaeological_site,05,35.0553308,6.1715447,OpenStreetMap,13760817401,32,,,,,,
Terma este,archaeological_site,05,35.4855246,6.4703077,OpenStreetMap,1104422391,33,,,,,,
Theatre,archaeological_site,05,35.4841709,6.4688551,OpenStreetMap,7948637499,34,,Téâtre,Q19717113,,,
Triumphal Arch of Lambaesis,archaeological_site,05,35.4912551,6.2586398,OpenStreetMap,1261226926,35,,,,,,
Triumphal arch,archaeological_site,05,35.4864562,6.4639555,OpenStreetMap,5434165275,36,,Porte du Faubourg Ouest,,,,
temple,archaeological_site,05,35.4787194,6.2700386,OpenStreetMap,1261252371,37,,,,,,
Muslubium,archaeological_site,06,36.636739,5.246097,Wikidata,,38,,Muslubium,Q134438303,,,
Saldae,archaeological_site,06,36.75,5.066667,Wikidata,,39,صالداي,Saldae,Q1557873,,,
Tiklat,archaeological_site,06,36.6557824,4.8384377,OpenStreetMap,4592906446,40,تخلاث,,Q3541821,,fr:Tubusuptu,
Gemellae,archaeological_site,07,34.6365778,5.5228759,OpenStreetMap,265150071,41,,,Q3759336,,en:Gemellae,
سيدي قاسم,archaeological_site,07,34.6524,5.4720345,OpenStreetMap,950160742,42,,,,,,
Gravures rupestre,archaeological_site,08,30.8033876,-2.0569638,OpenStreetMap,393869213,43,,,,,,
Important Archeological Site,archaeological_site,11,24.6662077,6.7393974,OpenStreetMap,827672870,44,,,,,,
Tebessa Basilica,archaeological_site,12,35.4091033,8.1269163,Wikidata,,45,,basilique Sainte-Crispine,Q60746446,,,
Theveste,archaeological_site,12,35.4,8.1166667,Wikidata,,46,تيفست,Theveste,Q12220954,,,
كاتدرائية تبسة,archaeological_site,12,35.4091898,8.1269042,OpenStreetMap,209282323,47,كاتدرائية تبسة,Basilique de Theveste,,,,
معبد منيرفا,archaeological_site,12,35.4046516,8.1224865,OpenStreetMap,262617548,48,معبد منيرفا,Temple de Minerve,,,,
Altava,archaeological_site,13,34.8863889,-1.0247778,Wikidata,,49,ألطافا,Altava,Q434703,,,
Bab Rouah باب الرواح ⴱⴰⴱ ⵔⵡⴰⵃ,archaeological_site,13,34.8902299,-1.3024715,OpenStreetMap,5054964414,50,باب الرواح,Bab Rouah,,,,
Mausolée de Sidi Abdellah lbaal,archaeological_site,13,34.8754274,-1.2830427,OpenStreetMap,5054976164,51,ضريح سيد عبد الله البعل,Mausolée de Sidi Abdellah lbaal,,,,
Minaret d'Agadir صومعة أكادير ⵜⴰⴳⵔⵎⴰⵙ ⵏ ⴰⴳⴰⴷⵉⵔ,archaeological_site,13,34.8894378,-1.3001143,OpenStreetMap,5047155902,52,صومعة أكادير,Minaret d'Agadir,,,,
Ruines de Hammam Ghoula أثار حمام الغولة ⴰⵙⴻⴷⵍⵉ ⵃⴰⵎⴰⵎ ⵖⵓⵍⴰ,archaeological_site,13,34.8894519,-1.2995943,OpenStreetMap,5047073073,53,أثار حمام الغولة,Ruines de Hammam Ghoula,,,,
Ruines de la mosquée de Mansourah -ⴰⵙⴻⴷⵍⵉ ⵏ ⵜⴰⵎⵣⴳⵉⴷⴰ ⵏ ⵎⴰⵏⵚⵓⵕⴰ,archaeological_site,13,34.8708131,-1.3385844,OpenStreetMap,90639349,54,أثار مسجد المنصورة,Ruines de la mosquée de Mansourah,Q12242783,,en:Mansourah Mosque,
Tour de Ghemiss برج غميس ⴰⵙⵉⵔⵓ ⵏ ⴰⵖⵎⵉⵙ,archaeological_site,13,34.8904295,-1.2989941,OpenStreetMap,5043960145,55,برج غميس,Tour de Ghemiss,,,,
ancienne mosquée Idriside d'Agadir المسجد الإدريسي العتيق لأكادير ⵜⴰⵎⵣⴳⵉⴷⴰ ⵜⵉⴷⵔⵉⵙⵉⵜ ⵜⴰⵇⴱⵓⵔⵜ ⵏ ⴰⴳⴰⴷⵉⵔ,archaeological_site,13,34.8891696,-1.3000779,OpenStreetMap,517804092,56,المسجد الإدريسي العتيق لأكادير,ancienne mosquée Idriside d'Agadir,,,,
أثار حمام الغولة,archaeological_site,13,34.889569,-1.2995676,OpenStreetMap,517115321,57,أثار حمام الغولة,Ruines de Hammam Ghoula,,,,
Columnata,archaeological_site,14,35.4585262,1.5283408,OpenStreetMap,4788656623,58,,,,,,
Pyramide de Lejdar,archaeological_site,14,35.1130363,1.2126857,OpenStreetMap,929762754,59,,,Q3032861,,fr:Djeddar,
Pyramide de Lejdar,archaeological_site,14,35.1097182,1.2071493,OpenStreetMap,3503394424,60,,,,,,
Sidi Boubakeur,archaeological_site,14,35.4506556,1.4711601,OpenStreetMap,4792258886,61,,,,,,
Abri sous roche Ifri N’Dellal,archaeological_site,15,36.677114,4.424161,Wikidata,,62,,Abri sous roche Ifri N’Dellal,Q129760370,,,
Semaa,archaeological_site,15,36.8975716,4.156127,OpenStreetMap,2277162245,63,,,,,,
Tisira Amara,archaeological_site,15,36.902724,4.170465,OpenStreetMap,2277878324,64,,,,,,
Dra Zeg et Ter,archaeological_site,16,36.7132877,3.6978978,OpenStreetMap,1410759469,65,,,,,,
Rusguniae,archaeological_site,16,36.799094,3.237893,Wikidata,,66,,Rusguniae,Q125421752,Cultural heritage monuments in Algeria,,
الموقع الأثري لبقايا مسجد السيدة,archaeological_site,16,36.7851413,3.0623352,OpenStreetMap,12133859819,67,الموقع الأثري لبقايا مسجد السيدة,"Le site archéologique des vestiges de la ""Mosquée El Sayyida""",,,,
"مدينة الجزائر العتيقة ""إيكوسيم""",archaeological_site,16,36.7847679,3.0617809,OpenStreetMap,1291554593,68,"مدينة الجزائر العتيقة ""إيكوسيم""",,,,,
Igilgili,archaeological_site,18,36.8220833,5.7664444,Wikidata,,69,إيجلجيلي,Igilgili,Q1657150,,,
Ain Boucherit,archaeological_site,19,36.200833,5.650278,Wikidata,,70,عين بوشريط,Aïn Boucherit,Q60851742,,,
Ain El Ahnech,archaeological_site,19,36.2038889,5.6527778,Wikidata,,71,عين لحنش,Aïn El Ahnech,Q2876290,,,
Djémila,archaeological_site,19,36.3208997,5.7354314,OpenStreetMap,257564804,72,جميلة,Djemila,Q457362,,fr:Djemila,1
Garden of the Small Baths at Cuicul,archaeological_site,19,36.3185249,5.736305,OpenStreetMap,13355786467,73,,,,,,
Ikjan,archaeological_site,19,36.4702118,5.6566571,OpenStreetMap,1487735429,74,,,,,,
Ruines romaines; الآثار الرومانية,archaeological_site,19,36.1920685,5.4043067,OpenStreetMap,51826611,75,الآثار الرومانية,Ruines romaines,,,,
Annaba Theater,archaeological_site,23,36.8814029,7.7467203,OpenStreetMap,2947767583,76,,,,,,
Forum of Hippo Regius,archaeological_site,23,36.8815553,7.7481336,OpenStreetMap,1386288786,77,,,,,,
Great Church of Hippo Regius,archaeological_site,23,36.8830521,7.7508834,OpenStreetMap,1386288785,78,,,,,,
Hafsid Castle,archaeological_site,23,36.906619,7.765657,Wikidata,,79,القلعة الحفصية,,Q101095903,,,
Hippo Regius,archaeological_site,23,36.883651,7.755129,Wikidata,,80,هيبون,Hippone,Q858024,,,
"Hippo Regius, Thermae",archaeological_site,23,36.8847524,7.7501711,OpenStreetMap,1386285330,81,,,,,,
Macellum of Hippo Regius,archaeological_site,23,36.8827361,7.7497019,OpenStreetMap,1386288788,82,,,,,,
Site archéologique d’Hippone (Annaba),archaeological_site,23,36.8824366,7.7501362,OpenStreetMap,341070034,83,,,,,,
Southern Baths,archaeological_site,23,36.8807164,7.7509349,OpenStreetMap,12834593661,84,,,,,,
Villa of Procurator,archaeological_site,23,36.8808439,7.7492491,OpenStreetMap,12834593660,85,,,,,,
Roman fort,archaeological_site,24,36.4126397,7.087929,OpenStreetMap,1228354863,86,,,,,,
Thibilis,archaeological_site,24,36.3833333,7.25,Wikidata,,87,تبيليس,Thibilis,Q2420610,,,
Théatre Romain,archaeological_site,24,36.4672154,7.4301906,OpenStreetMap,356635599,88,,,Q101116126,,it:Teatro romano di Guelma,
vestiges de Roknia,archaeological_site,24,36.55,7.23333,Wikidata,,89,,vestiges de Roknia,Q3556388,,,
Cirta,archaeological_site,25,36.368115,6.613303,Wikidata,,90,سيرتا,Cirta,Q1093156,,,
Rapidum,archaeological_site,26,36.1333306,3.4333306,Wikidata,,91,رابيدوم,Rapidum,Q109626723,,,
Quiza Cenitana,archaeological_site,27,36.0299,0.2416,Wikidata,,92,كويزا كسينيتانا,Quiza Xenitana,Q7272713,,,
Chateau du Phare,archaeological_site,28,35.8232749,4.7989179,OpenStreetMap,1379249581,93,,قصر المنار,,,,
Mosquée de l'Emir,archaeological_site,28,35.823669,4.7985614,OpenStreetMap,1379249582,94,مسجد الامير,,,,,
Qalaa Beni Hammad,archaeological_site,28,35.8224833,4.7942963,OpenStreetMap,1379249575,95,قلعة بني حماد,,,,,
Tighennif,archaeological_site,29,35.4152778,0.3213889,Wikidata,,96,تغنيف,Tighennif,Q7801608,,,
Portus Magnus,archaeological_site,31,35.8049927,-0.2592493,OpenStreetMap,9233991201,97,,,,,,
"Portus Magnus, Algeria",archaeological_site,31,35.804714,-0.260028,Wikidata,,98,بورتيس ماغنيس,Portus Magnus (Algérie),Q11934573,,,
Tassili n'Ajjer,archaeological_site,33,25.6666667,9.0,Wikidata,,99,طاسيلي ناجر,Tassili n'Ajjer,Q190048,World Heritage Site,,
Benian ntaa Soumâa Citadel,archaeological_site,35,36.7014594,3.550191,OpenStreetMap,1384102734,100,,,,,,
Castellum Tulei,archaeological_site,35,36.778793,3.7976035,OpenStreetMap,1410759471,101,,,,,,
Chateau Romain,archaeological_site,35,36.6632058,3.6557993,OpenStreetMap,1379129665,102,قصر رومي,,,,,
Dra Azib Boujet,archaeological_site,35,36.7746074,3.7303635,OpenStreetMap,1410759470,103,,,,,,
El Jamaa Ihaddaden,archaeological_site,35,36.6806997,3.8142227,OpenStreetMap,1383065133,104,,,,,,
Haouch el Oudjani,archaeological_site,35,36.8589721,3.8307342,OpenStreetMap,1410759474,105,,,,,,
Kobr Roumia,archaeological_site,35,36.8144935,3.8165788,OpenStreetMap,1410759472,106,,,,,,
Marsa al Dejjaj مرسى الدجاج,archaeological_site,35,36.7995335,3.5661432,OpenStreetMap,1376564101,107,مرسى الدجاج,,,,,
Marsa al-Djaje,archaeological_site,35,36.8002658,3.5651722,Wikidata,,108,مرسى الدجاج,Marsa al-Djaje,Q125496468,Cultural heritage monuments in Algeria,,
Rusuccuru,archaeological_site,35,36.91285,3.90964,Wikidata,,109,,,Q15843385,,,
Taksebt des Ouled Said,archaeological_site,35,36.6562714,3.7263928,OpenStreetMap,1395521035,110,,,,,,
حصن الامير عبد القادر,archaeological_site,38,35.8655227,2.2807736,OpenStreetMap,259354485,111,حصن الامير عبد القادر,,,,,
Ksar Baghai,archaeological_site,40,35.5355503,7.1182448,OpenStreetMap,265150241,112,,,,,,
حمام الصالحين ⵃⴻⵎⵎⴰⵎ ⵚⴰⵍⵃⵉⵏ,archaeological_site,40,35.4401595,7.0846943,OpenStreetMap,2662646762,113,حمام الصالحين,Hammam Essalihine,Q2058233,,fr:Hammam Essalihine,
قصرالجازية - Mausolée de Cedias,archaeological_site,40,35.3222656,7.2349306,OpenStreetMap,318626658,114,,Mausolée de Cédias,Q12232982,,ar:قصر الجازية,
Ancient Roman theater in Khamissa,archaeological_site,41,36.1937048,7.6559214,OpenStreetMap,1321739924,115,,,Q2429753,,,
Forum Novum,archaeological_site,41,36.1919041,7.6539647,OpenStreetMap,1321756093,116,,,,,,
Madauros Theatre,archaeological_site,41,36.0778831,7.9014802,OpenStreetMap,284087760,117,,,Q62050969,,,
Thermae,archaeological_site,41,36.1921346,7.6535203,OpenStreetMap,1321756094,118,,,,,,
Thubursicum Numidarum,archaeological_site,41,36.1915906,7.6564366,OpenStreetMap,1321739442,119,,,Q3426859,,ar:ثيبيرسيكوم,
Amphithéatre romain,archaeological_site,42,36.6085973,2.1988885,OpenStreetMap,266409896,120,المدرج الروماني,Amphithéatre romain,Q28969515,,,
Aqueduc Maurétanien de Cherchell,archaeological_site,42,36.5685254,2.290128,OpenStreetMap,370173875,121,,,,,,
Archaeological Museum of Cherchell,archaeological_site,42,36.5979931,2.2014234,OpenStreetMap,4832565326,122,,Musée archéologique de Cherchell,Q4785393,,en:Archaeological Museum of Cherchell,
Breshk,archaeological_site,42,36.5687845,1.8603077,OpenStreetMap,1487738119,123,,,,,,
Ruines Romaines de Tipaza,archaeological_site,42,36.5946299,2.4422403,OpenStreetMap,171552738,124,الآثار الرومانية تيبازة,Ruines Romaines de Tipaza,Q3529269,,fr:Tipasa de Maurétanie,1
Tipasa eastern archaeological zone,archaeological_site,42,36.5929,2.4546,Wikidata,,125,,parc archéologique de Tipasa est,Q65643680,part of UNESCO World Heritage Site,,
Tipasa western archaeological zone,archaeological_site,42,36.594,2.4434,Wikidata,,126,,parc archéologique de Tipasa ouest,Q65643679,part of UNESCO World Heritage Site,,
aqueduct of Cherchell,archaeological_site,42,36.6069444,2.1966667,Wikidata,,127,,aqueduc de Cherchell,Q21028732,,,
El-Ksar,archaeological_site,43,36.2603926,5.5706896,OpenStreetMap,1154161722,128,,,,,,
Mausoleum of Quintus Lollius Urbicus,archaeological_site,43,36.489792,6.483428,Wikidata,,129,ضريح لوليوس أربيكيوس,mausolée de Quintus Lollius Urbicus,Q84710269,,,
Mechta el-Arbi,archaeological_site,43,36.099,6.131,Wikidata,,130,,,Q132402139,,,
Milevum,archaeological_site,43,36.4512765,6.267698,Wikidata,,131,ميليفوم,Milev (Numidie),Q28195180,,,
Quintus Lollius Urbicus Mausoleum,archaeological_site,43,36.4897736,6.4834582,OpenStreetMap,1268274982,132,,Mausolée de Quintus Lollius Urbicus,Q86725228,,ar:ضريح لوليوس أربيكيوس,
Ruines Romaines Tiddis,archaeological_site,43,36.4623723,6.4823717,OpenStreetMap,3650432490,133,الآثار الرومانية تيديس,,Q1396850,,en:Tiddis,
Site archéologique romain,archaeological_site,43,36.4774998,5.9971469,OpenStreetMap,5422432767,134,,,,,,
Tazrut,archaeological_site,43,36.2912948,6.1050539,OpenStreetMap,1491571097,135,,,,,,
Gargara (Aïn Defla),archaeological_site,44,36.3049,1.8471,Wikidata,,136,آثار قرقرة,Gargara (Aïn Defla),Q131348582,,,
دار الشانبيط,archaeological_site,44,36.3444683,2.2669695,OpenStreetMap,10931591600,137,دار الشانبيط,,,,,
Gravures Rupestres,archaeological_site,45,32.7801707,-0.4107575,OpenStreetMap,395980901,138,,,,,,
Albulae,archaeological_site,46,35.294322,-1.140089,Wikidata,,139,ألبولاي,Albulae,Q2831972,,,
Regiae,archaeological_site,46,35.45228,-0.618882,Wikidata,,140,ريجياي,Regiae,Q3423451,,,
Siga,archaeological_site,46,35.2664527,-1.4528777,OpenStreetMap,2719759752,141,سيقا,Siga,Q3483498,,ar:سيقا,
M'zab,archaeological_site,47,32.4872222,3.6813889,Wikidata,,142,مزاب,Mzab,Q724484,World Heritage Site,,
Ksar el Kaoua,archaeological_site,48,35.9190226,1.2002424,OpenStreetMap,1244100281,143,,,Q20726070,,fr:Ksar el Kaoua,
Ksar el Kaoua,archaeological_site,48,35.86667,1.11667,Wikidata,,144,قصر كاوة,Ksar el Kaoua,Q109258706,Cultural heritage monuments in Algeria,,
Ksar Draa,archaeological_site,49,29.5347801,0.1832851,OpenStreetMap,15441899,145,,Ksar Draa,Q136723083,,en:Ksar Draa,
‎Tamimimoon Old Town,archaeological_site,49,29.2881765,0.2413861,OpenStreetMap,1276224921,146,,‎Tamimimoon Old Town,,,,
Abri de In Temailt,archaeological_site,56,25.4295273,7.4483919,OpenStreetMap,9724483080,147,,Abri de In Temailt,,,,
Abri de Ouairassen,archaeological_site,56,25.4187845,7.4679961,OpenStreetMap,9724555693,148,,Abri de Ouairassen,,,,
Abri de Tigat Nalies (Three dancing women),archaeological_site,56,25.4354665,7.5011398,OpenStreetMap,7104280022,149,,Abri de Tigat Nalies,,,,
Abri de Tikadiouine,archaeological_site,56,25.3419847,8.0482866,OpenStreetMap,9758089117,150,,,,,,
Akaham ouan Elbered,archaeological_site,56,23.9820524,10.9267505,OpenStreetMap,316496850,151,,,,,,
Archeological Site,archaeological_site,56,24.238574,8.265454,OpenStreetMap,827625216,152,,,,,,
Elephant petroglyph,archaeological_site,56,24.0657945,10.88279,OpenStreetMap,7852977880,153,,,,,,
Elephant petroglyphs,archaeological_site,56,24.0598779,10.8330732,OpenStreetMap,7072439585,154,,,,,,
Fish petroglyphs,archaeological_site,56,24.0660215,10.8831037,OpenStreetMap,316501703,155,,,,,,
Giraffe petroglyphs of Tisseteka,archaeological_site,56,24.0731266,10.8234439,OpenStreetMap,7104354883,156,,,,,,
Ikadnouchere rock paintings,archaeological_site,56,25.3078556,7.9622595,OpenStreetMap,2552961759,157,,,,,,
Important Archeological Site,archaeological_site,56,24.5109766,8.4648236,OpenStreetMap,827589876,158,,,,,,
Important Archeological Site,archaeological_site,56,24.3761333,7.9190277,OpenStreetMap,827706867,159,,,,,,
Important archeological site,archaeological_site,56,24.8126998,8.6181268,OpenStreetMap,818886215,160,,,,,,
In Tanadouft,archaeological_site,56,25.3486162,8.020466,OpenStreetMap,7072462684,161,,,,,,
Ksar of Aghram,archaeological_site,56,25.4251789,8.4304252,OpenStreetMap,768736202,162,,,,,,
Ouan Atan Felsmalereien,archaeological_site,56,24.2695267,10.8518936,OpenStreetMap,316499810,163,,,,,,
Ouan Ekli petroglyphs,archaeological_site,56,24.0648806,10.84968,OpenStreetMap,316501704,164,,,,,,
Ouan Iska,archaeological_site,56,24.0661109,10.9548148,OpenStreetMap,7072156228,165,,,,,,
Ouan Takanessit Felsmalereien,archaeological_site,56,24.2347282,10.8838871,OpenStreetMap,316499807,166,,,,,,
Ouan Zaouatan,archaeological_site,56,24.0773348,10.9357146,OpenStreetMap,316499803,167,,,,,,
Oued Sirik,archaeological_site,56,24.2196956,10.8443718,OpenStreetMap,7072298901,168,,,,,,
Place de Jean Claude,archaeological_site,56,24.0580161,10.9626679,OpenStreetMap,1230779162,169,,,,,,
Rock Paintings,archaeological_site,56,24.5656798,9.3425441,OpenStreetMap,4529064932,170,,,,,,
Rock paintings,archaeological_site,56,25.3861674,7.7487147,OpenStreetMap,7074472024,171,,,,,,
Rock paintings,archaeological_site,56,25.3919834,7.7873743,OpenStreetMap,7074493223,172,,,,,,
Séfar,archaeological_site,56,24.687,9.651,Wikidata,,173,مدينة سفار,Séfar,Q22689835,,,
Tadrast,archaeological_site,56,25.433303,8.2969781,OpenStreetMap,7074477607,174,,,,,,
Tan Toudeft,archaeological_site,56,25.4221816,8.2203599,OpenStreetMap,7072546142,175,,,,,,
Tassili Cultural Park,archaeological_site,56,24.974,9.012,Wikidata,,176,الحظيرة الثقافية طاسيلي ناجر,Parc culturel du Tassili,Q14629434,Cultural heritage monuments in Algeria,,
Tedar rock paintings,archaeological_site,56,25.3649917,7.9752925,OpenStreetMap,2552961765,177,,,,,,
Tiaraneen,archaeological_site,56,25.4349644,8.247451,OpenStreetMap,7093129743,178,,,,,,
Tin Akahem (Felsmalereien),archaeological_site,56,23.8523635,10.3749837,OpenStreetMap,316496845,179,,,,,,
Tin Amarasouzi,archaeological_site,56,25.421658,8.298143,OpenStreetMap,7074472272,180,,,,,,
Tin Taborok paintings,archaeological_site,56,24.0731742,10.9056769,OpenStreetMap,7072156380,181,,,,,,
Tin Taghirt,archaeological_site,56,25.1486739,8.5058441,OpenStreetMap,2571925549,182,,,,,,
Tin Taghirt,archaeological_site,56,25.1486444,8.5059639,Wikidata,,183,,,Q131825711,,,
important archeological site,archaeological_site,56,24.8278481,8.3336356,OpenStreetMap,818755324,184,,,,,,
important archeological site,archaeological_site,56,24.7034527,8.6228043,OpenStreetMap,818756093,185,,,,,,
important archeological site,archaeological_site,56,24.8105552,8.330931,OpenStreetMap,818757191,186,,,,,,
neolithic painting,archaeological_site,56,24.0335748,10.9543028,OpenStreetMap,1230776910,187,,,,,,
neolithic painting,archaeological_site,56,24.0369228,10.9512017,OpenStreetMap,1230777564,188,,,,,,
neolithic petroglyph,archaeological_site,56,24.0347795,11.0122967,OpenStreetMap,7864958910,189,,,,,,
neolithic petroglyphs,archaeological_site,56,24.0323857,11.0125621,OpenStreetMap,7072193486,190,,,,,,
neolithic petroglyphs,archaeological_site,56,24.0372728,10.9513831,OpenStreetMap,7072320599,191,,,,,,
neolithic petroglyphs,archaeological_site,56,24.0429303,11.0212092,OpenStreetMap,7072419646,192,,,,,,
neolothic petroglyph,archaeological_site,56,24.0582223,10.9624513,OpenStreetMap,7846823935,193,,,,,,
rock paintings,archaeological_site,56,24.0545452,10.7661662,OpenStreetMap,316501709,194,,,,,,
إسالامن,archaeological_site,56,25.3878162,8.3528996,OpenStreetMap,7074480719,195,إسالامن,,,,,
البقرة البكاء,archaeological_site,56,24.380277,9.4323492,OpenStreetMap,316496842,196,البقرة البكاء,La vache qui pleure,,,,
اللوحات الصخرية بوادي أبو هديان,archaeological_site,56,24.200283,10.876935,OpenStreetMap,316499806,197,اللوحات الصخرية بوادي أبو هديان,Peintures rupestres vallée Bouhadian,,,,
اللوحات الصخرية طاسيلي ناجر,archaeological_site,56,25.0286191,8.5567661,OpenStreetMap,4407133091,198,اللوحات الصخرية طاسيلي ناجر,Peintures rupestres Tassili N' Ajjer,,,,
النقوش الصخرية بوان تيكال,archaeological_site,56,24.1336841,10.9314218,OpenStreetMap,316499804,199,النقوش الصخرية بوان تيكال,Pétroglyphes de Oued Tikal,,,,
تاناوت ⵜⴰⵏⴰⵡⵜ,archaeological_site,56,24.0577576,10.1602672,OpenStreetMap,7074429278,200,تاناوت,Tanaout,,,,
تين أرسو ⵜⵉⵏ ⴰⵔⴻⵙⵓ,archaeological_site,56,24.023561,10.2502173,OpenStreetMap,7072482699,201,تين أرسو,Tin Aressou,,,,
تين امالي ⵜⵉⵏ ⴰⵎⴰⵍⵉ,archaeological_site,56,24.4172898,9.526155,OpenStreetMap,4936229849,202,تين امالي,Tin Amali,,,,
قبر شمسي,archaeological_site,56,24.835834,9.0520792,OpenStreetMap,4529064838,203,قبر شمسي,Tombe solaire,,,,
قبر شمسي,archaeological_site,56,24.8043194,9.3124586,OpenStreetMap,11655976887,204,قبر شمسي,Tombe solaire,,,,
قبر شمسي,archaeological_site,56,24.793481,9.2791792,OpenStreetMap,11655976888,205,قبر شمسي,Tombe solaire,,,,
قبر شمسي,archaeological_site,56,24.734868,9.3014225,OpenStreetMap,11655976889,206,قبر شمسي,Tombe solaire,,,,
قبر شمسي,archaeological_site,56,24.728342,9.2853223,OpenStreetMap,11655976890,207,قبر شمسي,Tombe solaire,,,,
قبر شمسي,archaeological_site,56,24.7288825,9.3809756,OpenStreetMap,11655976891,208,قبر شمسي,Tombe solaire,,,,
قبر شمسي,archaeological_site,56,24.7516137,9.32633,OpenStreetMap,11655976893,209,قبر شمسي,Tombe solaire,,,,
قبر شمسي,archaeological_site,56,24.7515233,9.2929189,OpenStreetMap,11655976894,210,قبر شمسي,Tombe solaire,,,,
قبر شمسي,archaeological_site,56,24.7563646,9.2745275,OpenStreetMap,11655976895,211,قبر شمسي,Tombe solaire,,,,
قبر شمسي,archaeological_site,56,24.7538336,9.2959172,OpenStreetMap,11655976896,212,قبر شمسي,Tombe solaire,,,,
قبر شمسي,archaeological_site,56,24.7537879,9.3004548,OpenStreetMap,11655976897,213,قبر شمسي,Tombe solaire,,,,
قبر شمسي,archaeological_site,56,24.7512065,9.3001945,OpenStreetMap,11655976898,214,قبر شمسي,Tombe solaire,,,,
قبر شمسي,archaeological_site,56,24.7494389,9.3000022,OpenStreetMap,11655976899,215,قبر شمسي,Tombe solaire,,,,
قبر شمسي,archaeological_site,56,24.7494598,9.3049632,OpenStreetMap,11655976900,216,قبر شمسي,Tombe solaire,,,,
قبر شمسي,archaeological_site,56,24.7476837,9.3102461,OpenStreetMap,11655976901,217,قبر شمسي,Tombe solaire,,,,
قبر شمسي,archaeological_site,56,24.7353922,9.3003677,OpenStreetMap,11655976904,218,قبر شمسي,Tombe solaire,,,,
قبر شمسي,archaeological_site,56,24.7355689,9.3000846,OpenStreetMap,11655976905,219,قبر شمسي,Tombe solaire,,,,
قبر شمسي,archaeological_site,56,24.7357369,9.3067752,OpenStreetMap,11655976907,220,قبر شمسي,Tombe solaire,,,,
قبر شمسي,archaeological_site,56,24.735859,9.304782,OpenStreetMap,11655976908,221,قبر شمسي,Tombe solaire,,,,
قبر شمسي,archaeological_site,56,24.7354883,9.3035306,OpenStreetMap,11655976909,222,قبر شمسي,Tombe solaire,,,,
قبر شمسي,archaeological_site,56,24.7351293,9.294456,OpenStreetMap,11655976910,223,قبر شمسي,Tombe solaire,,,,
قبر شمسي,archaeological_site,56,24.7351054,9.2946833,OpenStreetMap,11655976911,224,قبر شمسي,Tombe solaire,,,,
قبر شمسي,archaeological_site,56,24.7352073,9.2946444,OpenStreetMap,11655976912,225,قبر شمسي,Tombe solaire,,,,
قبر شمسي,archaeological_site,56,24.73431,9.2910956,OpenStreetMap,11655976913,226,قبر شمسي,Tombe solaire,,,,
قبر شمسي,archaeological_site,56,24.7334752,9.2912431,OpenStreetMap,11655976914,227,قبر شمسي,Tombe solaire,,,,
قبر شمسي,archaeological_site,56,24.735899,9.2896543,OpenStreetMap,11655976916,228,قبر شمسي,Tombe solaire,,,,
قبر شمسي,archaeological_site,56,24.7359671,9.282167,OpenStreetMap,11655976917,229,قبر شمسي,Tombe solaire,,,,
قبر شمسي,archaeological_site,56,24.7515805,9.2929197,OpenStreetMap,11656177113,230,قبر شمسي,Tombe solaire,,,,
قبر شمسي,archaeological_site,56,24.8000846,9.282385,OpenStreetMap,11656177114,231,قبر شمسي,Tombe solaire,,,,
قبر شمسي,archaeological_site,56,24.7993535,9.2834097,OpenStreetMap,11656177115,232,قبر شمسي,Tombe solaire,,,,
قبر شمسي,archaeological_site,56,24.7971032,9.3023071,OpenStreetMap,11656177116,233,قبر شمسي,Tombe solaire,,,,
قبر شمسي,archaeological_site,56,24.7950007,9.3082014,OpenStreetMap,11656177117,234,قبر شمسي,Tombe solaire,,,,
قبر شمسي,archaeological_site,56,24.7576888,9.3097895,OpenStreetMap,11656177118,235,قبر شمسي,Tombe solaire,,,,
قبر شمسي,archaeological_site,56,24.7570671,9.3109434,OpenStreetMap,11656177119,236,قبر شمسي,Tombe solaire,,,,
قبر شمسي,archaeological_site,56,24.7570497,9.3163725,OpenStreetMap,11656177120,237,قبر شمسي,Tombe solaire,,,,
قبر شمسي,archaeological_site,56,24.7374287,9.3282227,OpenStreetMap,11656177121,238,قبر شمسي,Tombe solaire,,,,
قبر شمسي,archaeological_site,56,24.737269,9.3125437,OpenStreetMap,11656177122,239,قبر شمسي,Tombe solaire,,,,
قبر شمسي,archaeological_site,56,24.7370734,9.3119644,OpenStreetMap,11656177123,240,قبر شمسي,Tombe solaire,,,,
قبر شمسي,archaeological_site,56,24.7369168,9.3102313,OpenStreetMap,11656177124,241,قبر شمسي,Tombe solaire,,,,
قبر شمسي,archaeological_site,56,24.7362254,9.2982526,OpenStreetMap,11656177128,242,قبر شمسي,Tombe solaire,,,,
قبر شمسي,archaeological_site,56,24.7361776,9.2979654,OpenStreetMap,11656177129,243,قبر شمسي,Tombe solaire,,,,
قبر شمسي,archaeological_site,56,24.7338524,9.2913877,OpenStreetMap,11656177134,244,قبر شمسي,Tombe solaire,,,,
قبر شمسي,archaeological_site,56,24.7359316,9.2825374,OpenStreetMap,11656177137,245,قبر شمسي,Tombe solaire,,,,
Roman bridge in El Kantara,archaeological_site,61,35.233555,5.701555,Wikidata,,246,جسر القنطرة الروماني,pont romain d'El Kantara,Q101243536,,,
Oued Djebbana,archaeological_site,62,34.73,8.051,Wikidata,,247,,,Q131928123,,,
Ruines d'Achir,archaeological_site,67,35.9450356,3.2848055,OpenStreetMap,385862082,248,اطلال المدينة الاثرية آشير,,Q2401317,,fr:Achir,
Ausum,archaeological_site,68,34.8613753,4.9245416,OpenStreetMap,1338155675,249,,,,,,
رحى فيريرو,archaeological_site,68,35.1920423,4.1653317,OpenStreetMap,3207837890,250,رحى فيريرو,Moulin Ferrero,,,,
قيادة القوات البحرية,area,16,36.7842127,3.069175,OpenStreetMap,155362197,251,قيادة القوات البحرية,Commandement des Forces Navales,,,,
Caserne Bab Lakouas,barracks,26,36.2616984,2.748355,OpenStreetMap,190374019,252,ثكنة باب الأقواس,Caserne Bab Lakouas,,,,
حمامات قيصر الرومانية,bath,25,36.3663834,6.6158479,OpenStreetMap,13680444051,253,حمامات قيصر الرومانية,Thermes romains de César,,,,
Battle site of the Battle of Oued Chelif (1015),battle_site,67,35.6433139,2.3178677,OpenStreetMap,1513382475,254,موقع المعركة واد شليف (1015),,,,,
حصار الأغواط,battlefield,03,33.8054435,2.8788191,OpenStreetMap,12471849708,255,حصار الأغواط,Siège de Laghouat,Q16931833,,ar:حصار الأغواط,
نصب تذكاري لإندلاع ثورة أول نوفمبر,battlefield,05,35.1546118,6.2450322,OpenStreetMap,474802378,256,نصب تذكاري لإندلاع ثورة أول نوفمبر,,,,fr:Guerre d'Algérie,
Bataille de Staoueli معركة سطاوالي,battlefield,16,36.7579768,2.881601,OpenStreetMap,12471558534,257,معركة سطاوالي,Bataille de Staoueli,Q2890049,,ar:معركة سطاوالي (1830),
حصار قلعة برج مولاي الحسن,battlefield,16,36.7738159,3.0448054,OpenStreetMap,12471601073,258,حصار قلعة برج مولاي الحسن,Siège de la forteresse de Bordj Moulay Hassan,,,,
Les 04 chemins,boundary_stone,15,36.7023441,4.5331584,OpenStreetMap,2837834352,259,,,,,,
pk 178/49,boundary_stone,30,31.9364984,5.4176932,OpenStreetMap,5305560977,260,,,,,,
قناة عين الزبوجة,bridge,16,36.7559196,3.0311632,OpenStreetMap,278903680,261,قناة عين الزبوجة,Aqueduc Ain Zeboudja,,,,
El Kantara,bridge,61,35.2335682,5.701588,OpenStreetMap,475450594,262,,,,,,yes
الجامع ميقور,building,06,36.6062598,4.6440125,OpenStreetMap,261518724,263,الجامع ميقور,El Jama3 Migour,,,,
Château Boukandoura قلعة بوقندورة,building,09,36.5978227,3.162279,OpenStreetMap,1160663208,264,قلعة بوقندورة,Château Boukandoura,,,,
البريد المركزي الجزائر,building,16,36.773079,3.0595769,OpenStreetMap,415866,265,البريد المركزي الجزائر,La Grande Poste d'Alger,Q3115007,,fr:Grande Poste d'Alger,
مستشفى بودانس القديم,building,31,35.7056835,-0.6537832,OpenStreetMap,369151778,266,مستشفى بودانس القديم,Ancien hôpital Baudens,,,,
Gendarmerie de Oued Athmania درك وادي العثمانية,building,43,36.2480698,6.2887441,OpenStreetMap,1329600495,267,درك وادي العثمانية,Gendarmerie de Oued Athmania,,,,
Centre de concentration 2 ème Bureau,building,46,35.3044774,-1.1825911,OpenStreetMap,5305283021,268,مركز التعديب المكتب 2,Centre de concentration 2 ème Bureau,,,,
Kasba,castle,01,26.9634847,1.0824514,OpenStreetMap,298367390,269,,,,,,
Ksar,castle,01,27.8301491,-0.270722,OpenStreetMap,1363070571,270,,,,,,
Ksar,castle,01,27.8728849,-0.3417701,OpenStreetMap,1363082816,271,,,,,,
Ksar,castle,01,27.336779,-0.2342137,OpenStreetMap,1364293354,272,,,,,,
Ksar,castle,01,27.4502424,-0.2643222,OpenStreetMap,1365073274,273,,,,,,
Ksar,castle,01,27.1564356,-0.1374983,OpenStreetMap,1428568380,274,,,,,,
Ksar,castle,01,27.156911,-0.1359329,OpenStreetMap,1428568383,275,,,,,,
Ksar,castle,01,27.1435553,-0.1376885,OpenStreetMap,1428568394,276,,,,,,
Ksar القصر,castle,01,27.2718879,-0.2066214,OpenStreetMap,1361579926,277,القصر,Ksar,,,,
Ksar القصر,castle,01,27.2640264,-0.2076234,OpenStreetMap,1361579932,278,القصر,Ksar,,,,
Ksar القصر,castle,01,27.2562743,-0.2096369,OpenStreetMap,1361579933,279,القصر,Ksar,,,,
Ksar القصر,castle,01,27.6501053,-0.2048939,OpenStreetMap,1364194176,280,القصر,Ksar,,,,
بالحاج,castle,01,27.7445097,-0.2719666,OpenStreetMap,4798706321,281,بالحاج,Belhadj,,,,
أولاد عدة,castle,02,36.1900309,0.9302819,OpenStreetMap,7778783686,282,أولاد عدة,,,,,
أولاد عين الناس,castle,02,36.1570842,0.9428761,OpenStreetMap,7778783887,283,أولاد عين الناس,,,,,
البيايض,castle,02,36.1750361,1.0104464,OpenStreetMap,7778783985,284,البيايض,,,,,
السهايلية,castle,02,36.1674177,0.9258083,OpenStreetMap,7778783885,285,السهايلية,,,,,
سخاريف,castle,02,36.1017066,0.9483852,OpenStreetMap,7778783886,286,سخاريف,Skharif,,,,
عين العزلة,castle,02,36.2206095,0.9549582,OpenStreetMap,7472265185,287,عين العزلة,,,,,
Fort Bouscaren,castle,03,33.8034368,2.8802413,OpenStreetMap,42693121,288,,,,,,
Ksar,castle,03,33.7938532,2.300943,OpenStreetMap,405891354,289,قصر عين ماضي,,,,,
Palais de Kourdane,castle,03,33.8497,2.34049,Wikidata,,290,قصر كوردان,palais de Kourdane,Q3360974,,,
راس بنادم,castle,03,32.9993535,2.8605599,OpenStreetMap,12705996101,291,,,,,,
Château,castle,04,35.8787548,7.116255,OpenStreetMap,310446941,292,القبة,Château,,,,
اقلفن,castle,05,35.0742671,6.0222573,OpenStreetMap,5020286272,293,اقلفن,,,,,
الجدة جوهرة بن منصور,castle,05,35.6697723,5.6490469,OpenStreetMap,5080748822,294,الجدة جوهرة بن منصور,Nana djohra benmansour,,,,
حدود أملاك لخضر بن علي علاوة,castle,05,35.1276534,6.4367762,OpenStreetMap,6710739885,295,حدود أملاك لخضر بن علي علاوة,Fin de la propriété de Lakhdar Ben Ali Allaoua,,,,
رأس السراء كيمل تكوت,castle,05,35.0799265,6.4018848,OpenStreetMap,6668792989,296,رأس السراء كيمل تكوت,,,,,
قاعة حفلات الزفاف طبنة,castle,05,35.582181,6.1944315,OpenStreetMap,5844039385,297,قاعة حفلات الزفاف طبنة,,,,,
قلعة ايقلفن,castle,05,35.0791259,6.0174061,OpenStreetMap,552216176,298,قلعة ايقلفن,,,,,
قلعة بالول,castle,05,35.0923068,6.064984,OpenStreetMap,552216174,299,قلعة بالول,,,,,
هازمال,castle,05,35.097301,6.0518114,OpenStreetMap,5020349494,300,هازمال,,,,,
هاليليث,castle,05,35.0747157,5.9942827,OpenStreetMap,5331940624,301,هاليليث,,,,,
هيطرومكث,castle,05,35.0848993,6.0281814,OpenStreetMap,5020286273,302,هيطرومكث,,,,,
Bordj Moussa,castle,06,36.7551096,5.0836546,OpenStreetMap,338116028,303,برج موسى,Bordj Moussa,Q124425851,,,
Fort Lemercier,castle,06,36.7663501,5.0682968,OpenStreetMap,5089539019,304,حصن يما قورايا,Fort Lemercier,Q17354602,,ar:حصن يما قورايا,
La comtesse,castle,06,36.6449015,5.2091517,OpenStreetMap,4578229792,305,,,,,,
Yemma Gouraya,castle,06,36.7707745,5.0812886,OpenStreetMap,309222600,306,يما قورايا,Yemma Gouraya,Q3572154,,fr:Yemma Gouraya,
Ramzi,castle,07,34.6911358,6.5061664,OpenStreetMap,7134194885,307,,Ramzi,,,,
بوووزال,castle,07,35.0291707,6.0069169,OpenStreetMap,5020349624,308,بوووزال,,,,,
فدعنان,castle,07,35.0222299,6.0150922,OpenStreetMap,5020349625,309,فدعنان,,,,,
هاقرنين,castle,07,35.0410566,5.9803866,OpenStreetMap,5331940625,310,هاقرنين,,,,,
هاقليحث,castle,07,35.0186459,6.0427734,OpenStreetMap,4697184797,311,هاقليحث,,,,,
Bordj Flye Sainte Marie,castle,08,27.319878,-2.9839002,OpenStreetMap,504811761,312,,,Q2910763,,fr:Bordj Flye Sainte Marie,
Bordj Arak,castle,11,25.2926518,3.7481752,OpenStreetMap,562083262,313,,,,,,
مكان,castle,11,22.9793908,6.0106289,OpenStreetMap,8825725719,314,,,,,,
النجم الثاقب تبسة,castle,12,35.4033789,8.1217254,OpenStreetMap,4582086790,315,النجم الثاقب تبسة,L'étoile filante Tebessa,,,,
النسر الذهبي,castle,12,35.4012833,8.1173771,OpenStreetMap,4274571091,316,النسر الذهبي,L'Aigle d'Or,,,,
باب كاركلا تبسة,castle,12,35.4046685,8.1230636,OpenStreetMap,2682856138,317,باب كاركلا تبسة,Porte CARACALLA Tebessa,Q3621773,,ar:قوس كاراكالا (تبسة),
Belkessakis,castle,13,35.0455863,-1.3808166,OpenStreetMap,5787745157,318,,Belkessakis,,,,
Medersa KHALDOUNIA -المدرسة الخلدونية -ⵎⴷⴰⵔⵙⴰ ⵜⴰⵅⴰⵍⴷⵓⵏⵉⵜ,castle,13,34.8776621,-1.289783,OpenStreetMap,518138599,319,,Medersa Khaldounia,,,,
Palais Royale Zianide - القصر الملكي الزياني -ⵜⴰⴳⴰⴷⵉⵔⵜ ⵜⴰⴳⴻⵍⴷⴰⵏⵜ ⵜⴰⵣⵢⵢⴰⵏⵉⵜ,castle,13,34.8816047,-1.3090274,OpenStreetMap,14571675,320,القصر الملكي الزياني,Palais Royale Zianide,,,,
Palais du Sultan قصر السلطان ⵜⴰⴳⴰⴷⵉⵔⵜ ⵏ ⵙⵓⵍⵟⴰⵏ,castle,13,34.8781505,-1.2897724,OpenStreetMap,518138602,321,قصر السلطان,Palais du Sultan,,,,
Palais el-Mechouar,castle,13,34.8809396,-1.3088585,OpenStreetMap,100273033,322,قصر المشور,Palais el-Mechouar,Q3360854,,fr:Palais El Mechouar,
حصن هنين,castle,13,35.1743139,-1.6562682,OpenStreetMap,920587913,323,حصن هنين,Forteresse de Honaïne,,,,
Base,castle,15,36.5533927,4.2807392,OpenStreetMap,5042422021,324,قاعة,,,,,
Bordj Turc,castle,15,36.7090062,4.0473276,OpenStreetMap,370226262,325,البرج التركي,Bordj Turc,,,,
Mécanicien makouda,castle,15,36.781897,4.069894,OpenStreetMap,6578143185,326,,,,,,
château d'eau,castle,15,36.6568593,4.3929687,OpenStreetMap,632279595,327,,,,,,
Al Hambra Palace,castle,16,36.7849147,3.059471,OpenStreetMap,11925037601,328,,,,,,
Bordj Moulay Hassen برج مولاي حسن,castle,16,36.7736868,3.045979,OpenStreetMap,17972296,329,برج مولاي حسن,Fort de Moulay Hassen,Q3078279,,fr:Fort l'Empereur,
Chateau,castle,16,36.7476751,3.0440189,OpenStreetMap,5134771322,330,,,,,,
Château de Draria,castle,16,36.7301201,2.9962332,OpenStreetMap,3317692,331,,,,,,
Dar Ahmed Pacha,castle,16,36.7858984,3.0614463,OpenStreetMap,1267569904,332,دار أحمد باشا,,,,,
Ex-Palais du Oukil El Hardj القصر السابق لوكيل الحرج,castle,16,36.7866966,3.0679921,OpenStreetMap,431479271,333,القصر السابق لوكيل الحرج,Ex-Palais du Oukil El Hardj,,,,
Le Vieux Palais,castle,16,36.7861525,3.061475,OpenStreetMap,17680960,334,,,,,,
Musée National du Bardo,castle,16,36.7603824,3.0463803,OpenStreetMap,18668624,335,المتحف الوطني باردو,Musée Public National du Bardo,Q3330730,,fr:Musée national du Bardo (Algérie),
Palais Mustapha Pacha قصر مصطفى باشا,castle,16,36.7570903,3.0482966,OpenStreetMap,537418651,336,قصر مصطفى باشا,Palais Mustapha Pacha,,,,
Palais du Peuple,castle,16,36.7589351,3.0461118,OpenStreetMap,273506719,337,,,,,,
Sidi Fredj,castle,16,36.764235,2.846914,OpenStreetMap,268696772,338,,,,,,
Villa Abdelatif,castle,16,36.7447485,3.0731079,OpenStreetMap,273321488,339,دار عبد اللطيف,Villa Abdelatif,Q3558439,,fr:Villa Abd-el-Tif,
دار الحمراء,castle,16,36.7874546,3.062233,OpenStreetMap,11925189575,340,,,,,,
دار حسن باشا,castle,16,36.7852564,3.0609196,OpenStreetMap,20325219,341,دار حسن باشا,Dar Hassan Pacha,,,,
قصر الداي,castle,16,36.7845463,3.055111,OpenStreetMap,11931096136,342,قصر الداي,Palais du Dey,Q12232990,,ar:قصر الداي,
قصر رياس البحر,castle,16,36.7882833,3.0639774,OpenStreetMap,6724867,343,قصر رياس البحر,Palais Côtier du Raïs,Q3361082,,fr:Palais des Raïs,
Fort Duquesne,castle,18,36.8192168,5.7727747,OpenStreetMap,437738331,344,,,,,,
منزل لورغي,castle,18,36.8332334,5.9860307,OpenStreetMap,5214720121,345,منزل لورغي,Maison Lourghi,,,,
el yasmine,castle,19,36.1482686,5.453056,OpenStreetMap,4370204864,346,,,,,,
Djeladjel Hamid,castle,20,34.8353833,0.1523435,OpenStreetMap,4517689090,347,,Djeladjel Hamid,,,,
BELGAHRI.Sebti,castle,21,36.5989653,6.8993685,OpenStreetMap,4463085589,348,,BELGAHRI.Sebti,,,,
Dar,castle,21,36.6287515,6.6330909,OpenStreetMap,4872871021,349,,Dar,,,,
Palais Meriem (Chateau Bengana),castle,21,36.8865648,6.8971381,OpenStreetMap,352694110,350,,,,,,
Chateau Perrin,castle,22,35.1896666,-0.6788162,OpenStreetMap,219390764,351,,,,,,
Dar,castle,25,36.3136454,6.6162393,OpenStreetMap,7258949585,352,,Dar,,,,
Palais du Bey,castle,25,36.3678005,6.6115537,OpenStreetMap,312325317,353,قصر الباي,Palais du Bey,,,,
Cité zagheloul f,castle,27,35.9197968,0.0906989,OpenStreetMap,6950569986,354,,,,,,
Fort Turc,castle,27,35.9342815,0.0964291,OpenStreetMap,502644165,355,برج الترك,,,,,
خربات,castle,27,36.3308681,0.6920339,OpenStreetMap,5427651521,356,خربات,,,,,
مؤسسة جنة العارف,castle,27,35.9153242,0.1121484,OpenStreetMap,7119229990,357,مؤسسة جنة العارف,Fondation Djanet el Arif,,,,
منارة رأس ويليس,castle,27,36.1127893,0.2268674,OpenStreetMap,4475736293,358,منارة رأس ويليس,Minaret raas wilis,,,,
Kalaat Beni Hamad,castle,28,35.821211,4.7894058,OpenStreetMap,381561430,359,قلعة بني حماد,,Q500367,,fr:Kalâa des Béni Hammad,1
قصر البحيرة,castle,28,35.8227582,4.7903358,OpenStreetMap,379893552,360,قصر البحيرة,,,,,
Bordj Chandez,castle,30,31.9569143,5.3274599,OpenStreetMap,12934420,361,,,,,,
Fort Lallemand,castle,30,31.2918545,6.3255279,OpenStreetMap,7292598,362,,,,,,
الدار الكبيرة,castle,30,31.9360466,5.3264218,OpenStreetMap,6407323785,363,الدار الكبيرة,La Grande maison,,,,
Batterie du Santon,castle,31,35.7339019,-0.7133996,OpenStreetMap,2281948464,364,,,,,,
Fort Lamoune,castle,31,35.7135806,-0.6567056,OpenStreetMap,2281944455,365,,Fort Lamoune,,,,
Fort Lamoune,castle,31,35.710561,-0.6600183,OpenStreetMap,6443228509,366,,Fort Lamoune,,,,
Fort Saint André,castle,31,35.6983069,-0.6528448,OpenStreetMap,375391065,367,,,,,,
Fort Santa Cruz,castle,31,35.7092243,-0.6650461,OpenStreetMap,12433045874,368,,,Q524667,,fr:Fort de Santa-Cruz (Oran),
Fort Santiago,castle,31,35.7054619,-0.6601113,OpenStreetMap,12433004674,369,,,,,,
Fort Santon,castle,31,35.7347208,-0.7119058,OpenStreetMap,303777154,370,,,,,,
Fort lamoune,castle,31,35.7136209,-0.6565389,OpenStreetMap,687380273,371,,,,,,
Palais du Bey,castle,31,35.7057262,-0.6493408,OpenStreetMap,368993774,372,قصر الباي,Palais du Bey,Q12232976,,fr:Palais du Bey (Oran),2
Salle des fêtes,castle,31,35.6986023,-0.6183262,OpenStreetMap,5666324922,373,,Salle des fêtes,,,,
Villa Abed Tlamsani,castle,31,35.6262178,-0.518231,OpenStreetMap,4471986489,374,,Villa Abed Tlamsani,,,,
porte canastel,castle,31,35.7051765,-0.6525222,OpenStreetMap,6442577464,375,,,,,,
قلعة المرسى الكبير,castle,31,35.7375872,-0.6993826,OpenStreetMap,9248254171,376,,Fort de Mers el-Kébir,,,,
تلي أحمد,castle,32,33.0886228,0.9715208,OpenStreetMap,10564950810,377,تلي أحمد,,,,,
جلاجل احمد,castle,32,33.6776514,1.0158747,OpenStreetMap,10564950210,378,جلاجل احمد,,,,,
Fort Flatters,castle,33,28.1041748,6.8116218,OpenStreetMap,18273000,379,,,,,,
Fort d'Issendjel,castle,33,26.8614645,8.7245902,OpenStreetMap,4947235132,380,,,Q106097307,,,
قلعة سليمان شايدي,castle,34,35.9433909,5.0395927,OpenStreetMap,5875416285,381,قلعة سليمان شايدي,,,,,
château fort,castle,35,36.920216,3.9009205,OpenStreetMap,5106056423,382,شطوفور,château fort,,,,
Fort d'El Kala;قلعة القالة,castle,36,36.8942873,8.4436487,OpenStreetMap,460216566,383,قلعة القالة,Fort d'El Kala,,,,
توفة,castle,36,36.7922572,8.1521677,OpenStreetMap,5194540723,384,توفة,Toufa,,,,
قاعدة الشهيد هداد,castle,37,27.1752791,-8.0251845,OpenStreetMap,10136173319,385,,,,,,
Khatraoui,castle,39,33.4801359,6.9080181,OpenStreetMap,4758637321,386,,Khatraoui,,,,
طالب العربي,castle,39,33.728056,7.5112722,OpenStreetMap,5295782121,387,طالب العربي,Taleb Larbi,,,,
مقبرة جبانه 1,castle,39,33.5606591,6.9508129,OpenStreetMap,5230863522,388,مقبرة جبانه 1,Ancien cimetière el Jadida,,,,
مقبره جبانه 2,castle,39,33.5606388,6.9510224,OpenStreetMap,5230863523,389,مقبره جبانه 2,Nouveau cimetière el Jadida,,,,
منزل النوار شبيلي,castle,41,35.916256,7.3736124,OpenStreetMap,7105854686,390,شبيلي النوار,Chebili Nouar,,,,
EPW-EREPEV,castle,42,36.5911702,2.4484866,OpenStreetMap,5359519922,391,,EPW-EREPEV,,,,
El basatine البساتين,castle,42,36.6382133,2.7728083,OpenStreetMap,3446626351,392,El basatine البساتين,Bassatine,,,,
Les RAYA,castle,42,36.6737366,2.7724523,OpenStreetMap,11411745369,393,,Les RAYA,,,,
Atrouz,castle,43,36.5222177,5.8653503,OpenStreetMap,4263062193,394,,,,,,
Palais de l'Agha,castle,43,36.406933,5.9438728,OpenStreetMap,1810055742,395,,,,,,
cite militaire chelghoum fat,castle,43,36.1712267,6.1779717,OpenStreetMap,4571831389,396,cite militaire chelghoum fat,,,,,
Mosquée Oqba ibn Nafi,castle,47,32.7888852,4.4917908,OpenStreetMap,9895442419,397,مسجد عقبة بن نافع,Mosquée Oqba ibn Nafi,,,,
Père de famille mekellache,castle,48,35.7540534,0.5762923,OpenStreetMap,5552890322,398,,Père de famille mekellache,,,,
أغلاد,castle,49,29.3703894,0.1801181,OpenStreetMap,3909335949,399,أغلاد,Aghlad,,,,
قصبة الشيخ بوحص,castle,49,28.6739767,0.351644,OpenStreetMap,1361477347,400,,Kasbah de Cheikh Bouhaous,,,,
Fort Laouni,castle,54,20.3422447,5.6735486,OpenStreetMap,920536213,401,,,Q106098127,,,
Ancien Bordj d'In Ezzane,castle,56,23.4854695,11.2427087,OpenStreetMap,503803282,402,,,,,,
قلعة جانت Fort Charlet,castle,56,24.5513064,9.483956,OpenStreetMap,503806002,403,قلعة جانت,Fort Charlet,,,,
La citadelle (Taourit),castle,58,30.5828488,2.8935483,OpenStreetMap,247401256,404,القصر القديم,La citadelle,,,,
شاطو,castle,58,30.5792732,2.8741314,OpenStreetMap,4137874095,405,شاطو,Château,,,,
Fort Cavaignac,castle,68,35.2140513,4.1789099,OpenStreetMap,378905958,406,,,,,,
المركز الثقافي أحمد عياد المدعو رويشد,church,16,36.7679861,3.0302058,OpenStreetMap,1471813533,407,المركز الثقافي أحمد عياد المدعو رويشد,Centre Culturel Ahmed Ayad,,,,
El Mechouar Mosque,church_building,13,34.8805561,-1.3094603,Wikidata,,408,مسجد المشور,mosquée d'El Mechouar,Q6856865,,,
Holy Trinity Anglican Church (Algiers),church_building,16,36.7577,3.04603,Wikidata,,409,الكنيسة أنجليكية في الجزائر,église anglicane de la Sainte-Trinité d'Alger,Q15958199,,,
église Saint-Louis d'Oran,church_building,31,35.702788,-0.649256,Wikidata,,410,,église Saint-Louis d'Oran,Q97581076,,,
Saint Cyprien Church,church_building,36,36.8974,8.4443,Wikidata,,411,,,Q128391204,,,
"Church of Saint-Joseph, El Menia",church_building,58,30.6144444,2.8730556,Wikidata,,412,,église Saint-Joseph à El Menia,Q112654039,,,
Petra Mlakou Castle,château,06,36.5208,4.6249,Wikidata,,413,قلعة بيترا ملاكو,château de Petra Maklou,Q131555082,,,
بوابة المدينة,city_gate,01,26.9598573,1.0878861,OpenStreetMap,3034676033,414,بوابة المدينة,Porte de ville,,,,
"Bab el Bahr, باب البحر",city_gate,02,36.5010204,1.3144454,OpenStreetMap,13438512785,415,باب البحر,Bab el Bahr,,,,
شقة,city_gate,02,36.1916669,1.3469988,OpenStreetMap,12908636301,416,,,,,,
Porte Fouka,city_gate,06,36.759426,5.0880995,OpenStreetMap,4085601879,417,باب الفوقا,Porte Fouka,,,,
Porte Fouka,city_gate,06,36.7549671,5.0812591,OpenStreetMap,4105146508,418,باب الفوقا,Porte Fouka,,,,
Porte dorée,city_gate,06,36.7533417,5.0874479,OpenStreetMap,327665926,419,باب البحر,Porte Sarasine,Q16670750,,fr:Porte dorée (Béjaïa),
Porte Bab Essebt,city_gate,09,36.472735,2.8247938,OpenStreetMap,5842526090,420,باب السبت,Porte Bab Essebt,,,,
Bab Bou Saâda,city_gate,10,36.1422004,3.6902244,OpenStreetMap,353289630,421,باب بوسعادة,,,,,
Bab El Ghourte,city_gate,10,36.1459292,3.6925019,OpenStreetMap,353289629,422,,,,,,
باب الجزائر,city_gate,10,36.1526653,3.6906435,OpenStreetMap,353290806,423,باب الجزائر,Bab Dzair,,,,
Bab El Kermadine,city_gate,13,34.886335,-1.316456,OpenStreetMap,389066898,424,باب القرمادين,Bab El Kermadine,,,,
Bab El Khemis,city_gate,13,34.8740841,-1.324843,OpenStreetMap,1083837135,425,باب الخميس,Bab El Khemis,,,,
Porte Sidi Bou Médine,city_gate,13,34.8824381,-1.3053956,OpenStreetMap,13167999415,426,,,,,,
Bab El Oued,city_gate,16,36.7889612,3.0614358,OpenStreetMap,6361253088,427,باب الوادي,Bab El Oued,,,,
Beb Azzoun,city_gate,16,36.7811966,3.0609765,OpenStreetMap,6361253085,428,باب عزون,Beb Azzoun,,,,
Beb El Bhar,city_gate,16,36.784662,3.0628992,OpenStreetMap,6361253090,429,باب البحر,Beb El Bhar,,,,
Porte de Dzira باب دزيرة,city_gate,16,36.7863793,3.0653442,OpenStreetMap,1292590132,430,باب دزيرة,Porte de Dzira,,,,
البورطاي,city_gate,16,36.7200602,3.1247708,OpenStreetMap,7445238366,431,البورطاي,le portail,,,,
باب جديد,city_gate,16,36.7838667,3.0547355,OpenStreetMap,1311808063,432,باب جديد,Bab Jdid,,,,
Former Northern Gate,city_gate,19,36.3238033,5.7332861,OpenStreetMap,17772701,433,,,,,,
Bab Csantina,city_gate,21,36.8762381,6.9097024,OpenStreetMap,3523360365,434,,,,,,
BAB AZI,city_gate,30,31.9692998,5.3254537,OpenStreetMap,4332300693,435,باب عزي,,,,,
BAB OMAR,city_gate,30,31.9682176,5.3243573,OpenStreetMap,4332320439,436,باب عمر,,,,,
Tagourt El Borj,city_gate,34,36.2990669,4.5832413,OpenStreetMap,4261069295,437,,,,,,
Tagourt Goudrar,city_gate,34,36.2933962,4.583224,OpenStreetMap,4261122305,438,,,,,,
Tagourt Ou Aji,city_gate,34,36.2937444,4.5762848,OpenStreetMap,4261118476,439,,,,,,
Tagourt n' Taassast,city_gate,34,36.299622,4.5776682,OpenStreetMap,4261092659,440,,,,,,
باب الخراجة,city_gate,47,32.476409,3.745846,OpenStreetMap,9655683495,441,,Bab el-Kheradja,,,,
باب السلام وعيسى,city_gate,47,32.4903373,3.6756266,OpenStreetMap,2715827237,442,باب السلام وعيسى,Porte Salam ouaissa,,,,
باب العسة,city_gate,47,32.4742161,3.7437671,OpenStreetMap,9655738730,443,,Bab el-Assa,,,,
باب باعلي وأعمر,city_gate,47,32.473271,3.7477453,OpenStreetMap,9655729493,444,,Bab Baali,,,,
باب بن صالح,city_gate,47,32.4738084,3.7477645,OpenStreetMap,9655671568,445,,Bab Ben Salah,,,,
باب جديد,city_gate,47,32.4892302,3.6702142,OpenStreetMap,2715827232,446,باب جديد,Bab Jedid,,,,
باب لالة وسارة,city_gate,47,32.4755654,3.7437835,OpenStreetMap,9655676272,447,,Bab Lalla ou Sara,,,,
La muraille de Sour El Ghozlane,citywalls,10,36.1436593,3.6889741,OpenStreetMap,171405399,448,,,,,,
La muraille de Sour El Ghozlane,citywalls,10,36.1460975,3.6878211,OpenStreetMap,171405413,449,,,,,,
La muraille de Sour El Ghozlane,citywalls,10,36.1466115,3.6929195,OpenStreetMap,353289628,450,,,,,,
La muraille de Sour El Ghozlane,citywalls,10,36.1440097,3.6913908,OpenStreetMap,353289631,451,,,,,,
La muraille de Sour El Ghozlane,citywalls,10,36.1459816,3.6927163,OpenStreetMap,353290804,452,,,,,,
جدار تاريخي,citywalls,13,35.1012726,-1.8565745,OpenStreetMap,93233529,453,جدار تاريخي,Mur historique,,,,
Fort Tarat,citywalls,33,26.135896,9.3505679,OpenStreetMap,1355021877,454,,,,,,
Les remparts de Miliana,citywalls,44,36.3039183,2.2241165,OpenStreetMap,253048569,455,سور مليانة,Les remparts de Miliana,,,,
Muraille de Miliana,citywalls,44,36.303433,2.2188782,OpenStreetMap,253047810,456,,,,,,
Muraille de Miliana,citywalls,44,36.3045684,2.2195558,OpenStreetMap,314984181,457,,,,,,
Ville de Blida مدينة البليدة,district,09,36.4712586,2.8274575,OpenStreetMap,1330602170,458,مدينة البليدة,Ville de Blida,,,,
مدينة ميلة القديمة Vieille ville de Mila,district,43,36.4508566,6.2730922,OpenStreetMap,1452322892,459,مدينة ميلة القديمة,Vieille ville de Mila,,,,2
Ksar,fort,01,28.4409473,-0.0830547,OpenStreetMap,1361465354,460,,,,,,
Ksar,fort,01,27.4183717,-0.2630125,OpenStreetMap,1363846376,461,,,,,,
Ksar القصر,fort,01,27.4043807,-0.186191,OpenStreetMap,1363830187,462,القصر,Ksar,,,,
Ksar القصر,fort,01,27.4266968,-0.2479125,OpenStreetMap,1363846375,463,القصر,Ksar,,,,
Ksar القصر,fort,01,27.6486513,-0.2060681,OpenStreetMap,1364194175,464,القصر,Ksar,,,,
Sidi Issa Ksar,fort,01,27.0150987,1.0263157,OpenStreetMap,1361147600,465,,,,,,
Borj Bel Cadi,fort,05,35.5454222,6.178024,OpenStreetMap,12471532370,466,,Fort de Bel Cadi,,,,
Fort Sidi Abdelkader,fort,06,36.7533699,5.0905523,OpenStreetMap,410828027,467,حصن سيدي عبد القادر,,,,,
BATTERIE HALQ EL OUED (Toppana Halq El Oued),fort,16,36.7368972,3.1304395,OpenStreetMap,7399902351,468,,,,,,
Bordj de Tamentfoust برج تامنفوست,fort,16,36.8072435,3.2307435,OpenStreetMap,4083823,469,برج تامنفوست,Forte de Tamentfoust,Q16303490,,,
الحصن العثماني,fort,16,36.7489498,3.1879781,OpenStreetMap,350485933,470,الحصن العثماني,Fort de Kiffan,,,,
tabana,fort,31,35.8580275,-0.451716,OpenStreetMap,9135666608,471,,,,,,
Bordj el Mey,fort,39,32.1121813,6.9499111,OpenStreetMap,8332284644,472,,,,,,
Fort de Bir Beressof,fort,39,32.538339,7.9596063,OpenStreetMap,8332254313,473,,,,,,
Fort Joinville,fort,42,36.6113755,2.1879502,OpenStreetMap,459865264,474,,Fort Joinville,,,,
Fort Mac Mahon,fort,52,29.7582024,1.6217497,OpenStreetMap,8332176030,475,,Fort Mac Mahon,Q106097108,,,
Aïn Guettara,fort,53,28.1074445,3.1766186,OpenStreetMap,1135683954,476,,,,,,
Serouenout,fort,56,24.3051697,7.4710691,OpenStreetMap,4038718967,477,سروينت,,,,,
Bordj Delion,fort,58,29.8087667,3.7481919,OpenStreetMap,8332235562,478,,,,,,
Fort Inifel,fort,58,29.8061049,3.7528932,OpenStreetMap,8332237136,479,,,,,,
قصر ملك سليمان,fort,69,32.2068917,0.3603908,OpenStreetMap,1361287980,480,,,,,,
Fort Miribel,fortification,58,29.432863,3.000512,Wikidata,,481,,Fort Miribel,Q106097214,,,
Casbah de Béjaïa,fortress,06,36.7513238,5.0838949,OpenStreetMap,327666118,482,قصبة بجاية,Casbah de Béjaïa,Q21511925,,fr:Casbah de Béjaïa,2
قصر القنادسة,heritage,08,31.5560873,-2.4391512,OpenStreetMap,318824596,483,قصر القنادسة,Ksar de Kenadsa,,,,
Agouni n'Souk,heritage,15,36.8368297,4.059394,OpenStreetMap,1323451253,484,,,,,,
La villa Sesini,heritage,16,36.7475746,3.064764,OpenStreetMap,273183546,485,,,Q1195633,,en:Villa Susini,
جامع كتشاوة,heritage,16,36.7850969,3.0607521,OpenStreetMap,267210976,486,جامع كتشاوة,Mosquée Ketchaoua,Q2471799,,fr:Mosquée Ketchaoua,
Mosquée Abdallah Ibn Salam,heritage,31,35.7000197,-0.6500277,OpenStreetMap,237164994,487,مسجد عبد الله إبن سلام,Mosquée Abdallah Ibn Salam,,,,
Minaret de la mosquée Batha,heritage,44,36.3047665,2.2267814,OpenStreetMap,3137636550,488,,,,,,
Dar es Saber,house,21,36.83639,6.70556,Wikidata,,489,,,Q139742405,,,
Biblioteca,library,05,35.4855788,6.4689259,OpenStreetMap,1104059044,490,,,,,,
Théâtre en plein air ( CASIF),manor,16,36.7631578,2.8414033,OpenStreetMap,1495799770,491,,,,,,
Villa des Traités,manor,16,36.7684322,3.0261876,OpenStreetMap,5395898986,492,فيلا الإتفاقيات,,,,,
دار عزيزة,manor,16,36.7850495,3.0614402,OpenStreetMap,17800447,493,دار عزيزة,Dar Aziza,Q20971021,,fr:Dar Aziza,
Monument,memorial,01,26.9728322,1.0779344,OpenStreetMap,832912949,494,,,,,,
Monument d'Aoulef,memorial,01,26.983906,1.0806002,OpenStreetMap,832683099,495,,,,,,
Bissa,memorial,02,36.4439793,1.461795,OpenStreetMap,1026310401,496,,Bissa,,,,
La Vierge de Ténès,memorial,02,36.50544,1.3056876,OpenStreetMap,366022649,497,,La Vierge de Ténès,,,,
MONUMENT DES MARTYRES,memorial,02,36.3914206,0.9048133,OpenStreetMap,5037769489,498,,,,,,
Phare de la pointe Colombi,memorial,02,36.4432821,0.9387772,OpenStreetMap,5715684359,499,,,,,,
"Stèle des Martyrs, نصب تذكاري",memorial,02,36.5084034,1.3087115,OpenStreetMap,3925486420,500,نصب تذكاري,Stèle des Martyrs,,,,
الحصان الأبيض,memorial,04,35.7951897,7.3937509,OpenStreetMap,4293330798,501,الفرس البيضاء,,,,,
عين الشهداء/نافورة,memorial,04,35.7928124,7.3959445,OpenStreetMap,4293410290,502,عين الشهداء/نافورة,,,,,
مقام الشهيد,memorial,05,35.6285953,5.9037277,OpenStreetMap,4424826792,503,مقام الشهيد,,,,,
مقبرة الشهداء,memorial,05,35.2196043,6.544419,OpenStreetMap,6668793095,504,مقبرة الشهداء,Cimetière des martyrs,,,,
Adjudant Arezki,memorial,06,36.633973,4.8445786,OpenStreetMap,4049116002,505,,Adjudant Arezki,,,,
Agna Wekkouch آقنا وكوش,memorial,06,36.6048629,5.4009044,OpenStreetMap,5743534253,506,آقنا وكوش,Agna Wekkouch,,,,
Algerian War Memorial,memorial,06,36.4925388,4.7356212,OpenStreetMap,13718432779,507,,,,,,
Bachir Amellah,memorial,06,36.5623073,4.8489062,OpenStreetMap,5371407245,508,,Bachir Amellah,,,,
Buste Manuel Teixeira Gomes,memorial,06,36.7530148,5.0854547,OpenStreetMap,4230260700,509,,Buste Manuel Teixeira Gomes,,,,yes
Cimetière,memorial,06,36.4983568,4.4698175,OpenStreetMap,4179743293,510,,,,,,
Cimetière Sidi-Djaber,memorial,06,36.6036342,5.2971168,OpenStreetMap,5682758525,511,,,,,,
Cimetière des martyrs,memorial,06,36.5833845,5.4109044,OpenStreetMap,4523124614,512,مقبرة الشهداء,Cimetière des martyrs,,,,
La croix,memorial,06,36.6195015,4.6042808,OpenStreetMap,4383644524,513,,La croix,,,,
Masjid Mihrab Ibn Toumert,memorial,06,36.7135842,5.0205094,OpenStreetMap,4085380326,514,محراب مسجد بن ثومرث,Mihrab de la mosquée Ibn Toumert,,,,
Monument Echahid,memorial,06,36.4913311,5.2778504,OpenStreetMap,9671162066,515,مقام الشهيد,,,,,
Monument Timezrit,memorial,06,36.6169006,4.774688,OpenStreetMap,4464101253,516,,,,,,
Monument aux martyrs,memorial,06,36.6686394,5.1569358,OpenStreetMap,5079916096,517,نصب الشهداء,,,,,
Monument aux martyrs نصب الشهداء,memorial,06,36.549948,5.2793523,OpenStreetMap,4547958592,518,نصب الشهداء,Monument aux martyrs,,,,
Monument des Martyrs,memorial,06,36.5419486,4.6116829,OpenStreetMap,4061759502,519,,Monument des Martyrs,,,,
Monument des Martyrs,memorial,06,36.6387094,5.2483112,OpenStreetMap,6535084463,520,,,,,,
Mémorial des Martyrs,memorial,06,36.6045241,4.6382501,OpenStreetMap,2073917229,521,نصب الشهداء,,,,,
Mémorial des martyrs,memorial,06,36.6084318,4.6676405,OpenStreetMap,4040336328,522,نصب الشهداء,,,,,
Mémorial des martyrs Zuntar,memorial,06,36.5971469,4.6444661,OpenStreetMap,2465616457,523,النصب التذكاري للشهداء زونطار,Mémorial des martyrs Zuntar,,,,
PC 2 Wilaya III,memorial,06,36.6767352,4.6088686,OpenStreetMap,1427686966,524,,,,,,
PC Wilaya III,memorial,06,36.6643171,4.5681467,OpenStreetMap,12139948894,525,,,,,,
Place 8 Mai 1945,memorial,06,36.6427542,5.2391347,OpenStreetMap,690780735,526,,,,,,
Place Colonel Amirouche,memorial,06,36.463826,4.5360373,OpenStreetMap,1942791539,527,ساحة العقيد عميروش,,,,,
Si Mouhand,memorial,06,36.7535607,4.727529,OpenStreetMap,4070461066,528,,,,,,
Sidi Saɛdi,memorial,06,36.7523359,4.7265297,OpenStreetMap,4070461065,529,,,,,,
Statue Abdelkader Aïssaoui,memorial,06,36.7529803,5.0773449,OpenStreetMap,4058986321,530,تمثال عبد القادر عيساوي,Statue Abdelkader Aïssaoui,,,,
Stèle Matoub Lounès,memorial,06,36.6262795,5.3354341,OpenStreetMap,6500538655,531,,,,,,
Stèle des martyrs d'Ibakouren,memorial,06,36.6630134,4.9338504,OpenStreetMap,4704201833,532,مقام الشهيد,Stèle des martyrs d'Ibakouren,,,,
Stèle des requins,memorial,06,36.6433113,5.2391481,OpenStreetMap,6481371309,533,لوحة القرش,,,,,
Tombeau de la neige,memorial,06,36.6934309,4.9363231,OpenStreetMap,5353539008,534,,Tombeau de la neige,,,,
sidi abde el rahmane el akhdari,memorial,07,34.6126454,5.4923513,OpenStreetMap,385052312,535,,,,,,
سيدي رواق,memorial,07,34.7358159,5.3867894,OpenStreetMap,3231160329,536,سيدي رواق,,,,,
Mémorial du martyr,memorial,08,31.6127917,-2.2173423,OpenStreetMap,4339523545,537,,,,,,
monument,memorial,08,30.8652143,-2.0051335,OpenStreetMap,3968322890,538,,,,,,
monument,memorial,08,30.9104113,-2.0289634,OpenStreetMap,3968791317,539,,,,,,
نصب تذكاري الجنرال لوكلير,memorial,08,32.1316594,-2.321957,OpenStreetMap,2188425748,540,نصب تذكاري الجنرال لوكلير,Monument du Général Leclerc,,,,
Monument aux martyrs du 17 septembre 1956,memorial,09,36.4985444,2.8606204,OpenStreetMap,3670886404,541,,,,,,
Asebdad Lalla faḍma n sumer sculpture lalla fatma n'Soumer تمثيل لالة فاطمة نسومر,memorial,10,36.3782591,3.8989503,OpenStreetMap,581335515,542,تمثال لالة فاطمة نسومر,sculpture lalla fatma n'Soumer,,,,
Boto sima,memorial,10,36.1418848,3.691012,OpenStreetMap,5392584223,543,,Boto sima,,,,
Cimetière des martyrs,memorial,10,36.2524928,4.0425703,OpenStreetMap,4481694990,544,,Cimetière des martyrs,,,,
Martyres de Bouira,memorial,10,36.3800791,3.9008905,OpenStreetMap,654315649,545,,,,,,
Monument au Mort de IGHIL HAMAD,memorial,10,36.4039922,4.269561,OpenStreetMap,1212708357,546,,,,,,
Mémorial,memorial,10,36.3955598,3.9986648,OpenStreetMap,556031837,547,,,,,,
Mémorial des Martyrs,memorial,10,36.3215317,3.7456056,OpenStreetMap,565930794,548,,,,,,
Place des martyrs,memorial,10,36.2917858,3.6720019,OpenStreetMap,592732680,549,,,,,,
Sanctuaire des Martyrs,memorial,10,36.422308,4.3456546,OpenStreetMap,2488835658,550,ملاذ الشهداء,Sanctuaire des Martyrs,,,,
Stèle Commémorative,memorial,10,36.3733812,3.8920266,OpenStreetMap,551456902,551,,,,,,
monument des martyres نصب تذكاري للشهداء الثورة,memorial,10,36.3615778,4.2004413,OpenStreetMap,4725638412,552,monument des martyres نصب تذكاري للشهداء الثورة,,,,,
مقبرة,memorial,10,36.3871463,3.6351092,OpenStreetMap,6331394209,553,مقبرة,Cimetière,,,,
مقبرة الشهداء,memorial,10,36.3920112,3.631714,OpenStreetMap,6331215787,554,مقبرة الشهداء,Cimétière des Martyrs,,,,
Mémorial Seddiki Bouamama;نصب تذكاري للشهيد صديقي بوعمامة,memorial,11,22.7903721,5.5224369,OpenStreetMap,4807658321,555,نصب تذكاري للشهيد صديقي بوعمامة,Mémorial Seddiki Bouamama,,,,
Vol 6289 Air Algerie,memorial,11,22.8323427,5.457637,OpenStreetMap,2687110662,556,الخطوط الجوية الجزائرية الرحلة 6289,,Q3046072,,ar:الخطوط الجوية الجزائرية الرحلة 6289,
ضريح قمامه سيدي,memorial,11,23.5395369,5.0692134,OpenStreetMap,7775663485,557,ضريح قمامه سيدي,Mausolée Kamama Sidi,,,,
تمثال مالك بن النبي,memorial,12,35.4028825,8.1160164,OpenStreetMap,4725470490,558,تمثال مالك بن النبي,Statut Malek ben Nabi,,,,
Monument aux anciens combattants,memorial,13,34.8671921,-1.3224485,OpenStreetMap,2153790326,559,,,,,,
Mémorial des Chouhada,memorial,13,34.8932554,-1.5230064,OpenStreetMap,923921385,560,,,,,,
العقيد لطفي,memorial,13,34.7976129,-1.8434953,OpenStreetMap,3103708237,561,العقيد لطفي,,,,,
تمثال عبد المؤمن بن علي,memorial,13,35.0128726,-1.7467931,OpenStreetMap,10103792650,562,تمثال عبد المؤمن بن علي,Statue Abd al-Moumen ibn Ali,,,,
مقام الشهيد,memorial,13,34.9866468,-2.1101326,OpenStreetMap,4511246690,563,مقام الشهيد,Maqam el Chahid,,,,
مقام الشهيد,memorial,14,35.0612338,1.0476248,OpenStreetMap,4469447989,564,مقام الشهيد,,,,,
Asebdad imeɣṛasen,memorial,15,36.5092439,4.1727356,OpenStreetMap,982156560,565,,,,,,
Asebdad n yimeɣṛasen,memorial,15,36.4924994,4.1367111,OpenStreetMap,1191188302,566,,,,,,
Baba Lḥaǧ,memorial,15,36.5715774,4.2470416,OpenStreetMap,5035236580,567,بابا الحاج,,,,,
CIMETIERE,memorial,15,36.6222488,4.4697403,OpenStreetMap,2381152443,568,,Cimetière,,,,
Carrefour du 20 Avril,memorial,15,36.7023761,4.0516515,OpenStreetMap,5546302041,569,دوار 20 نيسان,,,,,
Echouhada,memorial,15,36.4811069,4.2958484,OpenStreetMap,5396382623,570,,,,,,
Eldjama الجامع,memorial,15,36.5081047,4.018742,OpenStreetMap,6130844786,571,الجامع,Eldjama,,,,
LSAS MATUB LWENAS -Fondation Matoub Lounes,memorial,15,36.6183333,4.1197055,OpenStreetMap,4286277995,572,,,,,,
La Bougie,memorial,15,36.713349,4.0383056,OpenStreetMap,723232585,573,,,,,,
MATOUB LOUNES,memorial,15,36.7700044,4.1752511,OpenStreetMap,2907347693,574,,,,,,
Maison Zamoum,memorial,15,36.5527224,4.0451216,OpenStreetMap,379894512,575,,,,,,
Martyres des Iflissen,memorial,15,36.8923126,4.1629436,OpenStreetMap,2277134010,576,,,,,,
Memorial Martyrs,memorial,15,36.6923001,4.5595291,OpenStreetMap,12752439558,577,,,,,,
Monument aux Martyrs,memorial,15,36.8009575,4.4594322,OpenStreetMap,2335470175,578,,,,,,
Monument aux Martyrs,memorial,15,36.8234621,4.4728057,OpenStreetMap,2335471847,579,,,,,,
Monument aux martyrs,memorial,15,36.482762,4.2875106,OpenStreetMap,5398568757,580,,,,,,
Monument des Martyrs,memorial,15,36.4940189,4.1959209,OpenStreetMap,11837637824,581,,,,,,
Mémorial aux Martyrs,memorial,15,36.7153143,4.0488242,OpenStreetMap,4326923482,582,مقام الشهداء,Mémorial aux Martyrs,,,,
Mémorial des Martyrs,memorial,15,36.8160905,4.3806397,OpenStreetMap,1192414109,583,,,,,,
Place Aissat Iddir ساحة عيسات إدير,memorial,15,36.6815264,4.2876637,OpenStreetMap,425645201,584,ساحة عيسات إدير,Place Aissat Iddir,,,,
Proclamation 1er Novembre 1945,memorial,15,36.5527322,4.045222,OpenStreetMap,3832451010,585,,,,,,
Qayus Tadart Tawrirt,memorial,15,36.5111248,4.405687,OpenStreetMap,2187652864,586,,,,,,
Stèle Ath Ouaneche,memorial,15,36.6482024,4.0448103,OpenStreetMap,368963959,587,,,,,,
Stèle commémorative,memorial,15,36.4888285,4.2810637,OpenStreetMap,5402510747,588,,,,,,
Stèle des Martyres,memorial,15,36.757111,4.1912052,OpenStreetMap,2907530112,589,,,,,,
Stèle des Martyres,memorial,15,36.7411434,4.1337124,OpenStreetMap,288485231,590,,,,,,
Stèle des Martyres,memorial,15,36.7301239,4.1261696,OpenStreetMap,289294352,591,,,,,,
Tajmaɛt n Taddert,memorial,15,36.5175057,4.4125427,OpenStreetMap,2187627069,592,,,,,,
Timenzit n Imjuhad n Tagemunt Azuz,memorial,15,36.6081334,4.108623,OpenStreetMap,514045217,593,,,,,,
Timoqvart n-chouhada,memorial,15,36.51686,4.2754994,OpenStreetMap,5396194053,594,,,,,,
Tizinkoucht,memorial,15,36.5137009,4.4087393,OpenStreetMap,2187611669,595,,,,,,
djama3 tkachout,memorial,15,36.8013956,4.2963978,OpenStreetMap,4123540889,596,,,,,,
monuments de chouhada n tala-tegana,memorial,15,36.7978908,4.2966242,OpenStreetMap,4123540989,597,,,,,,
أث موح لحاج,memorial,15,36.5108167,4.0230251,OpenStreetMap,6130844887,598,أث موح لحاج,Ath mouh ou lhadj,,,,
Attentat du 02 Mai 1962,memorial,16,36.7661763,3.0585628,OpenStreetMap,2831433720,599,هجوم 2 ماي 1962,,,,,
Aziz,memorial,16,36.7134977,3.0850925,OpenStreetMap,3728583670,600,Aziz,,,,,
Beaux fraisiers,memorial,16,36.785754,3.0309207,OpenStreetMap,4295732789,601,بوفريزي,Beaux fraisiers,,,,
José de San Martin خوسيه دي سان مارتين,memorial,16,36.7553815,3.0238533,OpenStreetMap,5640125932,602,خوسيه دي سان مارتين,José de San Martin,,,,
Place Emiliano Zapata,memorial,16,36.7429465,3.0865878,OpenStreetMap,2402564578,603,,,,,,
Place des martyrs de Bab Ezzouar,memorial,16,36.7227275,3.1847857,OpenStreetMap,1231123187,604,,,,,,
Statue El Amir Abdelkader,memorial,16,36.776243,3.0583838,OpenStreetMap,2760492858,605,تمثال الأمير عبد القادر,Statue El Amir Abdelkader,Q24248463,,,
TRC,memorial,16,36.671591,3.12545,OpenStreetMap,4357242918,606,,,,,,
plaque commémorative,memorial,16,36.7458875,3.0692224,OpenStreetMap,11365279975,607,,,,,,
sculpture de Josip Broz Tito,memorial,16,36.723241,3.1970819,OpenStreetMap,3240727076,608,,,,,,
مقر بلدية الحراش,memorial,16,36.7207973,3.13716,OpenStreetMap,3109237710,609,مقر بلدية الحراش,APC el harrach,,,,
نقطة الصفر كيلومتر,memorial,16,36.7729332,3.0588406,OpenStreetMap,12142226626,610,نقطة الصفر كيلومتر,Point zéro,,,,
مقبرة,memorial,17,34.5949825,3.0615069,OpenStreetMap,8103777720,611,مقبرة,Cimetière,,,,
Le Conjadeur,memorial,18,36.8248729,5.7676658,OpenStreetMap,2560377515,612,,,,,,
نصب القطار,memorial,18,36.8088485,5.7849974,OpenStreetMap,2559088223,613,نصب القطار,Monument rail de train,,,,
نصب و مبنى,memorial,18,36.7690209,5.8974931,OpenStreetMap,4513762792,614,نصب و مبنى,Stèle et bâtiment,,,,
Christian basilica,memorial,19,36.3186723,5.7376525,OpenStreetMap,2198143614,615,,,,,,
Makam El Chahid,memorial,19,36.1809842,5.3979496,OpenStreetMap,1969995663,616,,,,,,
Place des martyres,memorial,19,36.3333906,5.182608,OpenStreetMap,394609805,617,ساحة الشهداء,,,,,
Rond-point Messaoud Zegar,memorial,19,36.1501208,5.7024762,OpenStreetMap,4547803906,618,,Rond-point Messaoud Zegar,,,,
سطيف,memorial,19,36.1961031,5.4062449,OpenStreetMap,1962627839,619,سطيف,Setif,,,,
كتاب الشهيد,memorial,19,36.2713145,5.1273676,OpenStreetMap,4457730292,620,كتاب الشهيد,,,,,
نصب الشهداء,memorial,19,36.226485,5.3954543,OpenStreetMap,438524396,621,نصب الشهداء,Monument aux Martyrs,,,,
Ahmed Medeghri,memorial,20,34.8282688,0.1567588,OpenStreetMap,12466182381,622,,,,,,
l'obélisque de Jemmapes,memorial,21,36.7385327,7.1064353,OpenStreetMap,1120671433,623,,,,,,
Monument aux morts,memorial,22,35.1930629,-0.6345289,OpenStreetMap,2993985274,624,,,,,,
المقام الشهيد,memorial,22,34.9234653,-0.9542852,OpenStreetMap,437453271,625,المقام الشهيد,,,,,
8 Mai 1945,memorial,24,36.4617919,7.4235792,OpenStreetMap,3139475064,626,,,,,,
الرئيس هواري بومدين,memorial,24,36.4626627,7.4330567,OpenStreetMap,4571986990,627,الرئيس هواري بومدين,Monument Houari Boumédiène,,,,
مقام ازدياد المرحوم هواري بومدين,memorial,24,36.4777744,7.3290594,OpenStreetMap,7272595885,628,,Lieu de naissance de feu Houari Boumédiène,,,,
مقبرة الشهداء,memorial,24,36.3672297,7.528848,OpenStreetMap,4653453903,629,مقبرة الشهداء,,,,,
Monument aux morts,memorial,25,36.2628465,6.6920107,OpenStreetMap,3779960576,630,,,,,,
مقام الشهيد,memorial,25,36.2682471,6.4997967,OpenStreetMap,281891133,631,مقام الشهيد,Makam Echahid,,,,
منزل قريني,memorial,25,36.5610237,6.7359921,OpenStreetMap,4742507238,632,منزل قريني,Grini,,,,
حي الشهيد قاسمي المنور,memorial,26,36.2632825,3.0278935,OpenStreetMap,4727496690,633,حي الشهيد قاسمي المنور,,,,,
معركة جبل موقورنو,memorial,26,36.0704864,2.8364063,OpenStreetMap,3799555505,634,معركة جبل موقورنو,,,,,
مقام الشهيد,memorial,26,36.2466171,2.9383656,OpenStreetMap,4541770897,635,مقام الشهيد,sanctuaire Memorial,,,,
Mémorial des Martyrs,memorial,27,35.9229245,0.1011987,OpenStreetMap,2187483707,636,,,,,,
Mémorial des martyrs,memorial,27,35.9306487,0.0976459,OpenStreetMap,4622198393,637,,Mémorial des martyrs,,,,
نصب تذكاري لشهداء الثورة,memorial,27,36.244192,0.5358497,OpenStreetMap,4850375837,638,نصب تذكاري لشهداء الثورة,,,,,
مربع الشهداء,memorial,28,35.7051814,4.5461706,OpenStreetMap,4784899963,639,مربع الشهداء,,,,,
Dardara,memorial,29,35.263017,0.1592732,OpenStreetMap,1137790848,640,,,,,,
Stèle de l'Emir Abdelkader,memorial,29,35.3208998,0.3643044,OpenStreetMap,10605770059,641,,,,,,
الأمير عبد القادر,memorial,29,35.3959398,0.1394627,OpenStreetMap,5025342421,642,تمثال الأمير عبد القادر,Émir Abdelkader,,,,
تمثال الأمير عبد القادر,memorial,29,35.3947182,0.1408872,OpenStreetMap,5279184645,643,تمثال الأمير عبد القادر,Statue de l’Émir Abdel Kader,,,,
Berliet T100,memorial,30,31.7136783,6.0574992,OpenStreetMap,5413026959,644,,,,,fr:Berliet T100,
Les halles centrales,memorial,31,35.6787223,-0.6599798,OpenStreetMap,7697607586,645,,Les halles centrales,,,,
Monument EL Chahid,memorial,31,35.7782602,-0.4334253,OpenStreetMap,4424707090,646,,,,,,
Monument aux martyrs;نصب تذكاري للشهداء,memorial,31,35.7840545,-0.4250306,OpenStreetMap,8808736695,647,نصب تذكاري للشهداء,Monument aux martyrs,,,,
Statue Zabana,memorial,31,35.7064982,-0.6291713,OpenStreetMap,3734575877,648,,,,,,
ساحة الامير عبد القادر,memorial,31,35.5730734,-0.8999122,OpenStreetMap,4947436925,649,ساحة الامير عبد القادر,Place Émir Abdelkader,,,,
ساحة محمد خميستي,memorial,31,35.8552223,-0.311265,OpenStreetMap,4111370390,650,ساحة محمد خميستي,Place Khmisti Mohamed,,,,
مقام الشهداء,memorial,31,35.5181877,-0.4108474,OpenStreetMap,10035958543,651,,,,,,
Amoud;أمود,memorial,33,26.502126,8.4777445,OpenStreetMap,3191490297,652,أمود,Amoud,,,,
مقام الشهداء,memorial,34,36.0633063,4.6278783,OpenStreetMap,4209700722,653,مقام الشهداء,,,,,
مقام الشهيد,memorial,34,36.0718549,4.7631036,OpenStreetMap,4418030495,654,مقام الشهيد,,,,,
Mémorial aux martyrs de la révolution algérienne 1954-1962,memorial,35,36.7234662,3.6687503,OpenStreetMap,1420235456,655,,,,,,
مقام الشهيد,memorial,35,36.6307476,3.4390599,OpenStreetMap,7177404097,656,مقام الشهيد,Mémorial des martyrs,,,,
المقبرة,memorial,36,36.8331186,8.1167051,OpenStreetMap,807917816,657,المقبرة,,,,,
Arbre de St Augustin,memorial,41,36.2843664,7.9589344,OpenStreetMap,7272596085,658,,Arbre de St Augustin,,,,
Badji Mokhtar,memorial,41,36.2798074,7.938249,OpenStreetMap,3016002170,659,,,,,,
Monument Of Malek Elberkani,memorial,42,36.5709699,2.2931375,OpenStreetMap,1124394508,660,,,,,,
Monument aux Martyrs,memorial,42,36.5890895,2.1492091,OpenStreetMap,9945781914,661,,,,,,
Monument aux martyrs,memorial,42,36.437602,2.4961227,OpenStreetMap,4476750863,662,,,,,,
Monument du Martyr,memorial,42,36.573343,2.053154,OpenStreetMap,3150467037,663,,,,,,
Monument souidani boujemeaa نصب سويداني بوجمعة,memorial,42,36.62818,2.7922535,OpenStreetMap,3777103022,664,نصب سويداني بوجمعة,Monument souidani boujemeaa,,,,
Mémorial نصب تذكاري,memorial,42,36.4625867,2.2635658,OpenStreetMap,10889703064,665,,,,,,
Placette kissarli ساحة قيسارلي,memorial,42,36.6392077,2.7680731,OpenStreetMap,3445064937,666,ساحة قيسارلي,Placette kissarli,,,,
1954-1962,memorial,43,36.4238488,6.1190209,OpenStreetMap,240195845,667,,,,,,
Abdel Hafid Boussof,memorial,43,36.446826,6.2659573,OpenStreetMap,4337552791,668,,,,,,
Monument au Martyrs,memorial,43,36.4048614,5.9431304,OpenStreetMap,1810058693,669,,,,,,
Mémorial,memorial,43,36.4313918,6.121656,OpenStreetMap,240196557,670,,,,,,
Mémorial au martyrs du 8 Mai 1956,memorial,43,36.4605057,6.0340496,OpenStreetMap,4325053581,671,,,,,,
Mémorial des Martyrs,memorial,43,36.4484547,6.2676006,OpenStreetMap,4337592039,672,,,,,,
Mémorial des martyrs,memorial,43,36.4572816,6.0449713,OpenStreetMap,4325056123,673,,,,,,
الجنود,memorial,43,36.3913605,6.1284676,OpenStreetMap,4620355992,674,الجنود,,,,,
الساعة,memorial,43,36.3934953,6.1292288,OpenStreetMap,4620311993,675,الساعة,,,,,
مقام الشهيد,memorial,43,36.3928258,6.1282108,OpenStreetMap,4620355190,676,مقام الشهيد,,,,,
مقبرة الشهداء,memorial,43,36.4002318,5.9283015,OpenStreetMap,4382575994,677,مقبرة الشهداء,Cimetière des martyrs,,,,
Magenta,memorial,44,36.3068655,2.2245773,OpenStreetMap,3809349016,678,,,,,,
Mohamed Bouras fondateur des Scouts musulmans algériens,memorial,44,36.3074117,2.2272172,OpenStreetMap,3302353100,679,محمد بوراس مؤسس الكشافة الجزائرية,,,,,
Monument aux martyrs,memorial,44,36.1557803,2.1541651,OpenStreetMap,2139543610,680,,,,,,
Mémorial de la Bataille de Beni Bouamrane نصب تذكاري معركة بني بوعمران,memorial,44,36.3964244,2.2475788,OpenStreetMap,10991629922,681,نصب تذكاري معركة بني بوعمران,,,,,
Monument des Martyrs,memorial,46,35.2328937,-1.5042313,OpenStreetMap,3174756998,682,نصب الشهداء,,,,,
القصر القديم,memorial,47,32.2700819,3.633351,OpenStreetMap,3639673802,683,القصر القديم,Le Vieux Ksar,,,,
حجرة جحا,memorial,47,32.9998514,4.5338277,OpenStreetMap,3621497774,684,حجرة جحا,La chambre de Juha,,,,
مقام الشيخ أبو عبدالله محمد بن بكر بن أبي بكر بن يوسف الفرسطائي النفوسي,memorial,47,32.4800082,3.7464809,OpenStreetMap,1050739412,685,,Mausolée du Cheikh Abou Abdallah Mohamed bin Bekr,,,,
Place de la résistance,memorial,48,35.7437297,0.5558152,OpenStreetMap,4498983691,686,,Place de la résistance,,,,
Trari Bakhadda,memorial,48,35.7535496,0.5757562,OpenStreetMap,4523421090,687,,Trari Bakhadda,,,,
مقبرت الشهداء,memorial,48,35.7729744,1.202175,OpenStreetMap,4643215375,688,,,,,,
مقام الشهيد,memorial,50,21.3303312,0.9506713,OpenStreetMap,5646997523,689,مقام الشهيد,,,,,
منصب تذكاري باجي مختار,memorial,50,21.3336339,0.9577569,OpenStreetMap,5646924425,690,منصب تذكاري باجي مختار,,,,,
ضريح خالد بن سنان,memorial,51,34.3861185,5.0107636,OpenStreetMap,315219717,691,ضريح خالد بن سنان,mausolée Khaled Ben Sinan,Q6399400,,ar:خالد بن سنان بن غيث,
قبر حيزية,memorial,51,34.3872691,5.0107199,OpenStreetMap,3253350081,692,قبر حيزية,Tombe haizia,,,,
monument des martyres,memorial,52,30.1202749,-2.1803315,OpenStreetMap,4010160389,693,,,,,,
شيخ عبد القادر الجيلالي,memorial,53,27.1938112,2.4751463,OpenStreetMap,4858502046,694,شيخ عبد القادر الجيلالي,Abd al Qadir al-Jilani,,,,
براشمة,memorial,57,34.1750477,5.8076155,OpenStreetMap,6536624685,695,براشمة,Brachma,,,,
Colonne Lieutenant  Collot,memorial,58,29.4313945,3.00061,OpenStreetMap,8332308565,696,,,,,,
حاسي السوق,memorial,58,30.5818946,2.8830027,OpenStreetMap,2550016876,697,حاسي السوق,Puis de marché,,,,
شارع الشهيد شباطي,memorial,60,35.1169106,5.175711,OpenStreetMap,4907358624,698,شارع الشهيد شباطي,,,,,
تذكار شهداء معتقل كمورا,memorial,67,35.8913898,2.7287619,OpenStreetMap,4381915490,699,تذكار شهداء معتقل كمورا,mémorial de carré de morts (camora),,,,
مقام الشهيد,memorial,67,35.8267647,2.4558813,OpenStreetMap,452692560,700,مقام الشهيد,,,,,
Monument des martyrs,memorial,68,34.9973362,4.1023538,OpenStreetMap,3888692308,701,,,,,,
Zaafrania (Poste de commandemant Wilaya VI),memorial,68,35.009251,4.3989629,OpenStreetMap,3762117383,702,,,,,,
نصب للشهداء,memorial,68,35.2137067,4.1812098,OpenStreetMap,4565727496,703,نصب للشهداء,Memorial aux martyres,,,,
الياقوتة,memorial,69,32.8939566,0.5456093,OpenStreetMap,4689297089,704,الياقوتة,,,,,
وسط المدينة,memorial,69,32.8971206,0.5456347,OpenStreetMap,4689296989,705,وسط المدينة,,,,,
pk 0,milestone,53,27.6781006,2.4122829,OpenStreetMap,4358357139,706,,,,,,
Bastion 18,military,13,34.8774331,-1.3141566,OpenStreetMap,11681474400,707,,Banque Exterieure d'Algerie,,,,
Mines de Ghar Rouban,mine,13,34.5954656,-1.7723047,OpenStreetMap,305952431,708,,Mines de Ghar Rouban,,,,
زاوية الشيخ الكنتي,monument,01,27.2293532,-0.1944822,OpenStreetMap,332201669,709,زاوية الشيخ الكنتي,Zaouiet Cheikh Kounta,,,,
ساحة الشهداء رقان,monument,01,26.7188767,0.1713983,OpenStreetMap,4428780896,710,ساحة الشهداء رقان,Place des Martyrs,,,,
مسجد خالد بن الوليد,monument,01,28.3990037,-0.2399203,OpenStreetMap,5599303621,711,مسجد خالد بن الوليد,Masdjid,,,,
Monument martyr Karzazi,monument,02,36.0658567,1.1265326,OpenStreetMap,401803859,712,,,,,,
Sidi Aissa,monument,02,36.2303456,0.8828764,OpenStreetMap,291936361,713,,Sidi Aissa,,,,
ساحة حسيبة بن بوعلي,monument,02,36.1664856,1.3394508,OpenStreetMap,4581680198,714,ساحة حسيبة بن بوعلي,Place Hassiba Benbouali,,,,
HR001,monument,03,32.9320144,3.2691909,OpenStreetMap,1145621674,715,,,,,,
باب القصر,monument,03,33.7893525,3.1459793,OpenStreetMap,4345161289,716,باب القصر,,,,,
نصب تذكاري خَيل فانتازيا,monument,03,33.8811449,2.5279502,OpenStreetMap,4333710491,717,نصب تذكاري خَيل فانتازيا,,,,,
نصب شهداء الثورة,monument,04,35.8688809,7.1121189,OpenStreetMap,3163873521,718,نصب شهداء الثورة,,,,,
Martyre Colonel Mohamed Amouri,monument,05,35.7751296,6.4121118,OpenStreetMap,3236429769,719,,,,,,
Monument BENBOULAID,monument,05,35.5551507,6.1781369,OpenStreetMap,3048741945,720,,,,,,
المجاهد الحاج لخضر,monument,05,35.5424667,6.1576704,OpenStreetMap,4768942924,721,المجاهد الحاج لخضر,Moudjahid hadj Lakhdar,,,,
المجاهد المجهول,monument,05,35.5429985,6.1844353,OpenStreetMap,4768942929,722,المجاهد المجهول,Moudjahid inconnu,,,,
النصب التذكاري لشهداء ثورة التحرير في كيمل,monument,05,35.2037668,6.4880805,OpenStreetMap,6707654186,723,النصب التذكاري لشهداء ثورة التحرير في كيمل,Monument commémoratif des martyrs,,,,
Huilerie berbère,monument,06,36.3911573,4.3973835,OpenStreetMap,4254748275,724,,,,,,
Monument,monument,06,36.5777838,5.3438648,OpenStreetMap,4518936290,725,Monument,,,,,
Monument aux morts,monument,06,36.7549753,5.0866071,OpenStreetMap,3763711721,726,,,,,,
Monument des 7 martyrs,monument,06,36.6364682,5.2812365,OpenStreetMap,4534095294,727,Monument des 7 martyrs,,,,,
Monument du Chahid,monument,06,36.6124101,4.6964665,OpenStreetMap,3487587206,728,,,,,,
Sidi Said,monument,06,36.6069076,4.820703,OpenStreetMap,4137153853,729,سيذي سعيذ,Sidi Said,,,,
Statue Azouaou Amrane,monument,06,36.3830755,4.4023489,OpenStreetMap,4078634857,730,أزواو عمران,Statue Azouaou Amrane,,,,
Statue Mira Abderrahmane,monument,06,36.3857528,4.4011053,OpenStreetMap,4078634819,731,,,,,,
Stèle des Martyrs,monument,06,36.6420888,4.903233,OpenStreetMap,4047740669,732,,,,,,
Taxxamt Ouinour,monument,06,36.3767992,4.5093394,OpenStreetMap,4167883135,733,,,,,,
لوحة ماسينيسا,monument,06,36.5982901,4.6201046,OpenStreetMap,5830327885,734,لوحة ماسينيسا,Stèle de Masensen,,,,
Tent roundabout,monument,07,34.8113239,5.6579454,OpenStreetMap,908876536,735,,,,,,
Monument Géneral Leclerc,monument,08,32.1272222,-2.3233333,Wikidata,,736,,,Q23812069,,,
Pas de Tir CIEES,monument,08,30.848861,-3.0691425,OpenStreetMap,640492653,737,,,,,,
Pas de Tir CIEES Blandine,monument,08,30.8590465,-3.0850187,OpenStreetMap,456263800,738,,,,,,
الحمامة,monument,08,31.626979,-2.2184842,OpenStreetMap,5252202825,739,الحمامة,pigeon,,,,
Placette etoute blida,monument,09,36.4700543,2.8286987,OpenStreetMap,5503794392,740,,Placette etoute blida,,,,
Centre de Torture de l'époque coloniale,monument,10,36.2133798,4.0396548,OpenStreetMap,4163754394,741,,,,,,
Memorial Des Martyrs,monument,10,36.3734708,3.8919453,OpenStreetMap,550308161,742,,,,,,
Memorial Des Martyrs BOUIRA 1954 A 1962,monument,10,36.3735599,3.8922123,OpenStreetMap,551456969,743,,,,,,
ex 410 raa,monument,10,36.2960751,3.676959,OpenStreetMap,3248877431,744,,,,,,
جبل ديرة,monument,10,36.0839566,3.6363069,OpenStreetMap,7767160785,745,جبل ديرة,,,,,
Monument Flatters,monument,11,23.2666667,6.8833333,Wikidata,,746,,,Q23813071,,,
ضريح تين هينان,monument,11,22.8855292,4.8680826,OpenStreetMap,570396428,747,ضريح تين هينان,Tombeau de Tin Hinan,Q3531165,,fr:Tombeau de Tin Hinan,
تمثال اللقلق,monument,12,35.3956639,8.1092487,OpenStreetMap,5015535623,748,تمثال اللقلق,Les cigognes,,,,
Agence BDL,monument,13,35.0101624,-1.7458681,OpenStreetMap,1002314481,749,بنك التنمية المحلية,Banque de développement local,,,,
Ahmed Ben Bella,monument,13,34.8840994,-1.3133366,OpenStreetMap,4848433222,750,أحمد بن بلة,Ahmed Ben Bella,,,,
Makem Chahid,monument,13,35.0129946,-1.7491576,OpenStreetMap,1002314508,751,مقام الشهيد,,,,,
Zaouia Sidi Benamer,monument,13,35.0416216,-1.6505371,OpenStreetMap,89546990,752,,Zaouia Sidi Benamer,,,,
أفريقيا,monument,13,34.849924,-1.727776,OpenStreetMap,4706246589,753,أفريقيا,Placette Africa,,,,
الجامع الكبير,monument,13,34.8837264,-1.3104274,OpenStreetMap,14581869,754,المسجد الكبير,La Grande Mosquée,Q2989371,,fr:Grande Mosquée de Tlemcen,
سيدي بنعمار,monument,13,35.0466919,-1.7963205,OpenStreetMap,93607828,755,سيدي بنعمار,Sidi Benamar,,,,
سيدي موسى,monument,13,35.0575775,-1.7137685,OpenStreetMap,1035564011,756,سيدي موسى,Sidi Moussa,,,,
",مفبرة",monument,14,35.3214294,1.3333713,OpenStreetMap,8722672817,757,,cimetière,,,,
Memorial,monument,14,34.8960881,1.2418118,OpenStreetMap,5053604057,758,,,,,,
موقع أثري السوامع,monument,14,35.3765159,1.0468438,OpenStreetMap,8168441337,759,,Site historique Souamaa,,,,
Abbane Remdan,monument,15,36.6367712,4.2040546,OpenStreetMap,4580195791,760,,Abbane Remdan,,,,
Agouni Temlilin (Moudjahidin),monument,15,36.8358457,4.2523877,OpenStreetMap,4459229793,761,Agouni Temlilin (Moudjahidin),,,,,
Asmektay (Amedruz) n yimeɣrasen n Wihinun,monument,15,36.6843613,4.0396322,OpenStreetMap,5970846232,762,نصب الشهداء بوهينون,monument des martyrs (bouhinoun),,,,
Candle of Tizi-ouzou,monument,15,36.7133333,4.0380556,Wikidata,,763,مقام السمعة تيزي وزو,Bougie de Tizi Ouzou,Q60851448,,,
Krim Belkacem,monument,15,36.7512206,3.8928293,OpenStreetMap,3832455412,764,,,,,,
MONUMENT EL CHOUHADA,monument,15,36.6359991,4.470979,OpenStreetMap,383254171,765,,,,,,
Monument,monument,15,36.8941849,4.4177814,OpenStreetMap,309218461,766,,,,,,
Monument Ait Khalifa,monument,15,36.5261143,4.3459241,OpenStreetMap,238067059,767,,,,,,
Monument Illulen Umalu,monument,15,36.5830101,4.4381234,OpenStreetMap,3058113953,768,,,,,,
Monument Tafsa Boumad,monument,15,36.5145919,4.1233897,OpenStreetMap,683457891,769,,,,,,
Monument de Fadhma N'Soumeur,monument,15,36.5126927,4.3616257,OpenStreetMap,3401989194,770,,,,,,
Monument des Martyrs,monument,15,36.7947642,4.3090078,OpenStreetMap,4465899589,771,,Monument des Martyrs,,,,
Monument des Martyrs Tizit,monument,15,36.5138402,4.4205405,OpenStreetMap,2187604244,772,,Monument des Martyrs Tizit,,,,
Monument des martyrs Ger Iberdan,monument,15,36.5861442,4.6019743,OpenStreetMap,2693801152,773,,,,,,
Monument des martyrs d'Ighil Bousouel,monument,15,36.8655177,4.2310489,OpenStreetMap,4683508249,774,,,,,,
Monument et cimetière martyrs,monument,15,36.7588255,3.9812578,OpenStreetMap,387350127,775,,,,,,
Stèle,monument,15,36.6662643,4.5127565,OpenStreetMap,268380406,776,,,,,,
Tajebbant n At Tudert,monument,15,36.5316269,4.1810768,OpenStreetMap,4806178121,777,,Monument des martyrs Ait Toudert,,,,
Tazrutt,monument,15,36.6672088,4.5178626,OpenStreetMap,2398263246,778,,,,,,
Tifra,monument,15,36.8537517,4.1611759,OpenStreetMap,4498962991,779,Tifra,,,,,
Z imazighen,monument,15,36.6345367,4.2059118,OpenStreetMap,4580182694,780,,Z imazighen,,,,
asmektay (amedruz) n yimeɣrasen n At Wanec,monument,15,36.6486229,4.044748,OpenStreetMap,368998452,781,نصب الشهداء آيت وانش,"Monument des martyrs ""At Wanec""",,,,
monument,monument,15,36.6031352,4.1256971,OpenStreetMap,4073360559,782,,,,,,
monument des martyrs Akendjour,monument,15,36.6270061,4.0386216,OpenStreetMap,359762972,783,,,,,,
La Pêcherie,monument,16,36.7845371,3.0643052,OpenStreetMap,2989734142,784,المسمكة,,,,,
Monument aux Morts,monument,16,36.802471,3.045304,OpenStreetMap,436944970,785,نصب تذكاري للموتى,Monument aux Morts,,,,
Monument aux martyrs,monument,16,36.790659,3.2501648,OpenStreetMap,4077759242,786,نصب تدكاري لشهداء برج البحري,Monument aux martyrs,,,,
Statue de Bologhine Ibn Ziri,monument,16,36.7856656,3.0561928,OpenStreetMap,287515524,787,ثمثال بربروس,,,,,
Trois Horloges,monument,16,36.790986,3.0517961,OpenStreetMap,2672809395,788,الساعات الثلاثة,Trois Horloges,,,,
Walid N Mar,monument,16,36.7643334,2.9881039,OpenStreetMap,4602219296,789,,,,,,
مقام الشهداء,monument,16,36.7361963,3.2824497,OpenStreetMap,4231177389,790,مقام الشهداء,Co-memorial des martyrs,,,,
مقام الشهيد,monument,16,36.7457113,3.0697254,OpenStreetMap,7023985185,791,مقام الشهيد,Makam E'chahid,,,,
نصب تذكاري لحي 08 ماي 1945,monument,16,36.7368286,3.1850463,OpenStreetMap,4359251493,792,نصب تذكاري لحي 08 ماي 1945,Monument mémorial 8 mai 1945,,,,
La Poudriere دار البارود,monument,17,34.6723,3.2497182,OpenStreetMap,264735720,793,La Poudriere دار البارود,La Poudriere,,,,
La liberation,monument,17,34.6749776,3.2553312,OpenStreetMap,272450408,794,,,,,,
باب الشارف,monument,17,34.6747107,3.2487804,OpenStreetMap,7909637985,795,باب الشارف,porte charef,,,,
مقبرة الشهداء,monument,17,34.6944444,3.196677,OpenStreetMap,4382281490,796,مقبرة الشهداء,Cimetière des martyrs,,,,
Monument Galère de Barberousse,monument,18,36.8167324,5.7715357,OpenStreetMap,2468542857,797,,,,,,
Monument aux Morts,monument,18,36.8231156,5.7654368,OpenStreetMap,2827994044,798,,Monument aux Morts,,,,
Monument aux morts,monument,18,36.8178894,5.7714345,OpenStreetMap,3057110320,799,,,,,,
مقام الشهيد,monument,18,36.6798283,5.7868221,OpenStreetMap,4674617589,800,مقام الشهيد,martyr,,,,
نصب اولاد سوسي,monument,18,36.7612328,5.9007621,OpenStreetMap,4513297391,801,نصب اولا سوسي,Stèle Ouled Souissi,,,,
Aïn El Fouara; عين الفوارة,monument,19,36.1893325,5.4048867,OpenStreetMap,4637947041,802,عين الفوارة,Fontaine d'Aïn El Fouara,Q3076109,,ar:نافورة عين الفوارة,yes
Hammam Ouled Tebben,monument,19,35.7875,5.1230556,Wikidata,,803,حمام أولاد تبان,,Q12208685,,,
Monument aux morts,monument,19,36.4423187,4.8545409,OpenStreetMap,1132948485,804,,,,,,
حظيرة البلدية,monument,19,35.6875604,5.3755389,OpenStreetMap,4510749793,805,حظيرة البلدية,,,,,
زهرة اللوتس,monument,19,36.1960404,5.4062398,OpenStreetMap,660203560,806,زهرة اللوتس,Fleur de Lotus,,,,
عين فوارة,monument,19,36.1893879,5.4048602,OpenStreetMap,11515803073,807,,,,,,
مسجد الإيمان,monument,19,36.1769843,5.3726692,OpenStreetMap,801424404,808,مسجد الإيمان,Mosquée Al Iman,,,,
La Guillotine,monument,21,36.8712841,6.9199105,OpenStreetMap,284755141,809,,,,,,
معركة قشيدة التاريخية,monument,21,36.8135022,6.5083463,OpenStreetMap,3123803288,810,معركة قشيدة التاريخية,,,,,
4 Horloges,monument,22,35.1907107,-0.6341692,OpenStreetMap,2433863040,811,,,,,,
Cimetière chohada,monument,23,36.8317288,7.4643005,OpenStreetMap,5099097521,812,,Cimetière chohada,,,,
cimetière des martyrs,monument,23,36.9075845,7.6837061,OpenStreetMap,4573225093,813,,cimetière des martyrs,,,,
نصب تذكاري,monument,23,36.8318897,7.4644644,OpenStreetMap,1192393094,814,,,,,,
8 مايو 1945,monument,24,36.4707921,7.434909,OpenStreetMap,4560427542,815,8 مايو 1945,08 mai 45,,,,
cancassaur,monument,24,36.4659714,7.4265077,OpenStreetMap,4727688793,816,,,,,,
cite khalla,monument,24,36.4551864,7.4431357,OpenStreetMap,4727738292,817,,,,,,
الثكنة القديمة,monument,24,36.4628497,7.4276545,OpenStreetMap,4727738694,818,,Ancienne caserne,,,,
باب عنابة,monument,24,36.4662843,7.4319101,OpenStreetMap,4727738191,819,,Beb Annaba,,,,
مقام الشهيد,monument,24,36.473268,7.4353926,OpenStreetMap,4727738293,820,مقام الشهيد,,,,,
Monument aux morts,monument,25,36.3751978,6.6136928,OpenStreetMap,324456135,821,,,Q21012240,,,
Bab Lakouas (Porte des Arcades),monument,26,36.2668084,2.7468331,OpenStreetMap,4197833089,822,,,,,,
Colonne de commémoration de la bataille de Mazagran 1558,monument,27,35.9024904,0.0767399,OpenStreetMap,4600620689,823,Colonne de commémoration de la bataille de Mazagran 1558,,,,,
Les Coquillages,monument,27,35.9169412,0.060288,OpenStreetMap,4475628705,824,الأصداف,,,,,
Musée historique de la ville de Sidi Ali,monument,27,36.0994305,0.4212078,OpenStreetMap,3692426851,825,,,,,,
الدلافين الثلاثة,monument,27,35.9492499,0.0911795,OpenStreetMap,4475628702,826,الدلافين الثلاثة,trois dauphins,,,,
الفارس,monument,27,35.9397747,0.1155049,OpenStreetMap,4475694090,827,الفارس,,,,,
تمثال رجل المسرح و 4 أسود,monument,27,35.9115105,0.0789741,OpenStreetMap,4475694092,828,تمثال رجل المسرح و 4 أسود,Rond point Abderrahmane Kaki,,,,
نصب تذكاري لشهداء الثورة,monument,27,36.1053903,0.3119346,OpenStreetMap,4848063243,829,نصب تذكاري لشهداء الثورة,Monument,,,,
تمثال محمد بوضياف,monument,28,35.6946931,4.5379286,OpenStreetMap,4235356699,830,تمثال محمد بوضياف,,,,,
5 يوليو,monument,29,35.4626619,0.2960813,OpenStreetMap,4107105492,831,5 يوليو,5 juillet,,,,
El Mazoudj,monument,29,35.4213889,0.0622222,Wikidata,,832,,,Q23836514,,,
Mémorial des Martyres,monument,29,35.3945051,0.1390766,OpenStreetMap,545675483,833,النصب التذكاري لشهداء الثورة,Mémorial des Martyres,,,,
Smala de l'Emir Abdelkader,monument,29,35.320312,0.3657109,OpenStreetMap,1137794705,834,,,,,,
النقطة الدائرية الشمعة,monument,29,35.4107069,0.142295,OpenStreetMap,6244421386,835,النقطة الدائرية الشمعة,Rond point Chamaa,,,,
ساحة الشهداء,monument,29,35.4155374,0.3273674,OpenStreetMap,5125464522,836,ساحة الشهداء,,,,,
Monument du Colonel Leboeuf,monument,30,31.4666667,8.9833333,Wikidata,,837,,,Q23816639,,,
Monument du Lieutenant Châtenay,monument,30,31.4988889,8.7744444,Wikidata,,838,,,Q23805155,,,
Memorial Martyres,monument,31,35.6296674,-0.523471,OpenStreetMap,4388666989,839,,el braya,,,,
Rond-point Hai Es-Sabah,monument,31,35.6944224,-0.5748531,OpenStreetMap,4936216231,840,دوار حي الصباح,,,,,
الساحة المركزية,monument,31,35.6572492,-0.5218243,OpenStreetMap,4680423802,841,الساحة المركزية,Place centrale,,,,
المدينة الجديدة,monument,31,35.6955147,-0.6473203,OpenStreetMap,3946398501,842,المدينة الجديدة,El Medina El Djadida,,,,
سد تفراوي,monument,31,35.4670138,-0.5077993,OpenStreetMap,5418052527,843,سد تفراوي,Barrage de Tefraoui,,,,
قمبيطة,monument,31,35.7069319,-0.6214985,OpenStreetMap,4846652624,844,قمبيطة,Gambetta,,,,
شيخ بوعمامة,monument,32,33.6674575,1.0436462,OpenStreetMap,7683176185,845,شيخ بوعمامة,,,,,
غزلان,monument,32,33.6716852,1.030841,OpenStreetMap,3153126182,846,غزلان,,,,,
مقام الشهيد,monument,32,33.6444543,1.0964701,OpenStreetMap,12010373987,847,,,,,,
Bordj El Mokrani,monument,34,36.0726322,4.7612763,OpenStreetMap,300833611,848,,,,,,
Foara,monument,34,35.9561622,5.0376843,OpenStreetMap,3505902351,849,,Foara,,,,
Monument des Martyrs,monument,34,35.9453708,5.0319203,OpenStreetMap,3505902352,850,مقام الشهداء,Monument des Martyrs,,,,
نفق المصالحة,monument,34,36.0734667,4.7546115,OpenStreetMap,4561916493,851,,,,,,
Monument aux martyrs,monument,35,36.7512209,3.479909,OpenStreetMap,2333298948,852,,,,,,
Place des Martyrs,monument,35,36.7291584,3.4970873,OpenStreetMap,2917748587,853,,,,,,
ساحة 1 نوفمبر 1954,monument,36,36.765746,8.3257968,OpenStreetMap,4303096593,854,ساحة 1 نوفمبر 1954,,,,,
ساحة المجاهد,monument,36,36.7616816,8.3117888,OpenStreetMap,6143510085,855,ساحة المجاهد,,,,,
مقام الشهداء,monument,36,36.835121,8.10943,OpenStreetMap,4252963990,856,مقام الشهداء,Monument des martyrs,,,,
"Makam Echahid, مقام الشهيد",monument,39,33.3610842,6.8631576,OpenStreetMap,2518844805,857,مقام الشهيد,Makam Echahid,,,,
مقام الشهيد,monument,39,33.5612112,6.9266539,OpenStreetMap,1430295594,858,,,,,,
آثار,monument,40,35.316461,7.2293272,OpenStreetMap,7968219586,859,آثار,Ruines,,,,
Monument aux martyrs ALN,monument,41,36.252489,7.9462057,OpenStreetMap,244623852,860,,,,,,
La placette,monument,42,36.5729738,2.6769853,OpenStreetMap,4574955709,861,,La placette,,,,
Monument,monument,42,36.6423199,2.6902386,OpenStreetMap,244512208,862,,,,,,
Place du 1er novembre,monument,42,36.6367987,2.7684092,OpenStreetMap,172092541,863,,Place du 1er novembre,,,,
placette Aouiguer ساحة عويغر,monument,42,36.6372604,2.772041,OpenStreetMap,337515413,864,ساحة عويغر,placette Aouiguer,,,,
Statue des Martyrs,monument,43,36.158248,6.1656391,OpenStreetMap,4148787989,865,,,,,,
Bab El Gharbi,monument,44,36.3027218,2.2190439,OpenStreetMap,2173315641,866,الباب الغربي,Bab El Gharbi,,,,
Place des martyrs,monument,44,36.2248734,1.6703406,OpenStreetMap,3153651803,867,,,,,,
Statue de Ali la Pointe,monument,44,36.3020278,2.2260008,OpenStreetMap,308416760,868,تمثال علي لابوانت,,,,,
عمار الصم,monument,45,32.643858,-0.3772636,OpenStreetMap,4872485021,869,عمار الصم,,,,,
Le Mausolée de Beni Rhénane,monument,46,35.26293,-1.4309142,OpenStreetMap,8454596417,870,,Le Mausolée de Beni Rhénane,Q65643733,,fr:Mausolée de Beni-Rhénane,
Makam Echahid,monument,46,35.2993944,-1.3680554,OpenStreetMap,235487035,871,,,,,,
Place Bentelha Driss,monument,46,35.3021545,-1.3844691,OpenStreetMap,2435193646,872,,,,,,
Place de l'Indépendance,monument,46,35.3029272,-1.3842212,OpenStreetMap,2435187224,873,ساحة الاستقلال,Place de l'Indépendance,,,,
Place des Martyrs,monument,46,35.3925828,-1.0927633,OpenStreetMap,4338330191,874,ساحة الشهداء,,,,,
Sanctuaire du Martyr,monument,46,35.305638,-1.1817947,OpenStreetMap,5161834521,875,,Monument de Martyres,,,,
Tamejjida n baba Saâd,monument,47,32.8334192,3.7575809,OpenStreetMap,4324877620,876,تامجيدا ن بابا سعد,Tamejjida n baba Saâd,,,,
الرمز التاريخ لبني مزاب,monument,47,32.4810927,3.7000199,OpenStreetMap,3871642632,877,الرمز التاريخ لبني مزاب,Stèle de M'zab,,,,
السوق القديم,monument,47,32.8306584,3.7646546,OpenStreetMap,4323052698,878,السوق القديم,le vieux marché,,,,
برج عمي زكري,monument,47,32.470525,3.7303957,OpenStreetMap,4215178543,879,برج عمي زكري,Burj Ami Zekri,,,,
تامجيدا نوامان ⵜⴰⵎⴻⵊⵊⵉⴷⴰ ⵏ ⵡⴰⵎⴰⵏ tamejjida n waman,monument,47,32.8312894,3.7656925,OpenStreetMap,4323120490,880,تامجيدا نوامان,tamejjida n waman,,,,
حشود ⵃⴻⵛⵛⵓⴷ heccud,monument,47,32.8321307,3.7648419,OpenStreetMap,4323022795,881,حشود,Hachoud,,,,
دار الأعراس الجماعية,monument,47,32.8308962,3.7664712,OpenStreetMap,4323018490,882,دار الأعراس الجماعية,Salle des fêtes,,,,
دار الحجر,monument,47,32.8315163,3.7656405,OpenStreetMap,4323031691,883,دار الحجر,Dar al Hajar,,,,
Monument de sidi m'hamed benali,monument,48,36.1435431,0.8454705,OpenStreetMap,564098639,884,,,,,,
Place de la Mina,monument,48,35.7445809,0.5574068,OpenStreetMap,4498940892,885,,Place de la Mina,,,,
قصر ڤنتور,monument,49,29.3077832,0.0144302,OpenStreetMap,7231365585,886,قصر ڤنتور,Ksar Guentour,,,,
مقام الحاج محمد mkam el hadj mohammed,monument,49,30.1683287,0.8757213,OpenStreetMap,3337652981,887,مقام الحاج محمد mkam el hadj mohammed,Makam El Hadj Mohammed,,,,
غار مصابيح,monument,51,33.9216206,5.065791,OpenStreetMap,4518518749,888,غار مصابيح,Ghar messabih,,,,
مقبرة أثرية,monument,51,33.9468652,5.132696,OpenStreetMap,4518518761,889,مقبرة أثرية,Cimetière archéologique,,,,
مقبرة أثرية,monument,51,33.9471633,5.134477,OpenStreetMap,4518518762,890,مقبرة أثرية,Cimetière archéologique,,,,
مقبرة أثرية,monument,51,33.947368,5.1295417,OpenStreetMap,4518518763,891,مقبرة أثرية,Cimetière archéologique,,,,
مقبرة أثرية,monument,51,33.947793,5.1326477,OpenStreetMap,4518518764,892,مقبرة أثرية,Cimetière archéologique,,,,
مقبرة أثرية,monument,51,33.9479399,5.1329052,OpenStreetMap,4518518765,893,مقبرة أثرية,Cimetière archéologique,,,,
مقبرة أثرية,monument,51,33.9444855,5.1321917,OpenStreetMap,4518518766,894,مقبرة أثرية,Cimetière archéologique,,,,
مقبرة أثرية,monument,51,33.9443653,5.1314514,OpenStreetMap,4518518767,895,مقبرة أثرية,Cimetière archéologique,,,,
مقبرة أثرية,monument,51,33.9438179,5.1308855,OpenStreetMap,4518518768,896,مقبرة أثرية,Cimetière archéologique,,,,
مقبرة أثرية,monument,51,33.9456458,5.1304027,OpenStreetMap,4518519652,897,مقبرة أثرية,Cimetière archéologique,,,,
Cimetière,monument,53,27.2770095,2.5208569,OpenStreetMap,4723864790,898,سيد الحاج محمد,Cimetière,,,,
ساحة أول نوفمبر,monument,53,27.1069057,1.9092179,OpenStreetMap,4429584891,899,ساحة أول نوفمبر,Place du 1er Novembre,,,,
مسجد سيد الحاج بوحوص,monument,53,27.2825813,2.5219953,OpenStreetMap,4723842190,900,مسجد سيد الحاج بوحوص,Mosqué Sid Lhadj Bohos,,,,
Monument d'El Moudjahid,monument,55,33.1045093,6.0663452,OpenStreetMap,3871276430,901,,,,,,
مقام الشهيد,monument,55,33.1325165,6.0823721,OpenStreetMap,4557264192,902,مقام الشهيد,Mémorial du Martyr,,,,
Monument du Lieutenant Collot,monument,58,29.7488889,3.0166667,Wikidata,,903,,,Q23805156,,,
"Larmoud, ex haras de Aïn-Oussara",monument,65,35.4534454,2.906871,OpenStreetMap,260111551,904,,,,,,
Monument des martyres,monument,69,32.8648771,0.0241495,OpenStreetMap,412736743,905,النصب التذكاري للشهداء,,,,,
"Mosquée Sidi Maïza, مسجد سيدي معيزة",mosque,02,36.5014912,1.3170374,OpenStreetMap,13328147824,906,مسجد سيدي معيزة,Mosquée Sidi Maïza,,,,
Mosquée Ibn Khaldoun,mosque,06,36.7514588,5.0839331,OpenStreetMap,523266318,907,,,,,,2
الجامع الجديد,mosque,16,36.7849421,3.0630483,OpenStreetMap,16270848,908,الجامع الجديد,La Nouvelle Mosquée,Q12192958,,fr:Jamaa al-Jdid,
Qalâa Beni Hammad,mosque,28,35.8209755,4.7894636,OpenStreetMap,379893609,909,,,,,,
Mosquée Emir Abdelkader مسجد الأمير عبد القادر,mosque,43,36.2460399,6.2864096,OpenStreetMap,1329593717,910,مسجد الأمير عبد القادر,Mosquée Emir Abdelkader,,,,
سيدي غانم Sidi Ghanem,mosque,43,36.4504207,6.2714961,OpenStreetMap,1452322891,911,سيدي غانم,Sidi Ghanem,,,,
قصر كوردان,palace,03,33.85,2.3405639,Wikidata,,912,قصر كوردان,,Q119025676,,,
Dar El Hamra (Algiers),palace,16,36.787428,3.062265,Wikidata,,913,دار الحمراء (قصبة الجزائر),Dar El Hamra (Algiers),Q91367534,part of UNESCO World Heritage Site,,
Dar Es-Sadaka,palace,16,36.785439,3.060922,Wikidata,,914,دار الصدقة,Dar Es-Sadaka,Q91369328,part of UNESCO World Heritage Site,,
Dar Essouf,palace,16,36.786025,3.060759,Wikidata,,915,دار الصوف,Dar Essouf,Q91366437,part of UNESCO World Heritage Site,,
Dar Hassan Pacha,palace,16,36.785045,3.061544,Wikidata,,916,دار حسن باشا,Dar Hassan Pacha,Q27603011,part of UNESCO World Heritage Site,,
Dar Khedaoudj el Amia,palace,16,36.7866667,3.0608333,Wikidata,,917,دار خداوجة العميا,Dar Khedaoudj el Amia,Q28083468,part of UNESCO World Heritage Site,,
El Mouradia Palace,palace,16,36.74625,3.0495833,Wikidata,,918,قصر المرادية,palais d'El Mouradia,Q16510045,,,
Palais Boulkine,palace,16,36.7410547,3.0957262,Wikidata,,919,,Palais Boulkine,Q139766742,,,
People's Palace (Algiers),palace,16,36.7588889,3.0458333,Wikidata,,920,قصر الشعب,palais du Peuple,Q86734655,,,
palais consulaire d'Alger,palace,16,36.78501,3.06376,Wikidata,,921,,palais consulaire d'Alger,Q48756590,,,
La Poudrière دار البارود,powder_magazine,16,36.7840011,3.0552773,OpenStreetMap,390274332,922,دار البارود,La Poudrière,,,,
Old Zawiet,ruins,01,27.8000455,-0.2506432,OpenStreetMap,12566561425,923,,,,,,
Place de la preparation de la bombe nucleaire francais,ruins,01,26.6884696,0.2611152,OpenStreetMap,327519602,924,,,,,,
Amamra dar rih عمامرة دار الريح,ruins,02,36.4843785,1.2419755,OpenStreetMap,3669961482,925,Amamra dar rih عمامرة دار الريح,,,,,
"Bordj El Ghoula, برج الغولة",ruins,02,36.4998211,1.3182481,OpenStreetMap,13438351574,926,برج الغولة,Bordj El Ghoula,,,,
CANON DE TENES,ruins,02,36.5221875,1.321173,OpenStreetMap,5331336620,927,,Canon de Ténès,,,,
El Kalaa De Sidi Aissa,ruins,02,36.2250146,0.8712605,OpenStreetMap,2954492233,928,,El Kalaa De Sidi Aissa,,,,
Mechtat Mekerzia,ruins,02,36.0310501,1.619346,OpenStreetMap,2173563791,929,,,,,,
amamra abdelrahman عمامرة عبد الرحمان,ruins,02,36.4734936,1.2500918,OpenStreetMap,5723451044,930,عمامرة عبد الرحمان,,,,,
ruines époque coloniale,ruins,04,35.8746238,7.1158861,OpenStreetMap,310819773,931,,,,,,
Arc de Septime Sévère,ruins,05,35.4838137,6.2660264,OpenStreetMap,11341800270,932,,Arc de Septime Sévère,,,,
Capitol,ruins,05,35.4784738,6.2692536,OpenStreetMap,11341726469,933,,Capitol,,,,
Fontaine de Ain Yagout Thagouth,ruins,05,35.7743766,6.4195871,OpenStreetMap,3236431634,934,,,,,,
Marché aux vêtements,ruins,05,35.4849516,6.4665109,OpenStreetMap,11341892069,935,,Marché aux vêtements,,,,
Porte de Mascula,ruins,05,35.4852778,6.4707334,OpenStreetMap,11341868569,936,,Porte de Mascula,,,,
Porte du Nord ou de Cirta,ruins,05,35.4866779,6.4686681,OpenStreetMap,11341892070,937,,Porte du Nord ou de Cirta,,,,
Praetorium,ruins,05,35.4901164,6.254729,OpenStreetMap,2719992738,938,,,,,,
Sanctuaire d'Esculape,ruins,05,35.4787168,6.2673136,OpenStreetMap,11341728369,939,,Sanctuaire d'Esculape,,,,
Thermes des Filadelfes,ruins,05,35.4873018,6.4668699,OpenStreetMap,11341902569,940,,Thermes des Filadelfes,,,,
Thermes romaines,ruins,05,35.4834098,6.265778,OpenStreetMap,11341800269,941,,Thermes romaines,,,,
Akham Da Moh,ruins,06,36.6045098,4.5430982,OpenStreetMap,12194398712,942,,,,,,
Aqueduc Romain,ruins,06,36.7634815,4.9139939,OpenStreetMap,1368534030,943,,,,,,
