id,name,name_fr,name_ar,wilaya_code,commune_code,commune,lat,lng,geo_precision,geo_method,source,refs,type
1,Ancienne piste d'aviation,,,01,,,26.4062703,0.0192765,exact,osm,osm,"{""osm"":""4318916905""}",aircraft
10,Byzantine Fort in Timgad,Fort byzantin de Timgad,القلعة البيزنطية في تيمقاد,05,,,35.479736,6.46852,exact,osm,osm,,archaeological_site
100,Benian ntaa Soumâa Citadel,,,35,,,36.7014594,3.550191,exact,osm,osm,"{""osm"":""1384102734""}",archaeological_site
1000,Djamaâ Bou T'har,,,18,,,36.6946238,5.5923791,exact,osm,osm,"{""osm"":""5381018387""}",ruins
1001,Lella Takouba,,لالة ثاكوبة,18,,,36.6166355,5.500535,exact,osm,osm,"{""osm"":""3728184747""}",ruins
1002,Mali,,,18,,,36.6850986,5.7075069,exact,osm,osm,"{""osm"":""4323900018""}",ruins
1003,Mzara,,,18,,,36.7968707,5.7001215,exact,osm,osm,"{""osm"":""4306380689""}",ruins
1004,Mzarat Sidi Djebar,,مزارة سيدي جبار,18,,,36.6677512,5.5151323,exact,osm,osm,"{""osm"":""3721400641""}",ruins
1005,Ruines du Sor,,,18,,,36.8245923,5.7599,exact,osm,osm,"{""osm"":""3060093977""}",ruins
1006,Sidi Aghrib,,,18,,,36.6184172,5.4905328,exact,osm,osm,"{""osm"":""4386455942""}",ruins
1007,Sidi Ahmed,,,18,,,36.6020362,5.5326448,exact,osm,osm,"{""osm"":""5376454786""}",ruins
1008,Sidi Akellal,,,18,,,36.8225425,5.7225186,exact,osm,osm,"{""osm"":""4355219632""}",ruins
1009,Sidi Ben Ouadda,,,18,,,36.7619161,5.6662017,exact,osm,osm,"{""osm"":""4355337405""}",ruins
101,Castellum Tulei,,,35,,,36.778793,3.7976035,exact,osm,osm,"{""osm"":""1410759471""}",archaeological_site
1010,Sidi Dris,,,18,,,36.6298239,5.489195,exact,osm,osm,"{""osm"":""4314513019""}",ruins
1011,Sidi El Hadj,,سيدى الحاج,18,,,36.6166276,5.4794934,exact,osm,osm,"{""osm"":""4384691677""}",ruins
1012,Sidi Nacer,,,18,,,36.6404193,5.4678685,exact,osm,osm,"{""osm"":""396072699""}",ruins
1013,Sidi Rehal,,سيدي رحال,18,,,36.6132576,5.521855,exact,osm,osm,"{""osm"":""3721400640""}",ruins
1014,Sidi Zaher,,,18,,,36.6339403,5.4989157,exact,osm,osm,"{""osm"":""367417205""}",ruins
1015,برج مراقبة لجيش الإستعمار الفرنسي 1,Tour de contrôle de l'armée coloniale française 1,برج مراقبة لجيش الإستعمار الفرنسي 1,18,,,36.7033431,5.9409235,exact,osm,osm,"{""osm"":""13142280889""}",ruins
1016,برج مراقبة لجيش الإستعمار الفرنسي 2,Tour de contrôle de l'armée coloniale française 2,برج مراقبة لجيش الإستعمار الفرنسي 2,18,,,36.7013501,5.9429214,exact,osm,osm,"{""osm"":""13142280888""}",ruins
1017,سيدي يحيى الوحشي,Sidi Yahia el Ouahchi,سيدي يحيى الوحشي,18,,,36.745149,5.6143747,exact,osm,osm,"{""osm"":""4338683652""}",ruins
1018,قبور بونيقية - الرابطة,Tombes puniques - La Rabta,قبور بونيقية - الرابطة,18,,,36.825197,5.7540703,exact,osm,osm,"{""osm"":""13068228187""}",ruins
1019,Arc de Caracalla,,,19,,,36.320462,5.735567,exact,osm,osm,"{""osm"":""209622856""}",ruins
102,Chateau Romain,,قصر رومي,35,,,36.6632058,3.6557993,exact,osm,osm,"{""osm"":""1379129665""}",archaeological_site
1020,Basilica of Cresconius,,,19,,,36.3190586,5.7377961,exact,osm,osm,"{""osm"":""209623231""}",ruins
1021,Roman Forum,,,19,,,36.3222344,5.7350964,exact,osm,osm,"{""osm"":""209622860""}",ruins
1022,Roman Forum Courtyard,,,19,,,36.3218077,5.7352413,exact,osm,osm,"{""osm"":""1123877539""}",ruins
1023,Temple de la famille des Sévères,,,19,,,36.3207295,5.736437,exact,osm,osm,"{""osm"":""209622858""}",ruins
1024,Thermes romains,,,19,,,36.3191882,5.736129,exact,osm,osm,"{""osm"":""209622853""}",ruins
1025,الجلة,Djela,الجلة,19,,,36.2844229,5.1564586,exact,osm,osm,"{""osm"":""422621161""}",ruins
1026,الريب,,الريب,19,,,36.291872,5.157139,exact,osm,osm,"{""osm"":""422621265""}",ruins
1027,Ruines Francaise,,,24,,,36.3787634,7.7644207,exact,osm,osm,"{""osm"":""205823219""}",ruins
1028,Ruines romaines,,,24,,,36.3953563,7.2626835,exact,osm,osm,"{""osm"":""1538980192""}",ruins
1029,Aqueduc Romain,,,25,,,36.3501957,6.6175773,exact,osm,osm,"{""osm"":""5280672657""}",ruins
103,Dra Azib Boujet,,,35,,,36.7746074,3.7303635,exact,osm,osm,"{""osm"":""1410759470""}",archaeological_site
1030,Rapidium,,,26,,,36.1368537,3.4224246,exact,osm,osm,"{""osm"":""1212738075""}",ruins
1031,Qasr Beni Hamad,,,28,,,35.8230021,4.7990636,exact,osm,osm,"{""osm"":""1560595799""}",ruins
1032,زاوية سي الحاج محمد الادرسي الحسني الهاشمي القرشي,,,30,,,32.1564858,5.3525906,exact,osm,osm,"{""osm"":""13321746001""}",ruins
1033,Porte de Santon,Porte de Santon,,31,,,35.7056374,-0.6565187,exact,osm,osm,"{""osm"":""6501698685""}",ruins
1034,Borj sidi hamza,,,32,,,33.0990301,1.26222,exact,osm,osm,"{""osm"":""5856732184""}",ruins
1035,Ksar al Ghassoul,,,32,,,33.3811579,1.1971211,exact,osm,osm,"{""osm"":""5856731885""}",ruins
1036,قصر المجاهدة بنت الخص,,قصر المجاهدة بنت الخص,32,,,33.0593548,1.1832828,exact,osm,osm,"{""osm"":""437156353""}",ruins
1037,Ancien Borj siège de la Jemâa,,,34,,,36.2987906,4.5836463,exact,osm,osm,"{""osm"":""4261048160""}",ruins
1038,Ancienne casbah rasée,,,34,,,36.29574,4.5822124,exact,osm,osm,"{""osm"":""4261153576""}",ruins
1039,Bordj Chemissa,,,34,,,35.8910417,4.9190008,exact,osm,osm,"{""osm"":""6534068116""}",ruins
104,El Jamaa Ihaddaden,,,35,,,36.6806997,3.8142227,exact,osm,osm,"{""osm"":""1383065133""}",archaeological_site
1040,La Vigie,,,34,,,36.2986346,4.5773158,exact,osm,osm,"{""osm"":""4261127134""}",ruins
1041,Nadi Thoubat,,,34,,,36.2969363,4.5859393,exact,osm,osm,"{""osm"":""4261132748""}",ruins
1042,Tunnel de l'armurerie,,,34,,,36.2967659,4.5858056,exact,osm,osm,"{""osm"":""4261132749""}",ruins
1043,Nisanian Pentagram,,,37,,,29.2401128,-7.0376905,exact,osm,osm,"{""osm"":""7137153519""}",ruins
1044,Ksar El Kahina,,,40,,,35.535855,7.1191274,exact,osm,osm,"{""osm"":""1551154609""}",ruins
1045,Ruines,,,41,,,35.9735934,7.612083,exact,osm,osm,"{""osm"":""3295284787""}",ruins
1046,Ruines romaines de Khemissa,,,41,,,36.1934233,7.6566039,exact,osm,osm,"{""osm"":""1540360908""}",ruins
1047,Ruines romaines de Madaurus,,,41,,,36.0771619,7.9023528,exact,osm,osm,"{""osm"":""464334607""}",ruins
1048,nymphaeum,,,41,,,36.194211,7.6562627,exact,osm,osm,"{""osm"":""1321756090""}",ruins
1049,Amphithéâtre Romain,Amphithéâtre Romain,,42,,,36.5931472,2.445422,exact,osm,osm,"{""osm"":""266408729""}",ruins
105,Haouch el Oudjani,,,35,,,36.8589721,3.8307342,exact,osm,osm,"{""osm"":""1410759474""}",archaeological_site
1050,Bab el Gherb,Bab El Gherb,باب الغرب,42,,,36.6057429,2.1862139,exact,osm,osm,"{""osm"":""4457095230""}",ruins
1051,Césarée de Maurétanie,Césarée de Maurétanie,,42,,,36.6073337,2.1869681,exact,osm,osm,"{""osm"":""172032689""}",ruins
1052,Nymphes Water Fountain Ruins,Nymphes Water Fountain Ruins,,42,,,36.592673,2.4428285,exact,osm,osm,"{""osm"":""266408728""}",ruins
1053,Saïdia,,,42,,,36.6177463,2.639891,exact,osm,osm,"{""osm"":""3013572925""}",ruins
1054,Théâtre Romain,Théâtre Romain,,42,,,36.5926511,2.4416522,exact,osm,osm,"{""osm"":""266408727""}",ruins
1055,Théâtre romain,Théâtre romain,,42,,,36.6052591,2.1905535,exact,osm,osm,"{""osm"":""266410062""}",ruins
1056,Villa des Fresques,Villa des Fresques,,42,,,36.5947971,2.4439004,exact,osm,osm,"{""osm"":""266533407""}",ruins
1057,بوحراتي,,,42,,,36.6479059,2.7465952,exact,osm,osm,"{""osm"":""12293747501""}",ruins
1058,بوحراتي العربي,,,42,,,36.64716,2.7464072,exact,osm,osm,"{""osm"":""12293746701""}",ruins
1059,حمّامات رومانية,Thermes romains ouest,حمّامات رومانية,42,,,36.6074391,2.1867548,exact,osm,osm,"{""osm"":""2727459373""}",ruins
106,Kobr Roumia,,,35,,,36.8144935,3.8165788,exact,osm,osm,"{""osm"":""1410759472""}",archaeological_site
1060,رحال,,,42,,,36.6432913,2.7693878,exact,osm,osm,"{""osm"":""12291695701""}",ruins
1061,عقيد عميروش,,,42,,,36.649532,2.6921557,exact,osm,osm,"{""osm"":""12254968401""}",ruins
1062,كاري,,,42,,,36.643253,2.7694682,exact,osm,osm,"{""osm"":""12291688902""}",ruins
1063,Bab el Bled,,,43,,,36.4521493,6.2736322,exact,osm,osm,"{""osm"":""4361933048""}",ruins
1064,Ruines romaines de Tiddis,,,43,,,36.4623166,6.4823727,exact,osm,osm,"{""osm"":""215927252""}",ruins
1065,الآثار الرومانية,Ruines romaines,الآثار الرومانية,43,,,36.4502,6.2712045,exact,osm,osm,"{""osm"":""4363220764""}",ruins
1066,الخربة,Ruine,الخربة,43,,,36.1726403,6.3451472,exact,osm,osm,"{""osm"":""5247654478""}",ruins
1067,الهنشير,Hanchir,الهنشير,43,,,36.1478311,6.3565551,exact,osm,osm,"{""osm"":""5251007157""}",ruins
1068,Boumead school مدرسة بومعد,,,44,,,36.3648277,2.1272211,exact,osm,osm,"{""osm"":""10893515279""}",ruins
1069,Boumead school مدرسة بومعد,,,44,,,36.3652079,2.1277159,exact,osm,osm,"{""osm"":""10893515280""}",ruins
107,Marsa al Dejjaj مرسى الدجاج,,مرسى الدجاج,35,,,36.7995335,3.5661432,exact,osm,osm,"{""osm"":""1376564101""}",archaeological_site
1070,Boumead school مدرسة بومعد,,,44,,,36.3653083,2.1276529,exact,osm,osm,"{""osm"":""10893515281""}",ruins
1071,Old russian village,,,44,,,36.3742125,2.518943,exact,osm,osm,"{""osm"":""4396470290""}",ruins
1072,Taouret prison سجن تاوريت,,,44,,,36.3647143,2.125538,exact,osm,osm,"{""osm"":""10893562518""}",ruins
1073,ruins أثار,,,44,,,36.354626,2.2828522,exact,osm,osm,"{""osm"":""10931604055""}",ruins
1074,ruins أثار,,,44,,,36.3581671,2.2754976,exact,osm,osm,"{""osm"":""10931604131""}",ruins
1075,ruins أثار,,,44,,,36.3581664,2.2755901,exact,osm,osm,"{""osm"":""10931604137""}",ruins
1076,ruins أثار,,,44,,,36.3564808,2.1635284,exact,osm,osm,"{""osm"":""1172596891""}",ruins
1077,ruins أثار,,,44,,,36.356534,2.1641245,exact,osm,osm,"{""osm"":""1172596892""}",ruins
1078,ruins أثار,,,44,,,36.3564586,2.1642126,exact,osm,osm,"{""osm"":""1172596893""}",ruins
1079,ruins أثار,,,44,,,36.3563137,2.1647009,exact,osm,osm,"{""osm"":""1172596894""}",ruins
108,Marsa al-Djaje,Marsa al-Djaje,مرسى الدجاج,35,,,36.8002658,3.5651722,exact,osm,osm,,archaeological_site
1080,ruins أثار,,,44,,,36.3562128,2.1647827,exact,osm,osm,"{""osm"":""1172596895""}",ruins
1081,ruins أثار,,,44,,,36.3502559,2.1535203,exact,osm,osm,"{""osm"":""1172596908""}",ruins
1082,ruins أثار,,,44,,,36.3222959,2.2285718,exact,osm,osm,"{""osm"":""1172831107""}",ruins
1083,ruins أثار,,,44,,,36.4081615,2.1577725,exact,osm,osm,"{""osm"":""1172831119""}",ruins
1084,ruins أثار,,,44,,,36.3969755,2.0923101,exact,osm,osm,"{""osm"":""1172831132""}",ruins
1085,ruins أثار,,,44,,,36.3967382,2.0919171,exact,osm,osm,"{""osm"":""1172831133""}",ruins
1086,ruins أثار,,,44,,,36.3970849,2.0917293,exact,osm,osm,"{""osm"":""1172831134""}",ruins
1087,Ruines de Siga,,,46,,,35.2654912,-1.4510168,exact,osm,osm,"{""osm"":""6805729095""}",ruins
1088,Place1,,,47,,,32.3840269,4.6949945,exact,osm,osm,"{""osm"":""13696061201""}",ruins
1089,Ksar kawa,Ksar kawa,قصر كاوا,48,,,35.9313192,1.2018097,exact,osm,osm,"{""osm"":""4448783494""}",ruins
109,Rusuccuru,,,35,,,36.91285,3.90964,exact,osm,osm,,archaeological_site
1090,mur Fort othomant ras el kalaa,,,48,,,35.5815454,0.3300112,exact,osm,osm,"{""osm"":""1511460221""}",ruins
1091,قصر الأميرة,,,48,,,35.5820126,0.3302263,exact,osm,osm,"{""osm"":""1511460206""}",ruins
1092,زريبة سيدي الحاج بلقاسم ⵣⵔⵉⴱⴻⵜ ⵙⵉⴷⵉ ⵍⵃⴰⵊ ⴱⴻⵍⵇⴰⵙⵎ,Zaouiet Sidi Hadj Belkacem,زريبة سيدي الحاج بلقاسم,49,,,29.2371697,0.2012349,exact,osm,osm,"{""osm"":""7024740382""}",ruins
1093,زريبة سيدي الحاج بلقاسم ⵣⵔⵉⴱⴻⵜ ⵙⵉⴷⵉ ⵍⵃⴰⵊ ⴱⴻⵍⵇⴰⵙⵎ,Zaouiet Sidi Hadj Belkacem,زريبة سيدي الحاج بلقاسم,49,,,29.2370404,0.2013118,exact,osm,osm,"{""osm"":""751434710""}",ruins
1094,Poste Maurice Cortier,,,50,,,22.3183252,1.1159638,exact,osm,osm,"{""osm"":""1165418339""}",ruins
1095,Fortin au disque,,,51,,,34.4878181,5.210074,exact,osm,osm,"{""osm"":""310814818""}",ruins
1096,برج الدوسن,,,51,,,34.601928,5.1072812,exact,osm,osm,"{""osm"":""385662289""}",ruins
1097,El ksiba - أطلال قصر القصيبة,,,52,,,30.120416,-2.1674876,exact,osm,osm,"{""osm"":""9456604492""}",ruins
1098,ksar Beni Abbes -   قصر بني عباس,,,52,,,30.123242,-2.17308,exact,osm,osm,"{""osm"":""1025678948""}",ruins
1099,El Moustakbal;محلات المستقب,El Moustakbal,محلات المستقبل,54,,,19.9536029,2.9695045,exact,osm,osm,"{""osm"":""13175295301""}",ruins
11,Capitolium,Capitole,,05,,,35.4834949,6.4666444,exact,osm,osm,"{""osm"":""5434295573""}",archaeological_site
110,Taksebt des Ouled Said,,,35,,,36.6562714,3.7263928,exact,osm,osm,"{""osm"":""1395521035""}",archaeological_site
1100,العقيلة,El Aguila,العقيلة,55,,,32.6866304,5.4755717,exact,osm,osm,"{""osm"":""369621056""}",ruins
1101,القصر ، قبة اللقاني,"Le palais, le dôme de Laqani",القصر ، قبة اللقاني,55,,,32.7020538,5.4287277,exact,osm,osm,"{""osm"":""369603160""}",ruins
1102,برج الحواس,,,56,,,24.8865957,8.4294133,exact,osm,osm,"{""osm"":""13351548801""}",ruins
1103,مباني قديمة,,,57,,,34.2161906,5.7635754,exact,osm,osm,"{""osm"":""8429220050""}",ruins
1104,مباني قديمة,,,57,,,34.216018,5.7641976,exact,osm,osm,"{""osm"":""8429220051""}",ruins
1105,Apparent extent of walled ancient settlement at Henchir Bessariani,,,62,,,34.445419,7.4927751,exact,osm,osm,"{""osm"":""739855191""}",ruins
1106,Camps Romain,,,62,,,34.6354478,7.4122148,exact,osm,osm,"{""osm"":""5315180603""}",ruins
1107,Visible remains of roman fort at Henchir Bessariani,,,62,,,34.4449545,7.4923728,exact,osm,osm,"{""osm"":""739854261""}",ruins
1108,Ouaskria,,,64,,,35.2027254,2.3034359,exact,osm,osm,"{""osm"":""3241984820""}",ruins
1109,البواقة,Château d'eau,البواقة,65,,,35.4488587,2.9039227,exact,osm,osm,"{""osm"":""5075513537""}",ruins
111,حصن الامير عبد القادر,,حصن الامير عبد القادر,38,,,35.8655227,2.2807736,exact,osm,osm,"{""osm"":""259354485""}",archaeological_site
1110,Chateau Ziride d'Achir,,,67,,,35.9276643,3.2935029,exact,osm,osm,"{""osm"":""453662333""}",ruins
1111,"École de garçons du Vieux-Ténès, مدرسة الذكور",École de garçons du Vieux-Ténès,مدرسة الذكور,02,,,36.5002922,1.3138962,exact,osm,osm,"{""osm"":""13439646175""}",school
1112,مفترق طرق,,,64,,,34.7043494,2.4055941,exact,osm,osm,"{""osm"":""12685692276""}",technical_monument
1113,Cathedrale,,,05,,,35.4863974,6.465826,exact,osm,osm,"{""osm"":""5433761834""}",temple
1114,"Sidi Bouras, سيدي بوراس",Sidi Bouras,سيدي بوراس,02,,,36.5001808,1.3136826,exact,osm,osm,"{""osm"":""1465515671""}",tomb
1115,Sidi Hakkoum,,,03,,,33.809786,2.8926276,exact,osm,osm,"{""osm"":""43763360""}",tomb
1116,قبر بلقطيف,,,03,,,32.837358,2.4708531,exact,osm,osm,"{""osm"":""13721791801""}",tomb
1117,Imma Tadrart,,يما ثاذرارث,06,,,36.6408304,5.2322347,exact,osm,osm,"{""osm"":""436647820""}",tomb
1118,Mausolée Sidi Younes,,,06,,,36.5387269,4.586552,exact,osm,osm,"{""osm"":""5636072039""}",tomb
1119,Mausolée de Sidi Aïssa,Mausolée de Sidi Aïssa,ضريح سيدي عيسى,06,,,36.7667519,5.1040556,exact,osm,osm,"{""osm"":""424799508""}",tomb
112,Ksar Baghai,,,40,,,35.5355503,7.1182448,exact,osm,osm,"{""osm"":""265150241""}",archaeological_site
1120,Mausolée de Yemma Timezrite,,,06,,,36.6074243,4.7673448,exact,osm,osm,"{""osm"":""4289707165""}",tomb
1121,Mqam Sidi Younes,,,06,,,36.5383806,4.586553,exact,osm,osm,"{""osm"":""5636073674""}",tomb
1122,Sidi Bouali,Sidi Bouali,سيدي بوعلي,06,,,36.7597434,5.0912482,exact,osm,osm,"{""osm"":""485194580""}",tomb
1123,Qobat Sidi Abdellah,,,09,,,36.6436139,2.8472391,exact,osm,osm,"{""osm"":""1594818852""}",tomb
1124,Tombeau de Sidi Ahmed El Kebir,Tombeau de Sidi Ahmed El Kebir,ضريح سيدي أحمد الكبير,09,,,36.4466521,2.8397784,exact,osm,osm,"{""osm"":""3811530464""}",tomb
1125,Tombeau du marabout Moulay Hassan,,,11,,,24.7083794,4.6534215,exact,osm,osm,"{""osm"":""496884974""}",tomb
1126,مرتتك,Mertoutek,مرتتك,11,,,24.2164814,5.5669426,exact,osm,osm,"{""osm"":""7703802637""}",tomb
1127,Marabout,,,13,,,35.2143505,-1.6226389,exact,osm,osm,"{""osm"":""3686941834""}",tomb
1128,Mausolée de Princesse - ضريح الأميرة -ⵜⴰⵎⴹⴰⵍⵜ ⵏ ⵜⴰⴳⵍⴷⵓⵏⵜ,Mausolée de Princesse,,13,,,34.8863632,-1.2981441,exact,osm,osm,"{""osm"":""5054966802""}",tomb
1129,Mausolée de Sidi Yakoub - ضريح سيدي يعقوب -ⵜⴰⵎⴹⴰⵍⵜ ⵏ ⵙⵉⴷⵉ ⵢⴰⵄⵇⵓⴱ,Mausolée de Sidi Yakoub,,13,,,34.8863797,-1.2986886,exact,osm,osm,"{""osm"":""5054966801""}",tomb
113,حمام الصالحين ⵃⴻⵎⵎⴰⵎ ⵚⴰⵍⵃⵉⵏ,Hammam Essalihine,حمام الصالحين,40,,,35.4401595,7.0846943,exact,osm,osm,"{""osm"":""2662646762""}",archaeological_site
1130,Tombe de Messali El-Hadj,Tombe de Messali El Hadj,,13,,,34.8791714,-1.3005375,exact,osm,osm,"{""osm"":""10008484048""}",tomb
1131,Tombeau de Sidi Boumediéne ضريح سيدي بومدين,Tombeau de Sidi Boumediéne,ضريح سيدي بومدين,13,,,34.8779521,-1.2897675,exact,osm,osm,"{""osm"":""9997775417""}",tomb
1132,ضريح لآلة ستي,Tombeau Lalla Setti,ضريح لآلة ستي,13,,,34.8671496,-1.3230064,exact,osm,osm,"{""osm"":""1091869570""}",tomb
1133,ضريح مولاي عبد القادر,,ضريح مولاي عبد القادر,13,,,34.8772458,-1.2925921,exact,osm,osm,"{""osm"":""1091631807""}",tomb
1134,مقام سيدنا يوشع,Mausolée de Sidna Youchaa,مقام سيدنا يوشع,13,,,35.1163877,-1.7805413,exact,osm,osm,"{""osm"":""1524182618""}",tomb
1135,Amṛaveḍ Muḥ,,,15,,,36.6078334,4.107298,exact,osm,osm,"{""osm"":""5023179068""}",tomb
1136,Aẓẓekka n LWENAS MATUB,,,15,,,36.618268,4.1199754,exact,osm,osm,"{""osm"":""5023179166""}",tomb
1137,"Aẓẓekka n Umyaru Dda Racid Allic ""At Mussa""",,,15,,,36.6077501,4.1095578,exact,osm,osm,"{""osm"":""5023200927""}",tomb
1138,Jeddi Wejjriw Amɣaṛ,,,15,,,36.6080383,4.1070607,exact,osm,osm,"{""osm"":""5023179236""}",tomb
1139,Tajjebant n Tizi Asker-Cimetière,,,15,,,36.6079313,4.1096926,exact,osm,osm,"{""osm"":""5023179186""}",tomb
114,قصرالجازية - Mausolée de Cedias,Mausolée de Cédias,,40,,,35.3222656,7.2349306,exact,osm,osm,"{""osm"":""318626658""}",archaeological_site
1140,Tajjebant n Tizi Asker-Cimetière,,,15,,,36.6084852,4.1091444,exact,osm,osm,"{""osm"":""5031202157""}",tomb
1141,زاوية سيدي بهلول,,زاوية سيدي بهلول,15,,,36.7189883,4.3756708,exact,osm,osm,"{""osm"":""6654120889""}",tomb
1142,Maqam Abd al-Rahman al-Tha'alibi,,,16,,,36.7882365,3.0593638,exact,osm,osm,"{""osm"":""11940681506""}",tomb
1143,قبر شهيد,,قبر شهيد,16,,,36.7729796,3.0270434,exact,osm,osm,"{""osm"":""264441036""}",tomb
1144,مقام سيدي عبدالرحمان,,,16,,,36.7882951,3.059509,exact,osm,osm,"{""osm"":""1287518931""}",tomb
1145,Tombeau de Massinissa,Tombeau de Massinissa,ضريح ماسينيسا,25,,,36.2721943,6.725097,exact,osm,osm,"{""osm"":""2476104378""}",tomb
1146,Mausolée Bey Bouchelaghem,Mausolée Bey Bouchelaghem,ضريح الباي بوشلاغم,27,,,35.9330997,0.0947749,exact,osm,osm,"{""osm"":""5621744588""}",tomb
1147,Mausolée Sidi Abdallah,,,27,,,35.9323862,0.0928581,exact,osm,osm,"{""osm"":""503054185""}",tomb
1148,Mausolée de Sidi Said,,,27,,,35.9307813,0.0908143,exact,osm,osm,"{""osm"":""498052533""}",tomb
1149,Sidi Lakhdar Ben Khlouf,Sidi Lakhdar Ben Khlouf,سيدي لخضر بن خلوف,27,,,36.1438081,0.4604624,exact,osm,osm,"{""osm"":""367499544""}",tomb
115,Ancient Roman theater in Khamissa,,,41,,,36.1937048,7.6559214,exact,osm,osm,"{""osm"":""1321739924""}",archaeological_site
1150,Mausolée Sidi Daho,,ضريح سيدي دحو,29,,,35.4419689,0.1696166,exact,osm,osm,"{""osm"":""545794909""}",tomb
1151,مقام الولي الصالح سيداحمد بن علي,,مقام الولي الصالح سيداحمد بن علي,29,,,35.3438416,0.1972413,exact,osm,osm,"{""osm"":""5608127821""}",tomb
1152,مقام الولي الصالح سيدي عبد القادر الجيلاني,,مقام الولي الصالح سيدي عبد القادر الجيلاني,29,,,35.4166303,0.3304278,exact,osm,osm,"{""osm"":""5666568721""}",tomb
1153,ضريح,Mausolée,ضريح,30,,,31.9645176,5.3367438,exact,osm,osm,"{""osm"":""3884401951""}",tomb
1154,قبة سيدي برجال,Dôme Sidi Berdjal,قبة سيدي برجال,30,,,31.9640395,5.2752262,exact,osm,osm,"{""osm"":""592020798""}",tomb
1155,مقام سيدي منصور,Tombeau de Sidi Mansour,,31,,,35.7946277,-0.0934596,exact,osm,osm,"{""osm"":""4889861978""}",tomb
1156,سيدي علي بن سعيد,,سيدي علي بن سعيد,32,,,33.3810979,1.1953774,exact,osm,osm,"{""osm"":""9997708624""}",tomb
1157,Caveau punique,Caveau Punique,,42,,,36.5938013,2.4508857,exact,osm,osm,"{""osm"":""543583831""}",tomb
1158,Mausolée Royal de Maurétanie الضريح الملكي الموريطاني,Mausolée Royal de Maurétanie,الضريح الملكي الموريطاني,42,,,36.574971,2.5527945,exact,osm,osm,"{""osm"":""243563008""}",tomb
1159,Mausolée Sid-Ali Ferki,Mausolée Sid-Ali Ferki,ضريح سيدعلي فركي,42,,,36.6111532,2.1880807,exact,osm,osm,"{""osm"":""489554575""}",tomb
116,Forum Novum,,,41,,,36.1919041,7.6539647,exact,osm,osm,"{""osm"":""1321756093""}",archaeological_site
1160,Mausolée Sidi Brahem,Mausolée Sidi Brahem,ضريح سيدي براهم,42,,,36.6095388,2.195965,exact,osm,osm,"{""osm"":""448438834""}",tomb
1161,Sidi Bou- Djemlin,,,43,,,36.2046961,6.3340715,exact,osm,osm,"{""osm"":""5252207662""}",tomb
1162,Memorial of Martyr Bou Gueroumi نصب تذكاري الشهيد بوقرومي,,نصب تذكاري الشهيد بوقرومي,44,,,36.3997288,2.2408622,exact,osm,osm,"{""osm"":""10991629921""}",tomb
1163,Sidi Abdeka,,,44,,,36.3090377,2.1801362,exact,osm,osm,"{""osm"":""308579205""}",tomb
1164,Sidi Belgacem,,سيدي بلقاسم,44,,,36.3044649,2.2279172,exact,osm,osm,"{""osm"":""308418146""}",tomb
1165,Mausolée Sidi Brahim,Mausolée Sidi Brahim,ضريح آمي ابراهيم,47,,,32.4736489,3.7448504,exact,osm,osm,"{""osm"":""4805793122""}",tomb
1166,قبة سيدي بنور,Mausolée Sidi Bennour,,47,,,32.5860873,3.3332173,exact,osm,osm,"{""osm"":""10728365082""}",tomb
1167,KANACHE el Hadj Adda,,,48,,,36.140254,0.7850732,exact,osm,osm,"{""osm"":""588427818""}",tomb
1168,ضريح المرابط سيدي عمارة,Tombeau du marabout Sidi Amara,ضريح المرابط سيدي عمارة,48,,,35.8665556,1.1207252,exact,osm,osm,"{""osm"":""3352114631""}",tomb
1169,قبر سيدي يحيى,,قبر سيدي يحيى,48,,,35.6905432,0.6961898,exact,osm,osm,"{""osm"":""799417138""}",tomb
117,Madauros Theatre,,,41,,,36.0778831,7.9014802,exact,osm,osm,"{""osm"":""284087760""}",archaeological_site
1170,مقام سيد الشيخ,Makam Sidi Cheikh,مقام سيد الشيخ,49,,,30.5296748,0.5168735,exact,osm,osm,"{""osm"":""3340341919""}",tomb
1171,ضريح الحاج الشيخ,,,53,,,27.0793081,1.807345,exact,osm,osm,"{""osm"":""10586594426""}",tomb
1172,Tomb of Charles de Foucauld,,,58,,,30.6148019,2.8733355,exact,osm,osm,"{""osm"":""640548439""}",tomb
1173,ضريح الشيخ مولاي الطيب,,,58,,,30.5789544,2.9005596,exact,osm,osm,"{""osm"":""10110853273""}",tomb
1174,ضريح سيدي الجيلالي,,ضريح سيدي الجيلالي,63,,,34.4628758,-1.5843247,exact,osm,osm,"{""osm"":""1093158630""}",tomb
1175,Ancienne mairie de Oued Athmania بلدية الوادي العثمانية العتيق,Ancienne mairie de Oued Athmania,بلدية الوادي العثمانية العتيق,43,,,36.2482216,6.2892199,exact,osm,osm,"{""osm"":""1452387674""}",townhall
1176,monument to the dead of Batna,monument aux morts de Batna,نصب تذكاري لموتى باتنة,05,,,35.5588,6.18466,exact,osm,osm,,war_memorial
1177,Monument aux morts de Relizane,Monument aux morts de Relizane,,48,,,35.7333333,0.55,exact,osm,osm,,war_memorial
1178,Bir Chebana بير شبانة,Bir Chebana,بير شبانة,16,,,36.7864901,3.0592597,exact,osm,osm,"{""osm"":""11958896144""}",water_tap
1179,Bir Sidi Abdallah بير سيدي عبدالله,Bir Sidi Abdallah,بير سيدي عبدالله,16,,,36.7846157,3.0582549,exact,osm,osm,"{""osm"":""12466951047""}",water_tap
118,Thermae,,,41,,,36.1921346,7.6535203,exact,osm,osm,"{""osm"":""1321756094""}",archaeological_site
1180,بير جباح,Bir djebah,بير جباح,16,,,36.7845596,3.0569201,exact,osm,osm,"{""osm"":""12466941693""}",water_tap
1181,سيدي يوسف,Sidi Youssef,سيدي يوسف,08,,,32.1023495,-1.1757963,exact,osm,osm,"{""osm"":""441526882""}",wayside_shrine
1182,Sophia,Sophia,,21,,,36.9132562,7.1423241,exact,osm,osm,"{""osm"":""20315826""}",wreck
1183,Sidi Mejdoub,,,27,,,35.9529538,0.0875831,exact,osm,osm,"{""osm"":""3959366930""}",wreck
1184,(بقايا حطام سفينة سويدية ستوكهولم (شاطئ البابور,,,42,,,36.5604571,1.7513374,exact,osm,osm,"{""osm"":""11074558455""}",wreck
119,Thubursicum Numidarum,,,41,,,36.1915906,7.6564366,exact,osm,osm,"{""osm"":""1321739442""}",archaeological_site
12,Chasseurs baths,,,05,,,35.4798512,6.2700657,exact,osm,osm,"{""osm"":""1261252372""}",archaeological_site
120,Amphithéatre romain,Amphithéatre romain,المدرج الروماني,42,,,36.6085973,2.1988885,exact,osm,osm,"{""osm"":""266409896""}",archaeological_site
121,Aqueduc Maurétanien de Cherchell,,,42,,,36.5685254,2.290128,exact,osm,osm,"{""osm"":""370173875""}",archaeological_site
122,Archaeological Museum of Cherchell,Musée archéologique de Cherchell,,42,,,36.5979931,2.2014234,exact,osm,osm,"{""osm"":""4832565326""}",archaeological_site
123,Breshk,,,42,,,36.5687845,1.8603077,exact,osm,osm,"{""osm"":""1487738119""}",archaeological_site
124,Ruines Romaines de Tipaza,Ruines Romaines de Tipaza,الآثار الرومانية تيبازة,42,,,36.5946299,2.4422403,exact,osm,osm,"{""osm"":""171552738""}",archaeological_site
125,Tipasa eastern archaeological zone,parc archéologique de Tipasa est,,42,,,36.5929,2.4546,exact,osm,osm,,archaeological_site
126,Tipasa western archaeological zone,parc archéologique de Tipasa ouest,,42,,,36.594,2.4434,exact,osm,osm,,archaeological_site
127,aqueduct of Cherchell,aqueduc de Cherchell,,42,,,36.6069444,2.1966667,exact,osm,osm,,archaeological_site
128,El-Ksar,,,43,,,36.2603926,5.5706896,exact,osm,osm,"{""osm"":""1154161722""}",archaeological_site
129,Mausoleum of Quintus Lollius Urbicus,mausolée de Quintus Lollius Urbicus,ضريح لوليوس أربيكيوس,43,,,36.489792,6.483428,exact,osm,osm,,archaeological_site
13,Eastern Market of Timgad,Marché de l'Est,سوق تيمقاد الشرقي,05,,,35.485103,6.4696197,exact,osm,osm,,archaeological_site
130,Mechta el-Arbi,,,43,,,36.099,6.131,exact,osm,osm,,archaeological_site
131,Milevum,Milev (Numidie),ميليفوم,43,,,36.4512765,6.267698,exact,osm,osm,,archaeological_site
132,Quintus Lollius Urbicus Mausoleum,Mausolée de Quintus Lollius Urbicus,,43,,,36.4897736,6.4834582,exact,osm,osm,"{""osm"":""1268274982""}",archaeological_site
133,Ruines Romaines Tiddis,,الآثار الرومانية تيديس,43,,,36.4623723,6.4823717,exact,osm,osm,"{""osm"":""3650432490""}",archaeological_site
134,Site archéologique romain,,,43,,,36.4774998,5.9971469,exact,osm,osm,"{""osm"":""5422432767""}",archaeological_site
135,Tazrut,,,43,,,36.2912948,6.1050539,exact,osm,osm,"{""osm"":""1491571097""}",archaeological_site
136,Gargara (Aïn Defla),Gargara (Aïn Defla),آثار قرقرة,44,,,36.3049,1.8471,exact,osm,osm,,archaeological_site
137,دار الشانبيط,,دار الشانبيط,44,,,36.3444683,2.2669695,exact,osm,osm,"{""osm"":""10931591600""}",archaeological_site
138,Gravures Rupestres,,,45,,,32.7801707,-0.4107575,exact,osm,osm,"{""osm"":""395980901""}",archaeological_site
139,Albulae,Albulae,ألبولاي,46,,,35.294322,-1.140089,exact,osm,osm,,archaeological_site
14,Fort Byzantin,,,05,,,35.4794837,6.4680411,exact,osm,osm,"{""osm"":""11680106""}",archaeological_site
140,Regiae,Regiae,ريجياي,46,,,35.45228,-0.618882,exact,osm,osm,,archaeological_site
141,Siga,Siga,سيقا,46,,,35.2664527,-1.4528777,exact,osm,osm,"{""osm"":""2719759752""}",archaeological_site
142,M'zab,Mzab,مزاب,47,,,32.4872222,3.6813889,exact,osm,osm,,archaeological_site
143,Ksar el Kaoua,,,48,,,35.9190226,1.2002424,exact,osm,osm,"{""osm"":""1244100281""}",archaeological_site
144,Ksar el Kaoua,Ksar el Kaoua,قصر كاوة,48,,,35.86667,1.11667,exact,osm,osm,,archaeological_site
145,Ksar Draa,Ksar Draa,,49,,,29.5347801,0.1832851,exact,osm,osm,"{""osm"":""15441899""}",archaeological_site
146,‎Tamimimoon Old Town,‎Tamimimoon Old Town,,49,,,29.2881765,0.2413861,exact,osm,osm,"{""osm"":""1276224921""}",archaeological_site
147,Abri de In Temailt,Abri de In Temailt,,56,,,25.4295273,7.4483919,exact,osm,osm,"{""osm"":""9724483080""}",archaeological_site
148,Abri de Ouairassen,Abri de Ouairassen,,56,,,25.4187845,7.4679961,exact,osm,osm,"{""osm"":""9724555693""}",archaeological_site
149,Abri de Tigat Nalies (Three dancing women),Abri de Tigat Nalies,,56,,,25.4354665,7.5011398,exact,osm,osm,"{""osm"":""7104280022""}",archaeological_site
15,Forum,,,05,,,35.4848096,6.4688325,exact,osm,osm,"{""osm"":""7948650860""}",archaeological_site
150,Abri de Tikadiouine,,,56,,,25.3419847,8.0482866,exact,osm,osm,"{""osm"":""9758089117""}",archaeological_site
151,Akaham ouan Elbered,,,56,,,23.9820524,10.9267505,exact,osm,osm,"{""osm"":""316496850""}",archaeological_site
152,Archeological Site,,,56,,,24.238574,8.265454,exact,osm,osm,"{""osm"":""827625216""}",archaeological_site
153,Elephant petroglyph,,,56,,,24.0657945,10.88279,exact,osm,osm,"{""osm"":""7852977880""}",archaeological_site
154,Elephant petroglyphs,,,56,,,24.0598779,10.8330732,exact,osm,osm,"{""osm"":""7072439585""}",archaeological_site
155,Fish petroglyphs,,,56,,,24.0660215,10.8831037,exact,osm,osm,"{""osm"":""316501703""}",archaeological_site
156,Giraffe petroglyphs of Tisseteka,,,56,,,24.0731266,10.8234439,exact,osm,osm,"{""osm"":""7104354883""}",archaeological_site
157,Ikadnouchere rock paintings,,,56,,,25.3078556,7.9622595,exact,osm,osm,"{""osm"":""2552961759""}",archaeological_site
158,Important Archeological Site,,,56,,,24.5109766,8.4648236,exact,osm,osm,"{""osm"":""827589876""}",archaeological_site
159,Important Archeological Site,,,56,,,24.3761333,7.9190277,exact,osm,osm,"{""osm"":""827706867""}",archaeological_site
16,Forum,,,05,,,35.4785866,6.2694314,exact,osm,osm,"{""osm"":""1261252370""}",archaeological_site
160,Important archeological site,,,56,,,24.8126998,8.6181268,exact,osm,osm,"{""osm"":""818886215""}",archaeological_site
161,In Tanadouft,,,56,,,25.3486162,8.020466,exact,osm,osm,"{""osm"":""7072462684""}",archaeological_site
162,Ksar of Aghram,,,56,,,25.4251789,8.4304252,exact,osm,osm,"{""osm"":""768736202""}",archaeological_site
163,Ouan Atan Felsmalereien,,,56,,,24.2695267,10.8518936,exact,osm,osm,"{""osm"":""316499810""}",archaeological_site
164,Ouan Ekli petroglyphs,,,56,,,24.0648806,10.84968,exact,osm,osm,"{""osm"":""316501704""}",archaeological_site
165,Ouan Iska,,,56,,,24.0661109,10.9548148,exact,osm,osm,"{""osm"":""7072156228""}",archaeological_site
166,Ouan Takanessit Felsmalereien,,,56,,,24.2347282,10.8838871,exact,osm,osm,"{""osm"":""316499807""}",archaeological_site
167,Ouan Zaouatan,,,56,,,24.0773348,10.9357146,exact,osm,osm,"{""osm"":""316499803""}",archaeological_site
168,Oued Sirik,,,56,,,24.2196956,10.8443718,exact,osm,osm,"{""osm"":""7072298901""}",archaeological_site
169,Place de Jean Claude,,,56,,,24.0580161,10.9626679,exact,osm,osm,"{""osm"":""1230779162""}",archaeological_site
17,Forum of Timgad,Forum de Timgad,فوروم تيمقاد,05,,,35.485052,6.468737,exact,osm,osm,,archaeological_site
170,Rock Paintings,,,56,,,24.5656798,9.3425441,exact,osm,osm,"{""osm"":""4529064932""}",archaeological_site
171,Rock paintings,,,56,,,25.3861674,7.7487147,exact,osm,osm,"{""osm"":""7074472024""}",archaeological_site
172,Rock paintings,,,56,,,25.3919834,7.7873743,exact,osm,osm,"{""osm"":""7074493223""}",archaeological_site
173,Séfar,Séfar,مدينة سفار,56,,,24.687,9.651,exact,osm,osm,,archaeological_site
174,Tadrast,,,56,,,25.433303,8.2969781,exact,osm,osm,"{""osm"":""7074477607""}",archaeological_site
175,Tan Toudeft,,,56,,,25.4221816,8.2203599,exact,osm,osm,"{""osm"":""7072546142""}",archaeological_site
176,Tassili Cultural Park,Parc culturel du Tassili,الحظيرة الثقافية طاسيلي ناجر,56,,,24.974,9.012,exact,osm,osm,,archaeological_site
177,Tedar rock paintings,,,56,,,25.3649917,7.9752925,exact,osm,osm,"{""osm"":""2552961765""}",archaeological_site
178,Tiaraneen,,,56,,,25.4349644,8.247451,exact,osm,osm,"{""osm"":""7093129743""}",archaeological_site
179,Tin Akahem (Felsmalereien),,,56,,,23.8523635,10.3749837,exact,osm,osm,"{""osm"":""316496845""}",archaeological_site
18,Ghoufi,Canyon du Ghoufi,غوفي,05,,,35.049153,6.16725,exact,osm,osm,,archaeological_site
180,Tin Amarasouzi,,,56,,,25.421658,8.298143,exact,osm,osm,"{""osm"":""7074472272""}",archaeological_site
181,Tin Taborok paintings,,,56,,,24.0731742,10.9056769,exact,osm,osm,"{""osm"":""7072156380""}",archaeological_site
182,Tin Taghirt,,,56,,,25.1486739,8.5058441,exact,osm,osm,"{""osm"":""2571925549""}",archaeological_site
183,Tin Taghirt,,,56,,,25.1486444,8.5059639,exact,osm,osm,,archaeological_site
184,important archeological site,,,56,,,24.8278481,8.3336356,exact,osm,osm,"{""osm"":""818755324""}",archaeological_site
185,important archeological site,,,56,,,24.7034527,8.6228043,exact,osm,osm,"{""osm"":""818756093""}",archaeological_site
186,important archeological site,,,56,,,24.8105552,8.330931,exact,osm,osm,"{""osm"":""818757191""}",archaeological_site
187,neolithic painting,,,56,,,24.0335748,10.9543028,exact,osm,osm,"{""osm"":""1230776910""}",archaeological_site
188,neolithic painting,,,56,,,24.0369228,10.9512017,exact,osm,osm,"{""osm"":""1230777564""}",archaeological_site
189,neolithic petroglyph,,,56,,,24.0347795,11.0122967,exact,osm,osm,"{""osm"":""7864958910""}",archaeological_site
19,Grand Thermes du sud,,,05,,,35.4830416,6.468364,exact,osm,osm,"{""osm"":""1104422614""}",archaeological_site
190,neolithic petroglyphs,,,56,,,24.0323857,11.0125621,exact,osm,osm,"{""osm"":""7072193486""}",archaeological_site
191,neolithic petroglyphs,,,56,,,24.0372728,10.9513831,exact,osm,osm,"{""osm"":""7072320599""}",archaeological_site
192,neolithic petroglyphs,,,56,,,24.0429303,11.0212092,exact,osm,osm,"{""osm"":""7072419646""}",archaeological_site
193,neolothic petroglyph,,,56,,,24.0582223,10.9624513,exact,osm,osm,"{""osm"":""7846823935""}",archaeological_site
194,rock paintings,,,56,,,24.0545452,10.7661662,exact,osm,osm,"{""osm"":""316501709""}",archaeological_site
195,إسالامن,,إسالامن,56,,,25.3878162,8.3528996,exact,osm,osm,"{""osm"":""7074480719""}",archaeological_site
196,البقرة البكاء,La vache qui pleure,البقرة البكاء,56,,,24.380277,9.4323492,exact,osm,osm,"{""osm"":""316496842""}",archaeological_site
197,اللوحات الصخرية بوادي أبو هديان,Peintures rupestres vallée Bouhadian,اللوحات الصخرية بوادي أبو هديان,56,,,24.200283,10.876935,exact,osm,osm,"{""osm"":""316499806""}",archaeological_site
198,اللوحات الصخرية طاسيلي ناجر,Peintures rupestres Tassili N' Ajjer,اللوحات الصخرية طاسيلي ناجر,56,,,25.0286191,8.5567661,exact,osm,osm,"{""osm"":""4407133091""}",archaeological_site
199,النقوش الصخرية بوان تيكال,Pétroglyphes de Oued Tikal,النقوش الصخرية بوان تيكال,56,,,24.1336841,10.9314218,exact,osm,osm,"{""osm"":""316499804""}",archaeological_site
2,قصر كتاب,Ksar Kteb,قصر كتاب,01,,,27.218676,-0.189249,exact,osm,osm,"{""osm"":""332254300""}",archaeological_site
20,Grand north baths of Timgad,,,05,,,35.48744,6.46773,exact,osm,osm,,archaeological_site
200,تاناوت ⵜⴰⵏⴰⵡⵜ,Tanaout,تاناوت,56,,,24.0577576,10.1602672,exact,osm,osm,"{""osm"":""7074429278""}",archaeological_site
201,تين أرسو ⵜⵉⵏ ⴰⵔⴻⵙⵓ,Tin Aressou,تين أرسو,56,,,24.023561,10.2502173,exact,osm,osm,"{""osm"":""7072482699""}",archaeological_site
202,تين امالي ⵜⵉⵏ ⴰⵎⴰⵍⵉ,Tin Amali,تين امالي,56,,,24.4172898,9.526155,exact,osm,osm,"{""osm"":""4936229849""}",archaeological_site
203,قبر شمسي,Tombe solaire,قبر شمسي,56,,,24.835834,9.0520792,exact,osm,osm,"{""osm"":""4529064838""}",archaeological_site
204,قبر شمسي,Tombe solaire,قبر شمسي,56,,,24.8043194,9.3124586,exact,osm,osm,"{""osm"":""11655976887""}",archaeological_site
205,قبر شمسي,Tombe solaire,قبر شمسي,56,,,24.793481,9.2791792,exact,osm,osm,"{""osm"":""11655976888""}",archaeological_site
206,قبر شمسي,Tombe solaire,قبر شمسي,56,,,24.734868,9.3014225,exact,osm,osm,"{""osm"":""11655976889""}",archaeological_site
207,قبر شمسي,Tombe solaire,قبر شمسي,56,,,24.728342,9.2853223,exact,osm,osm,"{""osm"":""11655976890""}",archaeological_site
208,قبر شمسي,Tombe solaire,قبر شمسي,56,,,24.7288825,9.3809756,exact,osm,osm,"{""osm"":""11655976891""}",archaeological_site
209,قبر شمسي,Tombe solaire,قبر شمسي,56,,,24.7516137,9.32633,exact,osm,osm,"{""osm"":""11655976893""}",archaeological_site
21,Great North Baths,Grands Thermes du Nord,,05,,,35.4873892,6.4677386,exact,osm,osm,"{""osm"":""911542227""}",archaeological_site
210,قبر شمسي,Tombe solaire,قبر شمسي,56,,,24.7515233,9.2929189,exact,osm,osm,"{""osm"":""11655976894""}",archaeological_site
211,قبر شمسي,Tombe solaire,قبر شمسي,56,,,24.7563646,9.2745275,exact,osm,osm,"{""osm"":""11655976895""}",archaeological_site
212,قبر شمسي,Tombe solaire,قبر شمسي,56,,,24.7538336,9.2959172,exact,osm,osm,"{""osm"":""11655976896""}",archaeological_site
213,قبر شمسي,Tombe solaire,قبر شمسي,56,,,24.7537879,9.3004548,exact,osm,osm,"{""osm"":""11655976897""}",archaeological_site
214,قبر شمسي,Tombe solaire,قبر شمسي,56,,,24.7512065,9.3001945,exact,osm,osm,"{""osm"":""11655976898""}",archaeological_site
215,قبر شمسي,Tombe solaire,قبر شمسي,56,,,24.7494389,9.3000022,exact,osm,osm,"{""osm"":""11655976899""}",archaeological_site
216,قبر شمسي,Tombe solaire,قبر شمسي,56,,,24.7494598,9.3049632,exact,osm,osm,"{""osm"":""11655976900""}",archaeological_site
217,قبر شمسي,Tombe solaire,قبر شمسي,56,,,24.7476837,9.3102461,exact,osm,osm,"{""osm"":""11655976901""}",archaeological_site
218,قبر شمسي,Tombe solaire,قبر شمسي,56,,,24.7353922,9.3003677,exact,osm,osm,"{""osm"":""11655976904""}",archaeological_site
219,قبر شمسي,Tombe solaire,قبر شمسي,56,,,24.7355689,9.3000846,exact,osm,osm,"{""osm"":""11655976905""}",archaeological_site
22,Lambaesis,,,05,,,35.48928,6.25987,exact,osm,osm,,archaeological_site
220,قبر شمسي,Tombe solaire,قبر شمسي,56,,,24.7357369,9.3067752,exact,osm,osm,"{""osm"":""11655976907""}",archaeological_site
221,قبر شمسي,Tombe solaire,قبر شمسي,56,,,24.735859,9.304782,exact,osm,osm,"{""osm"":""11655976908""}",archaeological_site
222,قبر شمسي,Tombe solaire,قبر شمسي,56,,,24.7354883,9.3035306,exact,osm,osm,"{""osm"":""11655976909""}",archaeological_site
223,قبر شمسي,Tombe solaire,قبر شمسي,56,,,24.7351293,9.294456,exact,osm,osm,"{""osm"":""11655976910""}",archaeological_site
224,قبر شمسي,Tombe solaire,قبر شمسي,56,,,24.7351054,9.2946833,exact,osm,osm,"{""osm"":""11655976911""}",archaeological_site
225,قبر شمسي,Tombe solaire,قبر شمسي,56,,,24.7352073,9.2946444,exact,osm,osm,"{""osm"":""11655976912""}",archaeological_site
226,قبر شمسي,Tombe solaire,قبر شمسي,56,,,24.73431,9.2910956,exact,osm,osm,"{""osm"":""11655976913""}",archaeological_site
227,قبر شمسي,Tombe solaire,قبر شمسي,56,,,24.7334752,9.2912431,exact,osm,osm,"{""osm"":""11655976914""}",archaeological_site
228,قبر شمسي,Tombe solaire,قبر شمسي,56,,,24.735899,9.2896543,exact,osm,osm,"{""osm"":""11655976916""}",archaeological_site
229,قبر شمسي,Tombe solaire,قبر شمسي,56,,,24.7359671,9.282167,exact,osm,osm,"{""osm"":""11655976917""}",archaeological_site
23,Lambaesis آثار رومانية تازولت,,آثار رومانية تازولت,05,,,35.4893542,6.2544112,exact,osm,osm,"{""osm"":""266446235""}",archaeological_site
230,قبر شمسي,Tombe solaire,قبر شمسي,56,,,24.7515805,9.2929197,exact,osm,osm,"{""osm"":""11656177113""}",archaeological_site
231,قبر شمسي,Tombe solaire,قبر شمسي,56,,,24.8000846,9.282385,exact,osm,osm,"{""osm"":""11656177114""}",archaeological_site
232,قبر شمسي,Tombe solaire,قبر شمسي,56,,,24.7993535,9.2834097,exact,osm,osm,"{""osm"":""11656177115""}",archaeological_site
233,قبر شمسي,Tombe solaire,قبر شمسي,56,,,24.7971032,9.3023071,exact,osm,osm,"{""osm"":""11656177116""}",archaeological_site
234,قبر شمسي,Tombe solaire,قبر شمسي,56,,,24.7950007,9.3082014,exact,osm,osm,"{""osm"":""11656177117""}",archaeological_site
235,قبر شمسي,Tombe solaire,قبر شمسي,56,,,24.7576888,9.3097895,exact,osm,osm,"{""osm"":""11656177118""}",archaeological_site
236,قبر شمسي,Tombe solaire,قبر شمسي,56,,,24.7570671,9.3109434,exact,osm,osm,"{""osm"":""11656177119""}",archaeological_site
237,قبر شمسي,Tombe solaire,قبر شمسي,56,,,24.7570497,9.3163725,exact,osm,osm,"{""osm"":""11656177120""}",archaeological_site
238,قبر شمسي,Tombe solaire,قبر شمسي,56,,,24.7374287,9.3282227,exact,osm,osm,"{""osm"":""11656177121""}",archaeological_site
239,قبر شمسي,Tombe solaire,قبر شمسي,56,,,24.737269,9.3125437,exact,osm,osm,"{""osm"":""11656177122""}",archaeological_site
24,Market of Sertius,Marchè de Sertius,,05,,,35.4846177,6.4667722,exact,osm,osm,"{""osm"":""5433752626""}",archaeological_site
240,قبر شمسي,Tombe solaire,قبر شمسي,56,,,24.7370734,9.3119644,exact,osm,osm,"{""osm"":""11656177123""}",archaeological_site
241,قبر شمسي,Tombe solaire,قبر شمسي,56,,,24.7369168,9.3102313,exact,osm,osm,"{""osm"":""11656177124""}",archaeological_site
242,قبر شمسي,Tombe solaire,قبر شمسي,56,,,24.7362254,9.2982526,exact,osm,osm,"{""osm"":""11656177128""}",archaeological_site
243,قبر شمسي,Tombe solaire,قبر شمسي,56,,,24.7361776,9.2979654,exact,osm,osm,"{""osm"":""11656177129""}",archaeological_site
244,قبر شمسي,Tombe solaire,قبر شمسي,56,,,24.7338524,9.2913877,exact,osm,osm,"{""osm"":""11656177134""}",archaeological_site
245,قبر شمسي,Tombe solaire,قبر شمسي,56,,,24.7359316,9.2825374,exact,osm,osm,"{""osm"":""11656177137""}",archaeological_site
246,Roman bridge in El Kantara,pont romain d'El Kantara,جسر القنطرة الروماني,61,,,35.233555,5.701555,exact,osm,osm,,archaeological_site
247,Oued Djebbana,,,62,,,34.73,8.051,exact,osm,osm,,archaeological_site
248,Ruines d'Achir,,اطلال المدينة الاثرية آشير,67,,,35.9450356,3.2848055,exact,osm,osm,"{""osm"":""385862082""}",archaeological_site
249,Ausum,,,68,,,34.8613753,4.9245416,exact,osm,osm,"{""osm"":""1338155675""}",archaeological_site
25,Market of Sertius,Marché de Sertius,سوق سيرتيوس,05,,,35.4847222,6.4666667,exact,osm,osm,,archaeological_site
250,رحى فيريرو,Moulin Ferrero,رحى فيريرو,68,,,35.1920423,4.1653317,exact,osm,osm,"{""osm"":""3207837890""}",archaeological_site
251,قيادة القوات البحرية,Commandement des Forces Navales,قيادة القوات البحرية,16,,,36.7842127,3.069175,exact,osm,osm,"{""osm"":""155362197""}",area
252,Caserne Bab Lakouas,Caserne Bab Lakouas,ثكنة باب الأقواس,26,,,36.2616984,2.748355,exact,osm,osm,"{""osm"":""190374019""}",barracks
253,حمامات قيصر الرومانية,Thermes romains de César,حمامات قيصر الرومانية,25,,,36.3663834,6.6158479,exact,osm,osm,"{""osm"":""13680444051""}",bath
254,Battle site of the Battle of Oued Chelif (1015),,موقع المعركة واد شليف (1015),67,,,35.6433139,2.3178677,exact,osm,osm,"{""osm"":""1513382475""}",battle_site
255,حصار الأغواط,Siège de Laghouat,حصار الأغواط,03,,,33.8054435,2.8788191,exact,osm,osm,"{""osm"":""12471849708""}",battlefield
256,نصب تذكاري لإندلاع ثورة أول نوفمبر,,نصب تذكاري لإندلاع ثورة أول نوفمبر,05,,,35.1546118,6.2450322,exact,osm,osm,"{""osm"":""474802378""}",battlefield
257,Bataille de Staoueli معركة سطاوالي,Bataille de Staoueli,معركة سطاوالي,16,,,36.7579768,2.881601,exact,osm,osm,"{""osm"":""12471558534""}",battlefield
258,حصار قلعة برج مولاي الحسن,Siège de la forteresse de Bordj Moulay Hassan,حصار قلعة برج مولاي الحسن,16,,,36.7738159,3.0448054,exact,osm,osm,"{""osm"":""12471601073""}",battlefield
259,Les 04 chemins,,,15,,,36.7023441,4.5331584,exact,osm,osm,"{""osm"":""2837834352""}",boundary_stone
26,Medracen,,إيمدغاسن,05,,,35.7070701,6.4346439,exact,osm,osm,"{""osm"":""266446803""}",archaeological_site
260,pk 178/49,,,30,,,31.9364984,5.4176932,exact,osm,osm,"{""osm"":""5305560977""}",boundary_stone
261,قناة عين الزبوجة,Aqueduc Ain Zeboudja,قناة عين الزبوجة,16,,,36.7559196,3.0311632,exact,osm,osm,"{""osm"":""278903680""}",bridge
262,El Kantara,,,61,,,35.2335682,5.701588,exact,osm,osm,"{""osm"":""475450594""}",bridge
263,الجامع ميقور,El Jama3 Migour,الجامع ميقور,06,,,36.6062598,4.6440125,exact,osm,osm,"{""osm"":""261518724""}",building
264,Château Boukandoura قلعة بوقندورة,Château Boukandoura,قلعة بوقندورة,09,,,36.5978227,3.162279,exact,osm,osm,"{""osm"":""1160663208""}",building
265,البريد المركزي الجزائر,La Grande Poste d'Alger,البريد المركزي الجزائر,16,,,36.773079,3.0595769,exact,osm,osm,"{""osm"":""415866""}",building
266,مستشفى بودانس القديم,Ancien hôpital Baudens,مستشفى بودانس القديم,31,,,35.7056835,-0.6537832,exact,osm,osm,"{""osm"":""369151778""}",building
267,Gendarmerie de Oued Athmania درك وادي العثمانية,Gendarmerie de Oued Athmania,درك وادي العثمانية,43,,,36.2480698,6.2887441,exact,osm,osm,"{""osm"":""1329600495""}",building
268,Centre de concentration 2 ème Bureau,Centre de concentration 2 ème Bureau,مركز التعديب المكتب 2,46,,,35.3044774,-1.1825911,exact,osm,osm,"{""osm"":""5305283021""}",building
269,Kasba,,,01,,,26.9634847,1.0824514,exact,osm,osm,"{""osm"":""298367390""}",castle
27,Medracen,,,05,,,35.707267,6.4348192,exact,osm,osm,"{""osm"":""266446815""}",archaeological_site
270,Ksar,,,01,,,27.8301491,-0.270722,exact,osm,osm,"{""osm"":""1363070571""}",castle
271,Ksar,,,01,,,27.8728849,-0.3417701,exact,osm,osm,"{""osm"":""1363082816""}",castle
272,Ksar,,,01,,,27.336779,-0.2342137,exact,osm,osm,"{""osm"":""1364293354""}",castle
273,Ksar,,,01,,,27.4502424,-0.2643222,exact,osm,osm,"{""osm"":""1365073274""}",castle
274,Ksar,,,01,,,27.1564356,-0.1374983,exact,osm,osm,"{""osm"":""1428568380""}",castle
275,Ksar,,,01,,,27.156911,-0.1359329,exact,osm,osm,"{""osm"":""1428568383""}",castle
276,Ksar,,,01,,,27.1435553,-0.1376885,exact,osm,osm,"{""osm"":""1428568394""}",castle
277,Ksar القصر,Ksar,القصر,01,,,27.2718879,-0.2066214,exact,osm,osm,"{""osm"":""1361579926""}",castle
278,Ksar القصر,Ksar,القصر,01,,,27.2640264,-0.2076234,exact,osm,osm,"{""osm"":""1361579932""}",castle
279,Ksar القصر,Ksar,القصر,01,,,27.2562743,-0.2096369,exact,osm,osm,"{""osm"":""1361579933""}",castle
28,Pequeña Terma norte,,,05,,,35.4865595,6.468836,exact,osm,osm,"{""osm"":""1104422262""}",archaeological_site
280,Ksar القصر,Ksar,القصر,01,,,27.6501053,-0.2048939,exact,osm,osm,"{""osm"":""1364194176""}",castle
281,بالحاج,Belhadj,بالحاج,01,,,27.7445097,-0.2719666,exact,osm,osm,"{""osm"":""4798706321""}",castle
282,أولاد عدة,,أولاد عدة,02,,,36.1900309,0.9302819,exact,osm,osm,"{""osm"":""7778783686""}",castle
283,أولاد عين الناس,,أولاد عين الناس,02,,,36.1570842,0.9428761,exact,osm,osm,"{""osm"":""7778783887""}",castle
284,البيايض,,البيايض,02,,,36.1750361,1.0104464,exact,osm,osm,"{""osm"":""7778783985""}",castle
285,السهايلية,,السهايلية,02,,,36.1674177,0.9258083,exact,osm,osm,"{""osm"":""7778783885""}",castle
286,سخاريف,Skharif,سخاريف,02,,,36.1017066,0.9483852,exact,osm,osm,"{""osm"":""7778783886""}",castle
287,عين العزلة,,عين العزلة,02,,,36.2206095,0.9549582,exact,osm,osm,"{""osm"":""7472265185""}",castle
288,Fort Bouscaren,,,03,,,33.8034368,2.8802413,exact,osm,osm,"{""osm"":""42693121""}",castle
289,Ksar,,قصر عين ماضي,03,,,33.7938532,2.300943,exact,osm,osm,"{""osm"":""405891354""}",castle
29,Roman arch,,,05,,,35.4795662,6.2718491,exact,osm,osm,"{""osm"":""1261247163""}",archaeological_site
290,Palais de Kourdane,palais de Kourdane,قصر كوردان,03,,,33.8497,2.34049,exact,osm,osm,,castle
291,راس بنادم,,,03,,,32.9993535,2.8605599,exact,osm,osm,"{""osm"":""12705996101""}",castle
292,Château,Château,القبة,04,,,35.8787548,7.116255,exact,osm,osm,"{""osm"":""310446941""}",castle
293,اقلفن,,اقلفن,05,,,35.0742671,6.0222573,exact,osm,osm,"{""osm"":""5020286272""}",castle
294,الجدة جوهرة بن منصور,Nana djohra benmansour,الجدة جوهرة بن منصور,05,,,35.6697723,5.6490469,exact,osm,osm,"{""osm"":""5080748822""}",castle
295,حدود أملاك لخضر بن علي علاوة,Fin de la propriété de Lakhdar Ben Ali Allaoua,حدود أملاك لخضر بن علي علاوة,05,,,35.1276534,6.4367762,exact,osm,osm,"{""osm"":""6710739885""}",castle
296,رأس السراء كيمل تكوت,,رأس السراء كيمل تكوت,05,,,35.0799265,6.4018848,exact,osm,osm,"{""osm"":""6668792989""}",castle
297,قاعة حفلات الزفاف طبنة,,قاعة حفلات الزفاف طبنة,05,,,35.582181,6.1944315,exact,osm,osm,"{""osm"":""5844039385""}",castle
298,قلعة ايقلفن,,قلعة ايقلفن,05,,,35.0791259,6.0174061,exact,osm,osm,"{""osm"":""552216176""}",castle
299,قلعة بالول,,قلعة بالول,05,,,35.0923068,6.064984,exact,osm,osm,"{""osm"":""552216174""}",castle
3,Arsenaria,Arsenaria,,02,,,36.3310278,0.8528333,exact,osm,osm,,archaeological_site
30,Ruines Romaines de Timgad,Ruines Romaines de Timgad,الآثار الرومانية تيمقاد,05,,,35.4837052,6.4670134,exact,osm,osm,"{""osm"":""331768105""}",archaeological_site
300,هازمال,,هازمال,05,,,35.097301,6.0518114,exact,osm,osm,"{""osm"":""5020349494""}",castle
301,هاليليث,,هاليليث,05,,,35.0747157,5.9942827,exact,osm,osm,"{""osm"":""5331940624""}",castle
302,هيطرومكث,,هيطرومكث,05,,,35.0848993,6.0281814,exact,osm,osm,"{""osm"":""5020286273""}",castle
303,Bordj Moussa,Bordj Moussa,برج موسى,06,,,36.7551096,5.0836546,exact,osm,osm,"{""osm"":""338116028""}",castle
304,Fort Lemercier,Fort Lemercier,حصن يما قورايا,06,,,36.7663501,5.0682968,exact,osm,osm,"{""osm"":""5089539019""}",castle
305,La comtesse,,,06,,,36.6449015,5.2091517,exact,osm,osm,"{""osm"":""4578229792""}",castle
306,Yemma Gouraya,Yemma Gouraya,يما قورايا,06,,,36.7707745,5.0812886,exact,osm,osm,"{""osm"":""309222600""}",castle
307,Ramzi,Ramzi,,07,,,34.6911358,6.5061664,exact,osm,osm,"{""osm"":""7134194885""}",castle
308,بوووزال,,بوووزال,07,,,35.0291707,6.0069169,exact,osm,osm,"{""osm"":""5020349624""}",castle
309,فدعنان,,فدعنان,07,,,35.0222299,6.0150922,exact,osm,osm,"{""osm"":""5020349625""}",castle
31,Ruines romaines de Diana Veteranorum,,,05,,,35.7797772,6.0746127,exact,osm,osm,"{""osm"":""188544755""}",archaeological_site
310,هاقرنين,,هاقرنين,07,,,35.0410566,5.9803866,exact,osm,osm,"{""osm"":""5331940625""}",castle
311,هاقليحث,,هاقليحث,07,,,35.0186459,6.0427734,exact,osm,osm,"{""osm"":""4697184797""}",castle
312,Bordj Flye Sainte Marie,,,08,,,27.319878,-2.9839002,exact,osm,osm,"{""osm"":""504811761""}",castle
313,Bordj Arak,,,11,,,25.2926518,3.7481752,exact,osm,osm,"{""osm"":""562083262""}",castle
314,مكان,,,11,,,22.9793908,6.0106289,exact,osm,osm,"{""osm"":""8825725719""}",castle
315,النجم الثاقب تبسة,L'étoile filante Tebessa,النجم الثاقب تبسة,12,,,35.4033789,8.1217254,exact,osm,osm,"{""osm"":""4582086790""}",castle
316,النسر الذهبي,L'Aigle d'Or,النسر الذهبي,12,,,35.4012833,8.1173771,exact,osm,osm,"{""osm"":""4274571091""}",castle
317,باب كاركلا تبسة,Porte CARACALLA Tebessa,باب كاركلا تبسة,12,,,35.4046685,8.1230636,exact,osm,osm,"{""osm"":""2682856138""}",castle
318,Belkessakis,Belkessakis,,13,,,35.0455863,-1.3808166,exact,osm,osm,"{""osm"":""5787745157""}",castle
319,Medersa KHALDOUNIA -المدرسة الخلدونية -ⵎⴷⴰⵔⵙⴰ ⵜⴰⵅⴰⵍⴷⵓⵏⵉⵜ,Medersa Khaldounia,,13,,,34.8776621,-1.289783,exact,osm,osm,"{""osm"":""518138599""}",castle
32,Ruins of an ancient village,,,05,,,35.0553308,6.1715447,exact,osm,osm,"{""osm"":""13760817401""}",archaeological_site
320,Palais Royale Zianide - القصر الملكي الزياني -ⵜⴰⴳⴰⴷⵉⵔⵜ ⵜⴰⴳⴻⵍⴷⴰⵏⵜ ⵜⴰⵣⵢⵢⴰⵏⵉⵜ,Palais Royale Zianide,القصر الملكي الزياني,13,,,34.8816047,-1.3090274,exact,osm,osm,"{""osm"":""14571675""}",castle
321,Palais du Sultan قصر السلطان ⵜⴰⴳⴰⴷⵉⵔⵜ ⵏ ⵙⵓⵍⵟⴰⵏ,Palais du Sultan,قصر السلطان,13,,,34.8781505,-1.2897724,exact,osm,osm,"{""osm"":""518138602""}",castle
322,Palais el-Mechouar,Palais el-Mechouar,قصر المشور,13,,,34.8809396,-1.3088585,exact,osm,osm,"{""osm"":""100273033""}",castle
323,حصن هنين,Forteresse de Honaïne,حصن هنين,13,,,35.1743139,-1.6562682,exact,osm,osm,"{""osm"":""920587913""}",castle
324,Base,,قاعة,15,,,36.5533927,4.2807392,exact,osm,osm,"{""osm"":""5042422021""}",castle
325,Bordj Turc,Bordj Turc,البرج التركي,15,,,36.7090062,4.0473276,exact,osm,osm,"{""osm"":""370226262""}",castle
326,Mécanicien makouda,,,15,,,36.781897,4.069894,exact,osm,osm,"{""osm"":""6578143185""}",castle
327,château d'eau,,,15,,,36.6568593,4.3929687,exact,osm,osm,"{""osm"":""632279595""}",castle
328,Al Hambra Palace,,,16,,,36.7849147,3.059471,exact,osm,osm,"{""osm"":""11925037601""}",castle
329,Bordj Moulay Hassen برج مولاي حسن,Fort de Moulay Hassen,برج مولاي حسن,16,,,36.7736868,3.045979,exact,osm,osm,"{""osm"":""17972296""}",castle
33,Terma este,,,05,,,35.4855246,6.4703077,exact,osm,osm,"{""osm"":""1104422391""}",archaeological_site
330,Chateau,,,16,,,36.7476751,3.0440189,exact,osm,osm,"{""osm"":""5134771322""}",castle
331,Château de Draria,,,16,,,36.7301201,2.9962332,exact,osm,osm,"{""osm"":""3317692""}",castle
332,Dar Ahmed Pacha,,دار أحمد باشا,16,,,36.7858984,3.0614463,exact,osm,osm,"{""osm"":""1267569904""}",castle
333,Ex-Palais du Oukil El Hardj القصر السابق لوكيل الحرج,Ex-Palais du Oukil El Hardj,القصر السابق لوكيل الحرج,16,,,36.7866966,3.0679921,exact,osm,osm,"{""osm"":""431479271""}",castle
334,Le Vieux Palais,,,16,,,36.7861525,3.061475,exact,osm,osm,"{""osm"":""17680960""}",castle
335,Musée National du Bardo,Musée Public National du Bardo,المتحف الوطني باردو,16,,,36.7603824,3.0463803,exact,osm,osm,"{""osm"":""18668624""}",castle
336,Palais Mustapha Pacha قصر مصطفى باشا,Palais Mustapha Pacha,قصر مصطفى باشا,16,,,36.7570903,3.0482966,exact,osm,osm,"{""osm"":""537418651""}",castle
337,Palais du Peuple,,,16,,,36.7589351,3.0461118,exact,osm,osm,"{""osm"":""273506719""}",castle
338,Sidi Fredj,,,16,,,36.764235,2.846914,exact,osm,osm,"{""osm"":""268696772""}",castle
339,Villa Abdelatif,Villa Abdelatif,دار عبد اللطيف,16,,,36.7447485,3.0731079,exact,osm,osm,"{""osm"":""273321488""}",castle
34,Theatre,Téâtre,,05,,,35.4841709,6.4688551,exact,osm,osm,"{""osm"":""7948637499""}",archaeological_site
340,دار الحمراء,,,16,,,36.7874546,3.062233,exact,osm,osm,"{""osm"":""11925189575""}",castle
341,دار حسن باشا,Dar Hassan Pacha,دار حسن باشا,16,,,36.7852564,3.0609196,exact,osm,osm,"{""osm"":""20325219""}",castle
342,قصر الداي,Palais du Dey,قصر الداي,16,,,36.7845463,3.055111,exact,osm,osm,"{""osm"":""11931096136""}",castle
343,قصر رياس البحر,Palais Côtier du Raïs,قصر رياس البحر,16,,,36.7882833,3.0639774,exact,osm,osm,"{""osm"":""6724867""}",castle
344,Fort Duquesne,,,18,,,36.8192168,5.7727747,exact,osm,osm,"{""osm"":""437738331""}",castle
345,منزل لورغي,Maison Lourghi,منزل لورغي,18,,,36.8332334,5.9860307,exact,osm,osm,"{""osm"":""5214720121""}",castle
346,el yasmine,,,19,,,36.1482686,5.453056,exact,osm,osm,"{""osm"":""4370204864""}",castle
347,Djeladjel Hamid,Djeladjel Hamid,,20,,,34.8353833,0.1523435,exact,osm,osm,"{""osm"":""4517689090""}",castle
348,BELGAHRI.Sebti,BELGAHRI.Sebti,,21,,,36.5989653,6.8993685,exact,osm,osm,"{""osm"":""4463085589""}",castle
349,Dar,Dar,,21,,,36.6287515,6.6330909,exact,osm,osm,"{""osm"":""4872871021""}",castle
35,Triumphal Arch of Lambaesis,,,05,,,35.4912551,6.2586398,exact,osm,osm,"{""osm"":""1261226926""}",archaeological_site
350,Palais Meriem (Chateau Bengana),,,21,,,36.8865648,6.8971381,exact,osm,osm,"{""osm"":""352694110""}",castle
351,Chateau Perrin,,,22,,,35.1896666,-0.6788162,exact,osm,osm,"{""osm"":""219390764""}",castle
352,Dar,Dar,,25,,,36.3136454,6.6162393,exact,osm,osm,"{""osm"":""7258949585""}",castle
353,Palais du Bey,Palais du Bey,قصر الباي,25,,,36.3678005,6.6115537,exact,osm,osm,"{""osm"":""312325317""}",castle
354,Cité zagheloul f,,,27,,,35.9197968,0.0906989,exact,osm,osm,"{""osm"":""6950569986""}",castle
355,Fort Turc,,برج الترك,27,,,35.9342815,0.0964291,exact,osm,osm,"{""osm"":""502644165""}",castle
356,خربات,,خربات,27,,,36.3308681,0.6920339,exact,osm,osm,"{""osm"":""5427651521""}",castle
357,مؤسسة جنة العارف,Fondation Djanet el Arif,مؤسسة جنة العارف,27,,,35.9153242,0.1121484,exact,osm,osm,"{""osm"":""7119229990""}",castle
358,منارة رأس ويليس,Minaret raas wilis,منارة رأس ويليس,27,,,36.1127893,0.2268674,exact,osm,osm,"{""osm"":""4475736293""}",castle
359,Kalaat Beni Hamad,,قلعة بني حماد,28,,,35.821211,4.7894058,exact,osm,osm,"{""osm"":""381561430""}",castle
36,Triumphal arch,Porte du Faubourg Ouest,,05,,,35.4864562,6.4639555,exact,osm,osm,"{""osm"":""5434165275""}",archaeological_site
360,قصر البحيرة,,قصر البحيرة,28,,,35.8227582,4.7903358,exact,osm,osm,"{""osm"":""379893552""}",castle
361,Bordj Chandez,,,30,,,31.9569143,5.3274599,exact,osm,osm,"{""osm"":""12934420""}",castle
362,Fort Lallemand,,,30,,,31.2918545,6.3255279,exact,osm,osm,"{""osm"":""7292598""}",castle
363,الدار الكبيرة,La Grande maison,الدار الكبيرة,30,,,31.9360466,5.3264218,exact,osm,osm,"{""osm"":""6407323785""}",castle
364,Batterie du Santon,,,31,,,35.7339019,-0.7133996,exact,osm,osm,"{""osm"":""2281948464""}",castle
365,Fort Lamoune,Fort Lamoune,,31,,,35.7135806,-0.6567056,exact,osm,osm,"{""osm"":""2281944455""}",castle
366,Fort Lamoune,Fort Lamoune,,31,,,35.710561,-0.6600183,exact,osm,osm,"{""osm"":""6443228509""}",castle
367,Fort Saint André,,,31,,,35.6983069,-0.6528448,exact,osm,osm,"{""osm"":""375391065""}",castle
368,Fort Santa Cruz,,,31,,,35.7092243,-0.6650461,exact,osm,osm,"{""osm"":""12433045874""}",castle
369,Fort Santiago,,,31,,,35.7054619,-0.6601113,exact,osm,osm,"{""osm"":""12433004674""}",castle
37,temple,,,05,,,35.4787194,6.2700386,exact,osm,osm,"{""osm"":""1261252371""}",archaeological_site
370,Fort Santon,,,31,,,35.7347208,-0.7119058,exact,osm,osm,"{""osm"":""303777154""}",castle
371,Fort lamoune,,,31,,,35.7136209,-0.6565389,exact,osm,osm,"{""osm"":""687380273""}",castle
372,Palais du Bey,Palais du Bey,قصر الباي,31,,,35.7057262,-0.6493408,exact,osm,osm,"{""osm"":""368993774""}",castle
373,Salle des fêtes,Salle des fêtes,,31,,,35.6986023,-0.6183262,exact,osm,osm,"{""osm"":""5666324922""}",castle
374,Villa Abed Tlamsani,Villa Abed Tlamsani,,31,,,35.6262178,-0.518231,exact,osm,osm,"{""osm"":""4471986489""}",castle
375,porte canastel,,,31,,,35.7051765,-0.6525222,exact,osm,osm,"{""osm"":""6442577464""}",castle
376,قلعة المرسى الكبير,Fort de Mers el-Kébir,,31,,,35.7375872,-0.6993826,exact,osm,osm,"{""osm"":""9248254171""}",castle
377,تلي أحمد,,تلي أحمد,32,,,33.0886228,0.9715208,exact,osm,osm,"{""osm"":""10564950810""}",castle
378,جلاجل احمد,,جلاجل احمد,32,,,33.6776514,1.0158747,exact,osm,osm,"{""osm"":""10564950210""}",castle
379,Fort Flatters,,,33,,,28.1041748,6.8116218,exact,osm,osm,"{""osm"":""18273000""}",castle
38,Muslubium,Muslubium,,06,,,36.636739,5.246097,exact,osm,osm,,archaeological_site
380,Fort d'Issendjel,,,33,,,26.8614645,8.7245902,exact,osm,osm,"{""osm"":""4947235132""}",castle
381,قلعة سليمان شايدي,,قلعة سليمان شايدي,34,,,35.9433909,5.0395927,exact,osm,osm,"{""osm"":""5875416285""}",castle
382,château fort,château fort,شطوفور,35,,,36.920216,3.9009205,exact,osm,osm,"{""osm"":""5106056423""}",castle
383,Fort d'El Kala;قلعة القالة,Fort d'El Kala,قلعة القالة,36,,,36.8942873,8.4436487,exact,osm,osm,"{""osm"":""460216566""}",castle
384,توفة,Toufa,توفة,36,,,36.7922572,8.1521677,exact,osm,osm,"{""osm"":""5194540723""}",castle
385,قاعدة الشهيد هداد,,,37,,,27.1752791,-8.0251845,exact,osm,osm,"{""osm"":""10136173319""}",castle
386,Khatraoui,Khatraoui,,39,,,33.4801359,6.9080181,exact,osm,osm,"{""osm"":""4758637321""}",castle
387,طالب العربي,Taleb Larbi,طالب العربي,39,,,33.728056,7.5112722,exact,osm,osm,"{""osm"":""5295782121""}",castle
388,مقبرة جبانه 1,Ancien cimetière el Jadida,مقبرة جبانه 1,39,,,33.5606591,6.9508129,exact,osm,osm,"{""osm"":""5230863522""}",castle
389,مقبره جبانه 2,Nouveau cimetière el Jadida,مقبره جبانه 2,39,,,33.5606388,6.9510224,exact,osm,osm,"{""osm"":""5230863523""}",castle
39,Saldae,Saldae,صالداي,06,,,36.75,5.066667,exact,osm,osm,,archaeological_site
390,منزل النوار شبيلي,Chebili Nouar,شبيلي النوار,41,,,35.916256,7.3736124,exact,osm,osm,"{""osm"":""7105854686""}",castle
391,EPW-EREPEV,EPW-EREPEV,,42,,,36.5911702,2.4484866,exact,osm,osm,"{""osm"":""5359519922""}",castle
392,El basatine البساتين,Bassatine,El basatine البساتين,42,,,36.6382133,2.7728083,exact,osm,osm,"{""osm"":""3446626351""}",castle
393,Les RAYA,Les RAYA,,42,,,36.6737366,2.7724523,exact,osm,osm,"{""osm"":""11411745369""}",castle
394,Atrouz,,,43,,,36.5222177,5.8653503,exact,osm,osm,"{""osm"":""4263062193""}",castle
395,Palais de l'Agha,,,43,,,36.406933,5.9438728,exact,osm,osm,"{""osm"":""1810055742""}",castle
396,cite militaire chelghoum fat,,cite militaire chelghoum fat,43,,,36.1712267,6.1779717,exact,osm,osm,"{""osm"":""4571831389""}",castle
397,Mosquée Oqba ibn Nafi,Mosquée Oqba ibn Nafi,مسجد عقبة بن نافع,47,,,32.7888852,4.4917908,exact,osm,osm,"{""osm"":""9895442419""}",castle
398,Père de famille mekellache,Père de famille mekellache,,48,,,35.7540534,0.5762923,exact,osm,osm,"{""osm"":""5552890322""}",castle
399,أغلاد,Aghlad,أغلاد,49,,,29.3703894,0.1801181,exact,osm,osm,"{""osm"":""3909335949""}",castle
4,Former French Army military camp المعسكر العسكري السابق للجيش الفرنسي,,المعسكر العسكري السابق للجيش الفرنسي,02,,,36.4713574,1.2494142,exact,osm,osm,"{""osm"":""339657931""}",archaeological_site
40,Tiklat,,تخلاث,06,,,36.6557824,4.8384377,exact,osm,osm,"{""osm"":""4592906446""}",archaeological_site
400,قصبة الشيخ بوحص,Kasbah de Cheikh Bouhaous,,49,,,28.6739767,0.351644,exact,osm,osm,"{""osm"":""1361477347""}",castle
401,Fort Laouni,,,54,,,20.3422447,5.6735486,exact,osm,osm,"{""osm"":""920536213""}",castle
402,Ancien Bordj d'In Ezzane,,,56,,,23.4854695,11.2427087,exact,osm,osm,"{""osm"":""503803282""}",castle
403,قلعة جانت Fort Charlet,Fort Charlet,قلعة جانت,56,,,24.5513064,9.483956,exact,osm,osm,"{""osm"":""503806002""}",castle
404,La citadelle (Taourit),La citadelle,القصر القديم,58,,,30.5828488,2.8935483,exact,osm,osm,"{""osm"":""247401256""}",castle
405,شاطو,Château,شاطو,58,,,30.5792732,2.8741314,exact,osm,osm,"{""osm"":""4137874095""}",castle
406,Fort Cavaignac,,,68,,,35.2140513,4.1789099,exact,osm,osm,"{""osm"":""378905958""}",castle
407,المركز الثقافي أحمد عياد المدعو رويشد,Centre Culturel Ahmed Ayad,المركز الثقافي أحمد عياد المدعو رويشد,16,,,36.7679861,3.0302058,exact,osm,osm,"{""osm"":""1471813533""}",church
408,El Mechouar Mosque,mosquée d'El Mechouar,مسجد المشور,13,,,34.8805561,-1.3094603,exact,osm,osm,,church_building
409,Holy Trinity Anglican Church (Algiers),église anglicane de la Sainte-Trinité d'Alger,الكنيسة أنجليكية في الجزائر,16,,,36.7577,3.04603,exact,osm,osm,,church_building
41,Gemellae,,,07,,,34.6365778,5.5228759,exact,osm,osm,"{""osm"":""265150071""}",archaeological_site
410,église Saint-Louis d'Oran,église Saint-Louis d'Oran,,31,,,35.702788,-0.649256,exact,osm,osm,,church_building
411,Saint Cyprien Church,,,36,,,36.8974,8.4443,exact,osm,osm,,church_building
412,"Church of Saint-Joseph, El Menia",église Saint-Joseph à El Menia,,58,,,30.6144444,2.8730556,exact,osm,osm,,church_building
413,Petra Mlakou Castle,château de Petra Maklou,قلعة بيترا ملاكو,06,,,36.5208,4.6249,exact,osm,osm,,château
414,بوابة المدينة,Porte de ville,بوابة المدينة,01,,,26.9598573,1.0878861,exact,osm,osm,"{""osm"":""3034676033""}",city_gate
415,"Bab el Bahr, باب البحر",Bab el Bahr,باب البحر,02,,,36.5010204,1.3144454,exact,osm,osm,"{""osm"":""13438512785""}",city_gate
416,شقة,,,02,,,36.1916669,1.3469988,exact,osm,osm,"{""osm"":""12908636301""}",city_gate
417,Porte Fouka,Porte Fouka,باب الفوقا,06,,,36.759426,5.0880995,exact,osm,osm,"{""osm"":""4085601879""}",city_gate
418,Porte Fouka,Porte Fouka,باب الفوقا,06,,,36.7549671,5.0812591,exact,osm,osm,"{""osm"":""4105146508""}",city_gate
419,Porte dorée,Porte Sarasine,باب البحر,06,,,36.7533417,5.0874479,exact,osm,osm,"{""osm"":""327665926""}",city_gate
42,سيدي قاسم,,,07,,,34.6524,5.4720345,exact,osm,osm,"{""osm"":""950160742""}",archaeological_site
420,Porte Bab Essebt,Porte Bab Essebt,باب السبت,09,,,36.472735,2.8247938,exact,osm,osm,"{""osm"":""5842526090""}",city_gate
421,Bab Bou Saâda,,باب بوسعادة,10,,,36.1422004,3.6902244,exact,osm,osm,"{""osm"":""353289630""}",city_gate
422,Bab El Ghourte,,,10,,,36.1459292,3.6925019,exact,osm,osm,"{""osm"":""353289629""}",city_gate
423,باب الجزائر,Bab Dzair,باب الجزائر,10,,,36.1526653,3.6906435,exact,osm,osm,"{""osm"":""353290806""}",city_gate
424,Bab El Kermadine,Bab El Kermadine,باب القرمادين,13,,,34.886335,-1.316456,exact,osm,osm,"{""osm"":""389066898""}",city_gate
425,Bab El Khemis,Bab El Khemis,باب الخميس,13,,,34.8740841,-1.324843,exact,osm,osm,"{""osm"":""1083837135""}",city_gate
426,Porte Sidi Bou Médine,,,13,,,34.8824381,-1.3053956,exact,osm,osm,"{""osm"":""13167999415""}",city_gate
427,Bab El Oued,Bab El Oued,باب الوادي,16,,,36.7889612,3.0614358,exact,osm,osm,"{""osm"":""6361253088""}",city_gate
428,Beb Azzoun,Beb Azzoun,باب عزون,16,,,36.7811966,3.0609765,exact,osm,osm,"{""osm"":""6361253085""}",city_gate
429,Beb El Bhar,Beb El Bhar,باب البحر,16,,,36.784662,3.0628992,exact,osm,osm,"{""osm"":""6361253090""}",city_gate
43,Gravures rupestre,,,08,,,30.8033876,-2.0569638,exact,osm,osm,"{""osm"":""393869213""}",archaeological_site
430,Porte de Dzira باب دزيرة,Porte de Dzira,باب دزيرة,16,,,36.7863793,3.0653442,exact,osm,osm,"{""osm"":""1292590132""}",city_gate
431,البورطاي,le portail,البورطاي,16,,,36.7200602,3.1247708,exact,osm,osm,"{""osm"":""7445238366""}",city_gate
432,باب جديد,Bab Jdid,باب جديد,16,,,36.7838667,3.0547355,exact,osm,osm,"{""osm"":""1311808063""}",city_gate
433,Former Northern Gate,,,19,,,36.3238033,5.7332861,exact,osm,osm,"{""osm"":""17772701""}",city_gate
434,Bab Csantina,,,21,,,36.8762381,6.9097024,exact,osm,osm,"{""osm"":""3523360365""}",city_gate
435,BAB AZI,,باب عزي,30,,,31.9692998,5.3254537,exact,osm,osm,"{""osm"":""4332300693""}",city_gate
436,BAB OMAR,,باب عمر,30,,,31.9682176,5.3243573,exact,osm,osm,"{""osm"":""4332320439""}",city_gate
437,Tagourt El Borj,,,34,,,36.2990669,4.5832413,exact,osm,osm,"{""osm"":""4261069295""}",city_gate
438,Tagourt Goudrar,,,34,,,36.2933962,4.583224,exact,osm,osm,"{""osm"":""4261122305""}",city_gate
439,Tagourt Ou Aji,,,34,,,36.2937444,4.5762848,exact,osm,osm,"{""osm"":""4261118476""}",city_gate
44,Important Archeological Site,,,11,,,24.6662077,6.7393974,exact,osm,osm,"{""osm"":""827672870""}",archaeological_site
440,Tagourt n' Taassast,,,34,,,36.299622,4.5776682,exact,osm,osm,"{""osm"":""4261092659""}",city_gate
441,باب الخراجة,Bab el-Kheradja,,47,,,32.476409,3.745846,exact,osm,osm,"{""osm"":""9655683495""}",city_gate
442,باب السلام وعيسى,Porte Salam ouaissa,باب السلام وعيسى,47,,,32.4903373,3.6756266,exact,osm,osm,"{""osm"":""2715827237""}",city_gate
443,باب العسة,Bab el-Assa,,47,,,32.4742161,3.7437671,exact,osm,osm,"{""osm"":""9655738730""}",city_gate
444,باب باعلي وأعمر,Bab Baali,,47,,,32.473271,3.7477453,exact,osm,osm,"{""osm"":""9655729493""}",city_gate
445,باب بن صالح,Bab Ben Salah,,47,,,32.4738084,3.7477645,exact,osm,osm,"{""osm"":""9655671568""}",city_gate
446,باب جديد,Bab Jedid,باب جديد,47,,,32.4892302,3.6702142,exact,osm,osm,"{""osm"":""2715827232""}",city_gate
447,باب لالة وسارة,Bab Lalla ou Sara,,47,,,32.4755654,3.7437835,exact,osm,osm,"{""osm"":""9655676272""}",city_gate
448,La muraille de Sour El Ghozlane,,,10,,,36.1436593,3.6889741,exact,osm,osm,"{""osm"":""171405399""}",citywalls
449,La muraille de Sour El Ghozlane,,,10,,,36.1460975,3.6878211,exact,osm,osm,"{""osm"":""171405413""}",citywalls
45,Tebessa Basilica,basilique Sainte-Crispine,,12,,,35.4091033,8.1269163,exact,osm,osm,,archaeological_site
450,La muraille de Sour El Ghozlane,,,10,,,36.1466115,3.6929195,exact,osm,osm,"{""osm"":""353289628""}",citywalls
451,La muraille de Sour El Ghozlane,,,10,,,36.1440097,3.6913908,exact,osm,osm,"{""osm"":""353289631""}",citywalls
452,La muraille de Sour El Ghozlane,,,10,,,36.1459816,3.6927163,exact,osm,osm,"{""osm"":""353290804""}",citywalls
453,جدار تاريخي,Mur historique,جدار تاريخي,13,,,35.1012726,-1.8565745,exact,osm,osm,"{""osm"":""93233529""}",citywalls
454,Fort Tarat,,,33,,,26.135896,9.3505679,exact,osm,osm,"{""osm"":""1355021877""}",citywalls
455,Les remparts de Miliana,Les remparts de Miliana,سور مليانة,44,,,36.3039183,2.2241165,exact,osm,osm,"{""osm"":""253048569""}",citywalls
456,Muraille de Miliana,,,44,,,36.303433,2.2188782,exact,osm,osm,"{""osm"":""253047810""}",citywalls
457,Muraille de Miliana,,,44,,,36.3045684,2.2195558,exact,osm,osm,"{""osm"":""314984181""}",citywalls
458,Ville de Blida مدينة البليدة,Ville de Blida,مدينة البليدة,09,,,36.4712586,2.8274575,exact,osm,osm,"{""osm"":""1330602170""}",district
459,مدينة ميلة القديمة Vieille ville de Mila,Vieille ville de Mila,مدينة ميلة القديمة,43,,,36.4508566,6.2730922,exact,osm,osm,"{""osm"":""1452322892""}",district
46,Theveste,Theveste,تيفست,12,,,35.4,8.1166667,exact,osm,osm,,archaeological_site
460,Ksar,,,01,,,28.4409473,-0.0830547,exact,osm,osm,"{""osm"":""1361465354""}",fort
461,Ksar,,,01,,,27.4183717,-0.2630125,exact,osm,osm,"{""osm"":""1363846376""}",fort
462,Ksar القصر,Ksar,القصر,01,,,27.4043807,-0.186191,exact,osm,osm,"{""osm"":""1363830187""}",fort
463,Ksar القصر,Ksar,القصر,01,,,27.4266968,-0.2479125,exact,osm,osm,"{""osm"":""1363846375""}",fort
464,Ksar القصر,Ksar,القصر,01,,,27.6486513,-0.2060681,exact,osm,osm,"{""osm"":""1364194175""}",fort
465,Sidi Issa Ksar,,,01,,,27.0150987,1.0263157,exact,osm,osm,"{""osm"":""1361147600""}",fort
466,Borj Bel Cadi,Fort de Bel Cadi,,05,,,35.5454222,6.178024,exact,osm,osm,"{""osm"":""12471532370""}",fort
467,Fort Sidi Abdelkader,,حصن سيدي عبد القادر,06,,,36.7533699,5.0905523,exact,osm,osm,"{""osm"":""410828027""}",fort
468,BATTERIE HALQ EL OUED (Toppana Halq El Oued),,,16,,,36.7368972,3.1304395,exact,osm,osm,"{""osm"":""7399902351""}",fort
469,Bordj de Tamentfoust برج تامنفوست,Forte de Tamentfoust,برج تامنفوست,16,,,36.8072435,3.2307435,exact,osm,osm,"{""osm"":""4083823""}",fort
47,كاتدرائية تبسة,Basilique de Theveste,كاتدرائية تبسة,12,,,35.4091898,8.1269042,exact,osm,osm,"{""osm"":""209282323""}",archaeological_site
470,الحصن العثماني,Fort de Kiffan,الحصن العثماني,16,,,36.7489498,3.1879781,exact,osm,osm,"{""osm"":""350485933""}",fort
471,tabana,,,31,,,35.8580275,-0.451716,exact,osm,osm,"{""osm"":""9135666608""}",fort
472,Bordj el Mey,,,39,,,32.1121813,6.9499111,exact,osm,osm,"{""osm"":""8332284644""}",fort
473,Fort de Bir Beressof,,,39,,,32.538339,7.9596063,exact,osm,osm,"{""osm"":""8332254313""}",fort
474,Fort Joinville,Fort Joinville,,42,,,36.6113755,2.1879502,exact,osm,osm,"{""osm"":""459865264""}",fort
475,Fort Mac Mahon,Fort Mac Mahon,,52,,,29.7582024,1.6217497,exact,osm,osm,"{""osm"":""8332176030""}",fort
476,Aïn Guettara,,,53,,,28.1074445,3.1766186,exact,osm,osm,"{""osm"":""1135683954""}",fort
477,Serouenout,,سروينت,56,,,24.3051697,7.4710691,exact,osm,osm,"{""osm"":""4038718967""}",fort
478,Bordj Delion,,,58,,,29.8087667,3.7481919,exact,osm,osm,"{""osm"":""8332235562""}",fort
479,Fort Inifel,,,58,,,29.8061049,3.7528932,exact,osm,osm,"{""osm"":""8332237136""}",fort
48,معبد منيرفا,Temple de Minerve,معبد منيرفا,12,,,35.4046516,8.1224865,exact,osm,osm,"{""osm"":""262617548""}",archaeological_site
480,قصر ملك سليمان,,,69,,,32.2068917,0.3603908,exact,osm,osm,"{""osm"":""1361287980""}",fort
481,Fort Miribel,Fort Miribel,,58,,,29.432863,3.000512,exact,osm,osm,,fortification
482,Casbah de Béjaïa,Casbah de Béjaïa,قصبة بجاية,06,,,36.7513238,5.0838949,exact,osm,osm,"{""osm"":""327666118""}",fortress
483,قصر القنادسة,Ksar de Kenadsa,قصر القنادسة,08,,,31.5560873,-2.4391512,exact,osm,osm,"{""osm"":""318824596""}",heritage
484,Agouni n'Souk,,,15,,,36.8368297,4.059394,exact,osm,osm,"{""osm"":""1323451253""}",heritage
485,La villa Sesini,,,16,,,36.7475746,3.064764,exact,osm,osm,"{""osm"":""273183546""}",heritage
486,جامع كتشاوة,Mosquée Ketchaoua,جامع كتشاوة,16,,,36.7850969,3.0607521,exact,osm,osm,"{""osm"":""267210976""}",heritage
487,Mosquée Abdallah Ibn Salam,Mosquée Abdallah Ibn Salam,مسجد عبد الله إبن سلام,31,,,35.7000197,-0.6500277,exact,osm,osm,"{""osm"":""237164994""}",heritage
488,Minaret de la mosquée Batha,,,44,,,36.3047665,2.2267814,exact,osm,osm,"{""osm"":""3137636550""}",heritage
489,Dar es Saber,,,21,,,36.83639,6.70556,exact,osm,osm,,house
49,Altava,Altava,ألطافا,13,,,34.8863889,-1.0247778,exact,osm,osm,,archaeological_site
490,Biblioteca,,,05,,,35.4855788,6.4689259,exact,osm,osm,"{""osm"":""1104059044""}",library
491,Théâtre en plein air ( CASIF),,,16,,,36.7631578,2.8414033,exact,osm,osm,"{""osm"":""1495799770""}",manor
492,Villa des Traités,,فيلا الإتفاقيات,16,,,36.7684322,3.0261876,exact,osm,osm,"{""osm"":""5395898986""}",manor
493,دار عزيزة,Dar Aziza,دار عزيزة,16,,,36.7850495,3.0614402,exact,osm,osm,"{""osm"":""17800447""}",manor
494,Monument,,,01,,,26.9728322,1.0779344,exact,osm,osm,"{""osm"":""832912949""}",memorial
495,Monument d'Aoulef,,,01,,,26.983906,1.0806002,exact,osm,osm,"{""osm"":""832683099""}",memorial
496,Bissa,Bissa,,02,,,36.4439793,1.461795,exact,osm,osm,"{""osm"":""1026310401""}",memorial
497,La Vierge de Ténès,La Vierge de Ténès,,02,,,36.50544,1.3056876,exact,osm,osm,"{""osm"":""366022649""}",memorial
498,MONUMENT DES MARTYRES,,,02,,,36.3914206,0.9048133,exact,osm,osm,"{""osm"":""5037769489""}",memorial
499,Phare de la pointe Colombi,,,02,,,36.4432821,0.9387772,exact,osm,osm,"{""osm"":""5715684359""}",memorial
5,French Army observation post مركز مراقبة للجيش الفرنسي,,مركز مراقبة للجيش الفرنسي,02,,,36.4853829,1.2838242,exact,osm,osm,"{""osm"":""1495651530""}",archaeological_site
50,Bab Rouah باب الرواح ⴱⴰⴱ ⵔⵡⴰⵃ,Bab Rouah,باب الرواح,13,,,34.8902299,-1.3024715,exact,osm,osm,"{""osm"":""5054964414""}",archaeological_site
500,"Stèle des Martyrs, نصب تذكاري",Stèle des Martyrs,نصب تذكاري,02,,,36.5084034,1.3087115,exact,osm,osm,"{""osm"":""3925486420""}",memorial
501,الحصان الأبيض,,الفرس البيضاء,04,,,35.7951897,7.3937509,exact,osm,osm,"{""osm"":""4293330798""}",memorial
502,عين الشهداء/نافورة,,عين الشهداء/نافورة,04,,,35.7928124,7.3959445,exact,osm,osm,"{""osm"":""4293410290""}",memorial
503,مقام الشهيد,,مقام الشهيد,05,,,35.6285953,5.9037277,exact,osm,osm,"{""osm"":""4424826792""}",memorial
504,مقبرة الشهداء,Cimetière des martyrs,مقبرة الشهداء,05,,,35.2196043,6.544419,exact,osm,osm,"{""osm"":""6668793095""}",memorial
505,Adjudant Arezki,Adjudant Arezki,,06,,,36.633973,4.8445786,exact,osm,osm,"{""osm"":""4049116002""}",memorial
506,Agna Wekkouch آقنا وكوش,Agna Wekkouch,آقنا وكوش,06,,,36.6048629,5.4009044,exact,osm,osm,"{""osm"":""5743534253""}",memorial
507,Algerian War Memorial,,,06,,,36.4925388,4.7356212,exact,osm,osm,"{""osm"":""13718432779""}",memorial
508,Bachir Amellah,Bachir Amellah,,06,,,36.5623073,4.8489062,exact,osm,osm,"{""osm"":""5371407245""}",memorial
509,Buste Manuel Teixeira Gomes,Buste Manuel Teixeira Gomes,,06,,,36.7530148,5.0854547,exact,osm,osm,"{""osm"":""4230260700""}",memorial
51,Mausolée de Sidi Abdellah lbaal,Mausolée de Sidi Abdellah lbaal,ضريح سيد عبد الله البعل,13,,,34.8754274,-1.2830427,exact,osm,osm,"{""osm"":""5054976164""}",archaeological_site
510,Cimetière,,,06,,,36.4983568,4.4698175,exact,osm,osm,"{""osm"":""4179743293""}",memorial
511,Cimetière Sidi-Djaber,,,06,,,36.6036342,5.2971168,exact,osm,osm,"{""osm"":""5682758525""}",memorial
512,Cimetière des martyrs,Cimetière des martyrs,مقبرة الشهداء,06,,,36.5833845,5.4109044,exact,osm,osm,"{""osm"":""4523124614""}",memorial
513,La croix,La croix,,06,,,36.6195015,4.6042808,exact,osm,osm,"{""osm"":""4383644524""}",memorial
514,Masjid Mihrab Ibn Toumert,Mihrab de la mosquée Ibn Toumert,محراب مسجد بن ثومرث,06,,,36.7135842,5.0205094,exact,osm,osm,"{""osm"":""4085380326""}",memorial
515,Monument Echahid,,مقام الشهيد,06,,,36.4913311,5.2778504,exact,osm,osm,"{""osm"":""9671162066""}",memorial
516,Monument Timezrit,,,06,,,36.6169006,4.774688,exact,osm,osm,"{""osm"":""4464101253""}",memorial
517,Monument aux martyrs,,نصب الشهداء,06,,,36.6686394,5.1569358,exact,osm,osm,"{""osm"":""5079916096""}",memorial
518,Monument aux martyrs نصب الشهداء,Monument aux martyrs,نصب الشهداء,06,,,36.549948,5.2793523,exact,osm,osm,"{""osm"":""4547958592""}",memorial
519,Monument des Martyrs,Monument des Martyrs,,06,,,36.5419486,4.6116829,exact,osm,osm,"{""osm"":""4061759502""}",memorial
52,Minaret d'Agadir صومعة أكادير ⵜⴰⴳⵔⵎⴰⵙ ⵏ ⴰⴳⴰⴷⵉⵔ,Minaret d'Agadir,صومعة أكادير,13,,,34.8894378,-1.3001143,exact,osm,osm,"{""osm"":""5047155902""}",archaeological_site
520,Monument des Martyrs,,,06,,,36.6387094,5.2483112,exact,osm,osm,"{""osm"":""6535084463""}",memorial
521,Mémorial des Martyrs,,نصب الشهداء,06,,,36.6045241,4.6382501,exact,osm,osm,"{""osm"":""2073917229""}",memorial
522,Mémorial des martyrs,,نصب الشهداء,06,,,36.6084318,4.6676405,exact,osm,osm,"{""osm"":""4040336328""}",memorial
523,Mémorial des martyrs Zuntar,Mémorial des martyrs Zuntar,النصب التذكاري للشهداء زونطار,06,,,36.5971469,4.6444661,exact,osm,osm,"{""osm"":""2465616457""}",memorial
524,PC 2 Wilaya III,,,06,,,36.6767352,4.6088686,exact,osm,osm,"{""osm"":""1427686966""}",memorial
525,PC Wilaya III,,,06,,,36.6643171,4.5681467,exact,osm,osm,"{""osm"":""12139948894""}",memorial
526,Place 8 Mai 1945,,,06,,,36.6427542,5.2391347,exact,osm,osm,"{""osm"":""690780735""}",memorial
527,Place Colonel Amirouche,,ساحة العقيد عميروش,06,,,36.463826,4.5360373,exact,osm,osm,"{""osm"":""1942791539""}",memorial
528,Si Mouhand,,,06,,,36.7535607,4.727529,exact,osm,osm,"{""osm"":""4070461066""}",memorial
529,Sidi Saɛdi,,,06,,,36.7523359,4.7265297,exact,osm,osm,"{""osm"":""4070461065""}",memorial
53,Ruines de Hammam Ghoula أثار حمام الغولة ⴰⵙⴻⴷⵍⵉ ⵃⴰⵎⴰⵎ ⵖⵓⵍⴰ,Ruines de Hammam Ghoula,أثار حمام الغولة,13,,,34.8894519,-1.2995943,exact,osm,osm,"{""osm"":""5047073073""}",archaeological_site
530,Statue Abdelkader Aïssaoui,Statue Abdelkader Aïssaoui,تمثال عبد القادر عيساوي,06,,,36.7529803,5.0773449,exact,osm,osm,"{""osm"":""4058986321""}",memorial
531,Stèle Matoub Lounès,,,06,,,36.6262795,5.3354341,exact,osm,osm,"{""osm"":""6500538655""}",memorial
532,Stèle des martyrs d'Ibakouren,Stèle des martyrs d'Ibakouren,مقام الشهيد,06,,,36.6630134,4.9338504,exact,osm,osm,"{""osm"":""4704201833""}",memorial
533,Stèle des requins,,لوحة القرش,06,,,36.6433113,5.2391481,exact,osm,osm,"{""osm"":""6481371309""}",memorial
534,Tombeau de la neige,Tombeau de la neige,,06,,,36.6934309,4.9363231,exact,osm,osm,"{""osm"":""5353539008""}",memorial
535,sidi abde el rahmane el akhdari,,,07,,,34.6126454,5.4923513,exact,osm,osm,"{""osm"":""385052312""}",memorial
536,سيدي رواق,,سيدي رواق,07,,,34.7358159,5.3867894,exact,osm,osm,"{""osm"":""3231160329""}",memorial
537,Mémorial du martyr,,,08,,,31.6127917,-2.2173423,exact,osm,osm,"{""osm"":""4339523545""}",memorial
538,monument,,,08,,,30.8652143,-2.0051335,exact,osm,osm,"{""osm"":""3968322890""}",memorial
539,monument,,,08,,,30.9104113,-2.0289634,exact,osm,osm,"{""osm"":""3968791317""}",memorial
54,Ruines de la mosquée de Mansourah -ⴰⵙⴻⴷⵍⵉ ⵏ ⵜⴰⵎⵣⴳⵉⴷⴰ ⵏ ⵎⴰⵏⵚⵓⵕⴰ,Ruines de la mosquée de Mansourah,أثار مسجد المنصورة,13,,,34.8708131,-1.3385844,exact,osm,osm,"{""osm"":""90639349""}",archaeological_site
540,نصب تذكاري الجنرال لوكلير,Monument du Général Leclerc,نصب تذكاري الجنرال لوكلير,08,,,32.1316594,-2.321957,exact,osm,osm,"{""osm"":""2188425748""}",memorial
541,Monument aux martyrs du 17 septembre 1956,,,09,,,36.4985444,2.8606204,exact,osm,osm,"{""osm"":""3670886404""}",memorial
542,Asebdad Lalla faḍma n sumer sculpture lalla fatma n'Soumer تمثيل لالة فاطمة نسومر,sculpture lalla fatma n'Soumer,تمثال لالة فاطمة نسومر,10,,,36.3782591,3.8989503,exact,osm,osm,"{""osm"":""581335515""}",memorial
543,Boto sima,Boto sima,,10,,,36.1418848,3.691012,exact,osm,osm,"{""osm"":""5392584223""}",memorial
544,Cimetière des martyrs,Cimetière des martyrs,,10,,,36.2524928,4.0425703,exact,osm,osm,"{""osm"":""4481694990""}",memorial
545,Martyres de Bouira,,,10,,,36.3800791,3.9008905,exact,osm,osm,"{""osm"":""654315649""}",memorial
546,Monument au Mort de IGHIL HAMAD,,,10,,,36.4039922,4.269561,exact,osm,osm,"{""osm"":""1212708357""}",memorial
547,Mémorial,,,10,,,36.3955598,3.9986648,exact,osm,osm,"{""osm"":""556031837""}",memorial
548,Mémorial des Martyrs,,,10,,,36.3215317,3.7456056,exact,osm,osm,"{""osm"":""565930794""}",memorial
549,Place des martyrs,,,10,,,36.2917858,3.6720019,exact,osm,osm,"{""osm"":""592732680""}",memorial
55,Tour de Ghemiss برج غميس ⴰⵙⵉⵔⵓ ⵏ ⴰⵖⵎⵉⵙ,Tour de Ghemiss,برج غميس,13,,,34.8904295,-1.2989941,exact,osm,osm,"{""osm"":""5043960145""}",archaeological_site
550,Sanctuaire des Martyrs,Sanctuaire des Martyrs,ملاذ الشهداء,10,,,36.422308,4.3456546,exact,osm,osm,"{""osm"":""2488835658""}",memorial
551,Stèle Commémorative,,,10,,,36.3733812,3.8920266,exact,osm,osm,"{""osm"":""551456902""}",memorial
552,monument des martyres نصب تذكاري للشهداء الثورة,,monument des martyres نصب تذكاري للشهداء الثورة,10,,,36.3615778,4.2004413,exact,osm,osm,"{""osm"":""4725638412""}",memorial
553,مقبرة,Cimetière,مقبرة,10,,,36.3871463,3.6351092,exact,osm,osm,"{""osm"":""6331394209""}",memorial
554,مقبرة الشهداء,Cimétière des Martyrs,مقبرة الشهداء,10,,,36.3920112,3.631714,exact,osm,osm,"{""osm"":""6331215787""}",memorial
555,Mémorial Seddiki Bouamama;نصب تذكاري للشهيد صديقي بوعمامة,Mémorial Seddiki Bouamama,نصب تذكاري للشهيد صديقي بوعمامة,11,,,22.7903721,5.5224369,exact,osm,osm,"{""osm"":""4807658321""}",memorial
556,Vol 6289 Air Algerie,,الخطوط الجوية الجزائرية الرحلة 6289,11,,,22.8323427,5.457637,exact,osm,osm,"{""osm"":""2687110662""}",memorial
557,ضريح قمامه سيدي,Mausolée Kamama Sidi,ضريح قمامه سيدي,11,,,23.5395369,5.0692134,exact,osm,osm,"{""osm"":""7775663485""}",memorial
558,تمثال مالك بن النبي,Statut Malek ben Nabi,تمثال مالك بن النبي,12,,,35.4028825,8.1160164,exact,osm,osm,"{""osm"":""4725470490""}",memorial
559,Monument aux anciens combattants,,,13,,,34.8671921,-1.3224485,exact,osm,osm,"{""osm"":""2153790326""}",memorial
56,ancienne mosquée Idriside d'Agadir المسجد الإدريسي العتيق لأكادير ⵜⴰⵎⵣⴳⵉⴷⴰ ⵜⵉⴷⵔⵉⵙⵉⵜ ⵜⴰⵇⴱⵓⵔⵜ ⵏ ⴰⴳⴰⴷⵉⵔ,ancienne mosquée Idriside d'Agadir,المسجد الإدريسي العتيق لأكادير,13,,,34.8891696,-1.3000779,exact,osm,osm,"{""osm"":""517804092""}",archaeological_site
560,Mémorial des Chouhada,,,13,,,34.8932554,-1.5230064,exact,osm,osm,"{""osm"":""923921385""}",memorial
561,العقيد لطفي,,العقيد لطفي,13,,,34.7976129,-1.8434953,exact,osm,osm,"{""osm"":""3103708237""}",memorial
562,تمثال عبد المؤمن بن علي,Statue Abd al-Moumen ibn Ali,تمثال عبد المؤمن بن علي,13,,,35.0128726,-1.7467931,exact,osm,osm,"{""osm"":""10103792650""}",memorial
563,مقام الشهيد,Maqam el Chahid,مقام الشهيد,13,,,34.9866468,-2.1101326,exact,osm,osm,"{""osm"":""4511246690""}",memorial
564,مقام الشهيد,,مقام الشهيد,14,,,35.0612338,1.0476248,exact,osm,osm,"{""osm"":""4469447989""}",memorial
565,Asebdad imeɣṛasen,,,15,,,36.5092439,4.1727356,exact,osm,osm,"{""osm"":""982156560""}",memorial
566,Asebdad n yimeɣṛasen,,,15,,,36.4924994,4.1367111,exact,osm,osm,"{""osm"":""1191188302""}",memorial
567,Baba Lḥaǧ,,بابا الحاج,15,,,36.5715774,4.2470416,exact,osm,osm,"{""osm"":""5035236580""}",memorial
568,CIMETIERE,Cimetière,,15,,,36.6222488,4.4697403,exact,osm,osm,"{""osm"":""2381152443""}",memorial
569,Carrefour du 20 Avril,,دوار 20 نيسان,15,,,36.7023761,4.0516515,exact,osm,osm,"{""osm"":""5546302041""}",memorial
57,أثار حمام الغولة,Ruines de Hammam Ghoula,أثار حمام الغولة,13,,,34.889569,-1.2995676,exact,osm,osm,"{""osm"":""517115321""}",archaeological_site
570,Echouhada,,,15,,,36.4811069,4.2958484,exact,osm,osm,"{""osm"":""5396382623""}",memorial
571,Eldjama الجامع,Eldjama,الجامع,15,,,36.5081047,4.018742,exact,osm,osm,"{""osm"":""6130844786""}",memorial
572,LSAS MATUB LWENAS -Fondation Matoub Lounes,,,15,,,36.6183333,4.1197055,exact,osm,osm,"{""osm"":""4286277995""}",memorial
573,La Bougie,,,15,,,36.713349,4.0383056,exact,osm,osm,"{""osm"":""723232585""}",memorial
574,MATOUB LOUNES,,,15,,,36.7700044,4.1752511,exact,osm,osm,"{""osm"":""2907347693""}",memorial
575,Maison Zamoum,,,15,,,36.5527224,4.0451216,exact,osm,osm,"{""osm"":""379894512""}",memorial
576,Martyres des Iflissen,,,15,,,36.8923126,4.1629436,exact,osm,osm,"{""osm"":""2277134010""}",memorial
577,Memorial Martyrs,,,15,,,36.6923001,4.5595291,exact,osm,osm,"{""osm"":""12752439558""}",memorial
578,Monument aux Martyrs,,,15,,,36.8009575,4.4594322,exact,osm,osm,"{""osm"":""2335470175""}",memorial
579,Monument aux Martyrs,,,15,,,36.8234621,4.4728057,exact,osm,osm,"{""osm"":""2335471847""}",memorial
58,Columnata,,,14,,,35.4585262,1.5283408,exact,osm,osm,"{""osm"":""4788656623""}",archaeological_site
580,Monument aux martyrs,,,15,,,36.482762,4.2875106,exact,osm,osm,"{""osm"":""5398568757""}",memorial
581,Monument des Martyrs,,,15,,,36.4940189,4.1959209,exact,osm,osm,"{""osm"":""11837637824""}",memorial
582,Mémorial aux Martyrs,Mémorial aux Martyrs,مقام الشهداء,15,,,36.7153143,4.0488242,exact,osm,osm,"{""osm"":""4326923482""}",memorial
583,Mémorial des Martyrs,,,15,,,36.8160905,4.3806397,exact,osm,osm,"{""osm"":""1192414109""}",memorial
584,Place Aissat Iddir ساحة عيسات إدير,Place Aissat Iddir,ساحة عيسات إدير,15,,,36.6815264,4.2876637,exact,osm,osm,"{""osm"":""425645201""}",memorial
585,Proclamation 1er Novembre 1945,,,15,,,36.5527322,4.045222,exact,osm,osm,"{""osm"":""3832451010""}",memorial
586,Qayus Tadart Tawrirt,,,15,,,36.5111248,4.405687,exact,osm,osm,"{""osm"":""2187652864""}",memorial
587,Stèle Ath Ouaneche,,,15,,,36.6482024,4.0448103,exact,osm,osm,"{""osm"":""368963959""}",memorial
588,Stèle commémorative,,,15,,,36.4888285,4.2810637,exact,osm,osm,"{""osm"":""5402510747""}",memorial
589,Stèle des Martyres,,,15,,,36.757111,4.1912052,exact,osm,osm,"{""osm"":""2907530112""}",memorial
59,Pyramide de Lejdar,,,14,,,35.1130363,1.2126857,exact,osm,osm,"{""osm"":""929762754""}",archaeological_site
590,Stèle des Martyres,,,15,,,36.7411434,4.1337124,exact,osm,osm,"{""osm"":""288485231""}",memorial
591,Stèle des Martyres,,,15,,,36.7301239,4.1261696,exact,osm,osm,"{""osm"":""289294352""}",memorial
592,Tajmaɛt n Taddert,,,15,,,36.5175057,4.4125427,exact,osm,osm,"{""osm"":""2187627069""}",memorial
593,Timenzit n Imjuhad n Tagemunt Azuz,,,15,,,36.6081334,4.108623,exact,osm,osm,"{""osm"":""514045217""}",memorial
594,Timoqvart n-chouhada,,,15,,,36.51686,4.2754994,exact,osm,osm,"{""osm"":""5396194053""}",memorial
595,Tizinkoucht,,,15,,,36.5137009,4.4087393,exact,osm,osm,"{""osm"":""2187611669""}",memorial
596,djama3 tkachout,,,15,,,36.8013956,4.2963978,exact,osm,osm,"{""osm"":""4123540889""}",memorial
597,monuments de chouhada n tala-tegana,,,15,,,36.7978908,4.2966242,exact,osm,osm,"{""osm"":""4123540989""}",memorial
598,أث موح لحاج,Ath mouh ou lhadj,أث موح لحاج,15,,,36.5108167,4.0230251,exact,osm,osm,"{""osm"":""6130844887""}",memorial
599,Attentat du 02 Mai 1962,,هجوم 2 ماي 1962,16,,,36.7661763,3.0585628,exact,osm,osm,"{""osm"":""2831433720""}",memorial
6,French Army observation post مركز مراقبة للجيش الفرنسي,,مركز مراقبة للجيش الفرنسي,02,,,36.4852148,1.2778745,exact,osm,osm,"{""osm"":""1495651534""}",archaeological_site
60,Pyramide de Lejdar,,,14,,,35.1097182,1.2071493,exact,osm,osm,"{""osm"":""3503394424""}",archaeological_site
600,Aziz,,Aziz,16,,,36.7134977,3.0850925,exact,osm,osm,"{""osm"":""3728583670""}",memorial
601,Beaux fraisiers,Beaux fraisiers,بوفريزي,16,,,36.785754,3.0309207,exact,osm,osm,"{""osm"":""4295732789""}",memorial
602,José de San Martin خوسيه دي سان مارتين,José de San Martin,خوسيه دي سان مارتين,16,,,36.7553815,3.0238533,exact,osm,osm,"{""osm"":""5640125932""}",memorial
603,Place Emiliano Zapata,,,16,,,36.7429465,3.0865878,exact,osm,osm,"{""osm"":""2402564578""}",memorial
604,Place des martyrs de Bab Ezzouar,,,16,,,36.7227275,3.1847857,exact,osm,osm,"{""osm"":""1231123187""}",memorial
605,Statue El Amir Abdelkader,Statue El Amir Abdelkader,تمثال الأمير عبد القادر,16,,,36.776243,3.0583838,exact,osm,osm,"{""osm"":""2760492858""}",memorial
606,TRC,,,16,,,36.671591,3.12545,exact,osm,osm,"{""osm"":""4357242918""}",memorial
607,plaque commémorative,,,16,,,36.7458875,3.0692224,exact,osm,osm,"{""osm"":""11365279975""}",memorial
608,sculpture de Josip Broz Tito,,,16,,,36.723241,3.1970819,exact,osm,osm,"{""osm"":""3240727076""}",memorial
609,مقر بلدية الحراش,APC el harrach,مقر بلدية الحراش,16,,,36.7207973,3.13716,exact,osm,osm,"{""osm"":""3109237710""}",memorial
61,Sidi Boubakeur,,,14,,,35.4506556,1.4711601,exact,osm,osm,"{""osm"":""4792258886""}",archaeological_site
610,نقطة الصفر كيلومتر,Point zéro,نقطة الصفر كيلومتر,16,,,36.7729332,3.0588406,exact,osm,osm,"{""osm"":""12142226626""}",memorial
611,مقبرة,Cimetière,مقبرة,17,,,34.5949825,3.0615069,exact,osm,osm,"{""osm"":""8103777720""}",memorial
612,Le Conjadeur,,,18,,,36.8248729,5.7676658,exact,osm,osm,"{""osm"":""2560377515""}",memorial
613,نصب القطار,Monument rail de train,نصب القطار,18,,,36.8088485,5.7849974,exact,osm,osm,"{""osm"":""2559088223""}",memorial
614,نصب و مبنى,Stèle et bâtiment,نصب و مبنى,18,,,36.7690209,5.8974931,exact,osm,osm,"{""osm"":""4513762792""}",memorial
615,Christian basilica,,,19,,,36.3186723,5.7376525,exact,osm,osm,"{""osm"":""2198143614""}",memorial
616,Makam El Chahid,,,19,,,36.1809842,5.3979496,exact,osm,osm,"{""osm"":""1969995663""}",memorial
617,Place des martyres,,ساحة الشهداء,19,,,36.3333906,5.182608,exact,osm,osm,"{""osm"":""394609805""}",memorial
618,Rond-point Messaoud Zegar,Rond-point Messaoud Zegar,,19,,,36.1501208,5.7024762,exact,osm,osm,"{""osm"":""4547803906""}",memorial
619,سطيف,Setif,سطيف,19,,,36.1961031,5.4062449,exact,osm,osm,"{""osm"":""1962627839""}",memorial
62,Abri sous roche Ifri N’Dellal,Abri sous roche Ifri N’Dellal,,15,,,36.677114,4.424161,exact,osm,osm,,archaeological_site
620,كتاب الشهيد,,كتاب الشهيد,19,,,36.2713145,5.1273676,exact,osm,osm,"{""osm"":""4457730292""}",memorial
621,نصب الشهداء,Monument aux Martyrs,نصب الشهداء,19,,,36.226485,5.3954543,exact,osm,osm,"{""osm"":""438524396""}",memorial
622,Ahmed Medeghri,,,20,,,34.8282688,0.1567588,exact,osm,osm,"{""osm"":""12466182381""}",memorial
623,l'obélisque de Jemmapes,,,21,,,36.7385327,7.1064353,exact,osm,osm,"{""osm"":""1120671433""}",memorial
624,Monument aux morts,,,22,,,35.1930629,-0.6345289,exact,osm,osm,"{""osm"":""2993985274""}",memorial
625,المقام الشهيد,,المقام الشهيد,22,,,34.9234653,-0.9542852,exact,osm,osm,"{""osm"":""437453271""}",memorial
626,8 Mai 1945,,,24,,,36.4617919,7.4235792,exact,osm,osm,"{""osm"":""3139475064""}",memorial
627,الرئيس هواري بومدين,Monument Houari Boumédiène,الرئيس هواري بومدين,24,,,36.4626627,7.4330567,exact,osm,osm,"{""osm"":""4571986990""}",memorial
628,مقام ازدياد المرحوم هواري بومدين,Lieu de naissance de feu Houari Boumédiène,,24,,,36.4777744,7.3290594,exact,osm,osm,"{""osm"":""7272595885""}",memorial
629,مقبرة الشهداء,,مقبرة الشهداء,24,,,36.3672297,7.528848,exact,osm,osm,"{""osm"":""4653453903""}",memorial
63,Semaa,,,15,,,36.8975716,4.156127,exact,osm,osm,"{""osm"":""2277162245""}",archaeological_site
630,Monument aux morts,,,25,,,36.2628465,6.6920107,exact,osm,osm,"{""osm"":""3779960576""}",memorial
631,مقام الشهيد,Makam Echahid,مقام الشهيد,25,,,36.2682471,6.4997967,exact,osm,osm,"{""osm"":""281891133""}",memorial
632,منزل قريني,Grini,منزل قريني,25,,,36.5610237,6.7359921,exact,osm,osm,"{""osm"":""4742507238""}",memorial
633,حي الشهيد قاسمي المنور,,حي الشهيد قاسمي المنور,26,,,36.2632825,3.0278935,exact,osm,osm,"{""osm"":""4727496690""}",memorial
634,معركة جبل موقورنو,,معركة جبل موقورنو,26,,,36.0704864,2.8364063,exact,osm,osm,"{""osm"":""3799555505""}",memorial
635,مقام الشهيد,sanctuaire Memorial,مقام الشهيد,26,,,36.2466171,2.9383656,exact,osm,osm,"{""osm"":""4541770897""}",memorial
636,Mémorial des Martyrs,,,27,,,35.9229245,0.1011987,exact,osm,osm,"{""osm"":""2187483707""}",memorial
637,Mémorial des martyrs,Mémorial des martyrs,,27,,,35.9306487,0.0976459,exact,osm,osm,"{""osm"":""4622198393""}",memorial
638,نصب تذكاري لشهداء الثورة,,نصب تذكاري لشهداء الثورة,27,,,36.244192,0.5358497,exact,osm,osm,"{""osm"":""4850375837""}",memorial
639,مربع الشهداء,,مربع الشهداء,28,,,35.7051814,4.5461706,exact,osm,osm,"{""osm"":""4784899963""}",memorial
64,Tisira Amara,,,15,,,36.902724,4.170465,exact,osm,osm,"{""osm"":""2277878324""}",archaeological_site
640,Dardara,,,29,,,35.263017,0.1592732,exact,osm,osm,"{""osm"":""1137790848""}",memorial
641,Stèle de l'Emir Abdelkader,,,29,,,35.3208998,0.3643044,exact,osm,osm,"{""osm"":""10605770059""}",memorial
642,الأمير عبد القادر,Émir Abdelkader,تمثال الأمير عبد القادر,29,,,35.3959398,0.1394627,exact,osm,osm,"{""osm"":""5025342421""}",memorial
643,تمثال الأمير عبد القادر,Statue de l’Émir Abdel Kader,تمثال الأمير عبد القادر,29,,,35.3947182,0.1408872,exact,osm,osm,"{""osm"":""5279184645""}",memorial
644,Berliet T100,,,30,,,31.7136783,6.0574992,exact,osm,osm,"{""osm"":""5413026959""}",memorial
645,Les halles centrales,Les halles centrales,,31,,,35.6787223,-0.6599798,exact,osm,osm,"{""osm"":""7697607586""}",memorial
646,Monument EL Chahid,,,31,,,35.7782602,-0.4334253,exact,osm,osm,"{""osm"":""4424707090""}",memorial
647,Monument aux martyrs;نصب تذكاري للشهداء,Monument aux martyrs,نصب تذكاري للشهداء,31,,,35.7840545,-0.4250306,exact,osm,osm,"{""osm"":""8808736695""}",memorial
648,Statue Zabana,,,31,,,35.7064982,-0.6291713,exact,osm,osm,"{""osm"":""3734575877""}",memorial
649,ساحة الامير عبد القادر,Place Émir Abdelkader,ساحة الامير عبد القادر,31,,,35.5730734,-0.8999122,exact,osm,osm,"{""osm"":""4947436925""}",memorial
65,Dra Zeg et Ter,,,16,,,36.7132877,3.6978978,exact,osm,osm,"{""osm"":""1410759469""}",archaeological_site
650,ساحة محمد خميستي,Place Khmisti Mohamed,ساحة محمد خميستي,31,,,35.8552223,-0.311265,exact,osm,osm,"{""osm"":""4111370390""}",memorial
651,مقام الشهداء,,,31,,,35.5181877,-0.4108474,exact,osm,osm,"{""osm"":""10035958543""}",memorial
652,Amoud;أمود,Amoud,أمود,33,,,26.502126,8.4777445,exact,osm,osm,"{""osm"":""3191490297""}",memorial
653,مقام الشهداء,,مقام الشهداء,34,,,36.0633063,4.6278783,exact,osm,osm,"{""osm"":""4209700722""}",memorial
654,مقام الشهيد,,مقام الشهيد,34,,,36.0718549,4.7631036,exact,osm,osm,"{""osm"":""4418030495""}",memorial
655,Mémorial aux martyrs de la révolution algérienne 1954-1962,,,35,,,36.7234662,3.6687503,exact,osm,osm,"{""osm"":""1420235456""}",memorial
656,مقام الشهيد,Mémorial des martyrs,مقام الشهيد,35,,,36.6307476,3.4390599,exact,osm,osm,"{""osm"":""7177404097""}",memorial
657,المقبرة,,المقبرة,36,,,36.8331186,8.1167051,exact,osm,osm,"{""osm"":""807917816""}",memorial
658,Arbre de St Augustin,Arbre de St Augustin,,41,,,36.2843664,7.9589344,exact,osm,osm,"{""osm"":""7272596085""}",memorial
659,Badji Mokhtar,,,41,,,36.2798074,7.938249,exact,osm,osm,"{""osm"":""3016002170""}",memorial
66,Rusguniae,Rusguniae,,16,,,36.799094,3.237893,exact,osm,osm,,archaeological_site
660,Monument Of Malek Elberkani,,,42,,,36.5709699,2.2931375,exact,osm,osm,"{""osm"":""1124394508""}",memorial
661,Monument aux Martyrs,,,42,,,36.5890895,2.1492091,exact,osm,osm,"{""osm"":""9945781914""}",memorial
662,Monument aux martyrs,,,42,,,36.437602,2.4961227,exact,osm,osm,"{""osm"":""4476750863""}",memorial
663,Monument du Martyr,,,42,,,36.573343,2.053154,exact,osm,osm,"{""osm"":""3150467037""}",memorial
664,Monument souidani boujemeaa نصب سويداني بوجمعة,Monument souidani boujemeaa,نصب سويداني بوجمعة,42,,,36.62818,2.7922535,exact,osm,osm,"{""osm"":""3777103022""}",memorial
665,Mémorial نصب تذكاري,,,42,,,36.4625867,2.2635658,exact,osm,osm,"{""osm"":""10889703064""}",memorial
666,Placette kissarli ساحة قيسارلي,Placette kissarli,ساحة قيسارلي,42,,,36.6392077,2.7680731,exact,osm,osm,"{""osm"":""3445064937""}",memorial
667,1954-1962,,,43,,,36.4238488,6.1190209,exact,osm,osm,"{""osm"":""240195845""}",memorial
668,Abdel Hafid Boussof,,,43,,,36.446826,6.2659573,exact,osm,osm,"{""osm"":""4337552791""}",memorial
669,Monument au Martyrs,,,43,,,36.4048614,5.9431304,exact,osm,osm,"{""osm"":""1810058693""}",memorial
67,الموقع الأثري لبقايا مسجد السيدة,"Le site archéologique des vestiges de la ""Mosquée El Sayyida""",الموقع الأثري لبقايا مسجد السيدة,16,,,36.7851413,3.0623352,exact,osm,osm,"{""osm"":""12133859819""}",archaeological_site
670,Mémorial,,,43,,,36.4313918,6.121656,exact,osm,osm,"{""osm"":""240196557""}",memorial
671,Mémorial au martyrs du 8 Mai 1956,,,43,,,36.4605057,6.0340496,exact,osm,osm,"{""osm"":""4325053581""}",memorial
672,Mémorial des Martyrs,,,43,,,36.4484547,6.2676006,exact,osm,osm,"{""osm"":""4337592039""}",memorial
673,Mémorial des martyrs,,,43,,,36.4572816,6.0449713,exact,osm,osm,"{""osm"":""4325056123""}",memorial
674,الجنود,,الجنود,43,,,36.3913605,6.1284676,exact,osm,osm,"{""osm"":""4620355992""}",memorial
675,الساعة,,الساعة,43,,,36.3934953,6.1292288,exact,osm,osm,"{""osm"":""4620311993""}",memorial
676,مقام الشهيد,,مقام الشهيد,43,,,36.3928258,6.1282108,exact,osm,osm,"{""osm"":""4620355190""}",memorial
677,مقبرة الشهداء,Cimetière des martyrs,مقبرة الشهداء,43,,,36.4002318,5.9283015,exact,osm,osm,"{""osm"":""4382575994""}",memorial
678,Magenta,,,44,,,36.3068655,2.2245773,exact,osm,osm,"{""osm"":""3809349016""}",memorial
679,Mohamed Bouras fondateur des Scouts musulmans algériens,,محمد بوراس مؤسس الكشافة الجزائرية,44,,,36.3074117,2.2272172,exact,osm,osm,"{""osm"":""3302353100""}",memorial
68,"مدينة الجزائر العتيقة ""إيكوسيم""",,"مدينة الجزائر العتيقة ""إيكوسيم""",16,,,36.7847679,3.0617809,exact,osm,osm,"{""osm"":""1291554593""}",archaeological_site
680,Monument aux martyrs,,,44,,,36.1557803,2.1541651,exact,osm,osm,"{""osm"":""2139543610""}",memorial
681,Mémorial de la Bataille de Beni Bouamrane نصب تذكاري معركة بني بوعمران,,نصب تذكاري معركة بني بوعمران,44,,,36.3964244,2.2475788,exact,osm,osm,"{""osm"":""10991629922""}",memorial
682,Monument des Martyrs,,نصب الشهداء,46,,,35.2328937,-1.5042313,exact,osm,osm,"{""osm"":""3174756998""}",memorial
683,القصر القديم,Le Vieux Ksar,القصر القديم,47,,,32.2700819,3.633351,exact,osm,osm,"{""osm"":""3639673802""}",memorial
684,حجرة جحا,La chambre de Juha,حجرة جحا,47,,,32.9998514,4.5338277,exact,osm,osm,"{""osm"":""3621497774""}",memorial
685,مقام الشيخ أبو عبدالله محمد بن بكر بن أبي بكر بن يوسف الفرسطائي النفوسي,Mausolée du Cheikh Abou Abdallah Mohamed bin Bekr,,47,,,32.4800082,3.7464809,exact,osm,osm,"{""osm"":""1050739412""}",memorial
686,Place de la résistance,Place de la résistance,,48,,,35.7437297,0.5558152,exact,osm,osm,"{""osm"":""4498983691""}",memorial
687,Trari Bakhadda,Trari Bakhadda,,48,,,35.7535496,0.5757562,exact,osm,osm,"{""osm"":""4523421090""}",memorial
688,مقبرت الشهداء,,,48,,,35.7729744,1.202175,exact,osm,osm,"{""osm"":""4643215375""}",memorial
689,مقام الشهيد,,مقام الشهيد,50,,,21.3303312,0.9506713,exact,osm,osm,"{""osm"":""5646997523""}",memorial
69,Igilgili,Igilgili,إيجلجيلي,18,,,36.8220833,5.7664444,exact,osm,osm,,archaeological_site
690,منصب تذكاري باجي مختار,,منصب تذكاري باجي مختار,50,,,21.3336339,0.9577569,exact,osm,osm,"{""osm"":""5646924425""}",memorial
691,ضريح خالد بن سنان,mausolée Khaled Ben Sinan,ضريح خالد بن سنان,51,,,34.3861185,5.0107636,exact,osm,osm,"{""osm"":""315219717""}",memorial
692,قبر حيزية,Tombe haizia,قبر حيزية,51,,,34.3872691,5.0107199,exact,osm,osm,"{""osm"":""3253350081""}",memorial
693,monument des martyres,,,52,,,30.1202749,-2.1803315,exact,osm,osm,"{""osm"":""4010160389""}",memorial
694,شيخ عبد القادر الجيلالي,Abd al Qadir al-Jilani,شيخ عبد القادر الجيلالي,53,,,27.1938112,2.4751463,exact,osm,osm,"{""osm"":""4858502046""}",memorial
695,براشمة,Brachma,براشمة,57,,,34.1750477,5.8076155,exact,osm,osm,"{""osm"":""6536624685""}",memorial
696,Colonne Lieutenant  Collot,,,58,,,29.4313945,3.00061,exact,osm,osm,"{""osm"":""8332308565""}",memorial
697,حاسي السوق,Puis de marché,حاسي السوق,58,,,30.5818946,2.8830027,exact,osm,osm,"{""osm"":""2550016876""}",memorial
698,شارع الشهيد شباطي,,شارع الشهيد شباطي,60,,,35.1169106,5.175711,exact,osm,osm,"{""osm"":""4907358624""}",memorial
699,تذكار شهداء معتقل كمورا,mémorial de carré de morts (camora),تذكار شهداء معتقل كمورا,67,,,35.8913898,2.7287619,exact,osm,osm,"{""osm"":""4381915490""}",memorial
7,The Dome el goba القبة,,القبة,02,,,36.4863444,1.2761913,exact,osm,osm,"{""osm"":""1495651535""}",archaeological_site
70,Ain Boucherit,Aïn Boucherit,عين بوشريط,19,,,36.200833,5.650278,exact,osm,osm,,archaeological_site
700,مقام الشهيد,,مقام الشهيد,67,,,35.8267647,2.4558813,exact,osm,osm,"{""osm"":""452692560""}",memorial
701,Monument des martyrs,,,68,,,34.9973362,4.1023538,exact,osm,osm,"{""osm"":""3888692308""}",memorial
702,Zaafrania (Poste de commandemant Wilaya VI),,,68,,,35.009251,4.3989629,exact,osm,osm,"{""osm"":""3762117383""}",memorial
703,نصب للشهداء,Memorial aux martyres,نصب للشهداء,68,,,35.2137067,4.1812098,exact,osm,osm,"{""osm"":""4565727496""}",memorial
704,الياقوتة,,الياقوتة,69,,,32.8939566,0.5456093,exact,osm,osm,"{""osm"":""4689297089""}",memorial
705,وسط المدينة,,وسط المدينة,69,,,32.8971206,0.5456347,exact,osm,osm,"{""osm"":""4689296989""}",memorial
706,pk 0,,,53,,,27.6781006,2.4122829,exact,osm,osm,"{""osm"":""4358357139""}",milestone
707,Bastion 18,Banque Exterieure d'Algerie,,13,,,34.8774331,-1.3141566,exact,osm,osm,"{""osm"":""11681474400""}",military
708,Mines de Ghar Rouban,Mines de Ghar Rouban,,13,,,34.5954656,-1.7723047,exact,osm,osm,"{""osm"":""305952431""}",mine
709,زاوية الشيخ الكنتي,Zaouiet Cheikh Kounta,زاوية الشيخ الكنتي,01,,,27.2293532,-0.1944822,exact,osm,osm,"{""osm"":""332201669""}",monument
71,Ain El Ahnech,Aïn El Ahnech,عين لحنش,19,,,36.2038889,5.6527778,exact,osm,osm,,archaeological_site
710,ساحة الشهداء رقان,Place des Martyrs,ساحة الشهداء رقان,01,,,26.7188767,0.1713983,exact,osm,osm,"{""osm"":""4428780896""}",monument
711,مسجد خالد بن الوليد,Masdjid,مسجد خالد بن الوليد,01,,,28.3990037,-0.2399203,exact,osm,osm,"{""osm"":""5599303621""}",monument
712,Monument martyr Karzazi,,,02,,,36.0658567,1.1265326,exact,osm,osm,"{""osm"":""401803859""}",monument
713,Sidi Aissa,Sidi Aissa,,02,,,36.2303456,0.8828764,exact,osm,osm,"{""osm"":""291936361""}",monument
714,ساحة حسيبة بن بوعلي,Place Hassiba Benbouali,ساحة حسيبة بن بوعلي,02,,,36.1664856,1.3394508,exact,osm,osm,"{""osm"":""4581680198""}",monument
715,HR001,,,03,,,32.9320144,3.2691909,exact,osm,osm,"{""osm"":""1145621674""}",monument
716,باب القصر,,باب القصر,03,,,33.7893525,3.1459793,exact,osm,osm,"{""osm"":""4345161289""}",monument
717,نصب تذكاري خَيل فانتازيا,,نصب تذكاري خَيل فانتازيا,03,,,33.8811449,2.5279502,exact,osm,osm,"{""osm"":""4333710491""}",monument
718,نصب شهداء الثورة,,نصب شهداء الثورة,04,,,35.8688809,7.1121189,exact,osm,osm,"{""osm"":""3163873521""}",monument
