id,name,wilaya_code,commune_code,commune,lat,lng,geo_precision,geo_method,source,type,temperature_c,debit_l_s,altitude_m,minerality
1,FORAGE DAR OUAD,43,,BENI H'MIDENE,36.4625,6.4827778,exact,asal,asal,forage,32,15,423,BICARBONATEE CALCIQUE
10,SIDI SAID,02,,BOUKADIR,36.016467,1.196496,exact,asal,asal,source,24,0.13,235,BICARBONATEE CALCIQUE
100,HASSI EL KHFIF,55,,NGOUSSA,32.438263,5.356984,exact,asal,asal,source,53,120,105,CHLORUREE ET SULFATEE SODIQUE
101,EL DJAR 01,51,,FOUGHALA,34.413611,5.034528,exact,asal,asal,source,52.7,40,194,CHLORUREE ET SULFATEE SODIQUE ET CALCIQUE
102,HEMOUNA,02,,OULED BEN ABDELKADER,36.031062,1.27802,exact,asal,asal,source,22,0,164,CHLORUREE MAGNESIENNE
103,HAMMAM MALHA,48,,OUED ESSLEM,35.593015,0.897667,exact,asal,asal,hammam,28,7,495,CHLORUREE MAGNESIENNE
104,HAMMAM BENI YASSAAD,48,,MENDES,35.627617,0.97279,exact,asal,asal,hammam,30,6,530,CHLORUREE MAGNESIENNE
105,HAMMAM YAKHSAS,48,,SIDI KHATTAB,35.968489,0.515219,exact,asal,asal,hammam,38,5,40,CHLORUREE MAGNESIENNE
106,HAMMAM LABES,48,,SIDI KHATTAB,35.872406,0.591427,exact,asal,asal,hammam,38,4,41,CHLORUREE MAGNESIENNE
107,AIN EL GASRIA,48,,EL GUETTAR,36.064209,0.831126,exact,asal,asal,ain,38,4,429,CHLORUREE MAGNESIENNE
108,HAMMAM N'BAILS EL MINA,24,,HAMMAM N'BAILS,36.3257667,7.6450333,exact,asal,asal,hammam,42.2,6,457.2,CHLORUREE SODIQUE
109,HAMMAM DBEGH AIN CHEFFA,24,,HAMMAM DEBAGH,36.4605556,7.2694444,exact,asal,asal,hammam,71.5,12,274,CHLORUREE SODIQUE
11,AIN KADHI,02,,LABIODH MEDJADJA,36.265099,1.355854,exact,asal,asal,ain,22,0.12,522,BICARBONATEE CALCIQUE
110,HAMMAM DEBEGH BENADJI,24,,HAMMAM DEBEGH,36.4647222,7.2747222,exact,asal,asal,hammam,91,7,305,CHLORUREE SODIQUE
111,HAMMAM DEBEGH CASCADE,24,,HAMMAM DEBEGH,36.46,7.27,exact,asal,asal,hammam,95,25,303,CHLORUREE SODIQUE
112,HAMMAM DEBEGH CHEDAKHA,24,,HAMMAM DEBEGH,36.2127778,7.2677778,exact,asal,asal,hammam,97,25,342,CHLORUREE SODIQUE
113,HAMMAM SOKHNA,19,,HAMMAM SOKHNA,35.9836111,5.8108333,exact,asal,asal,hammam,45,35,900,CHLORUREE SODIQUE
114,DAMSSA,12,,TAOURA,36.0564194,8.1487167,exact,asal,asal,source,25,4,534,CHLORUREE SODIQUE
115,TESSA,41,,OUILEN,36.2186667,8.04415,exact,asal,asal,source,39.6,3,650,CHLORUREE SODIQUE
116,HAMMAM EL HALFA,10,,EL HACHEMIA,36.598611,3.590417,exact,asal,asal,hammam,1.1,62,600,CHLORUREE SODIQUE
117,"AIN EL KATTAR
 (EL CHAOUADRIA)",10,,EL HACHEMIA,36.598611,3.590417,exact,asal,asal,ain,0.8,25.6,821,CHLORUREE SODIQUE
118,HAMMAM SILLAL,06,,TIFRA,36.649776,4.672398,exact,asal,asal,hammam,47.3,5,330,CHLORUREE SODIQUE
119,HAMMAM SIDI YAHIA AL AIDLI,06,,BOUHAMZA,36.410643,4.588115,exact,asal,asal,hammam,45.8,3,245,CHLORUREE SODIQUE
12,AIN BOUZIANE,02,,LABIODH MEDJADJA,36.250356,1.3516,exact,asal,asal,ain,20,0.1,405,BICARBONATEE CALCIQUE
120,HAMMAM BEZZEZ,26,,SOUAGUI,36.086886,3.197763,exact,asal,asal,hammam,22,8,733,CHLORUREE SODIQUE
121,HAMMAM TOUAUSSA,26,,TABLAT,36.437157,3.287958,exact,asal,asal,hammam,21,1,500,CHLORUREE SODIQUE
122,HAMMAM M'NATEN,26,,ZOUBIRIA,36.04174,2.898663,exact,asal,asal,hammam,22,0.2,700,CHLORUREE SODIQUE
123,AIN EL MALHA,26,,OUED HARBIL,36.210472,2.648675,exact,asal,asal,ain,20,0.4,485,CHLORUREE SODIQUE
124,AOUINET EL BARAKA,09,,HAMMAM MELOUANE,36.483889,3.041944,exact,asal,asal,ain,32,0.9,213,CHLORUREE SODIQUE
125,MOUILHA,09,,L'ARBA,36.527222,3.176111,exact,asal,asal,source,24,0.7,174,CHLORUREE SODIQUE
126,TIHAMAMINE,09,,HAMMAM MELOUANE,36.488056,3.052778,exact,asal,asal,source,32,0.6,173,CHLORUREE SODIQUE
127,HAMMAM SERGUINE,14,,SERGUINE,35.293626,1.503981,exact,asal,asal,hammam,39,5,785,CHLORUREE SODIQUE
128,SID EL HADJ,14,,SIDI HOSNI,35.483848,1.476766,exact,asal,asal,source,21.6,0.5,676,CHLORUREE SODIQUE
129,HAMMAM CHIGUER,13,,HAMMAM BOUGHRARA,34.880759,-1.744685,exact,asal,asal,hammam,32,40,350,CHLORUREE SODIQUE
13,HAMMAM AISS EL KAMEL,44,,AIN LECHIEKH,36.076559,2.43146,exact,asal,asal,hammam,22,3,750,BICARBONATEE CALCIQUE
130,AIN EL HAMMAM,13,,AIN EL GHORABA,34.676979,-1.344578,exact,asal,asal,ain,26,10,835,CHLORUREE SODIQUE
131,HAMMAM SID ABDELI,13,,SIDI ABDELLI,35.075193,-1.149046,exact,asal,asal,hammam,34,10,365,CHLORUREE SODIQUE
132,SIDI RAHOU,13,,HENNAYA,34.920489,-1.386459,exact,asal,asal,source,24,1,518,CHLORUREE SODIQUE
133,AIN SIDI BERKABI,13,,SIDI ABDELLI,34.965573,-1.030071,exact,asal,asal,ain,22,0.1,475,CHLORUREE SODIQUE
134,AIN FRANIN,31,,BIR EL DJIR,35.764924,-0.520006,exact,asal,asal,ain,34.1,2.6,34,CHLORUREE SODIQUE
135,AIN MENTILA,38,,AMMI MOUSSA,35.78424,1.276966,exact,asal,asal,ain,30,6,420,CHLORUREE SODIQUE
136,HAMMAM ERROUDJET,48,,RAMKA,35.884023,1.317122,exact,asal,asal,hammam,35,5,625,CHLORUREE SODIQUE
137,AIN BAGRA,46,,HAMMAM BOUHDJER,35.359179,-0.967108,exact,asal,asal,ain,63,10,162,CHLORUREE SODIQUE
138,SIDI AYAD,46,,HAMMAM BOUHDJER,35.352154,-0.971728,exact,asal,asal,source,58,0.25,154,CHLORUREE SODIQUE
139,AIN OUARKA,69,,ASLA,32.728423,-0.152305,exact,asal,asal,ain,44.5,2.17,1011,CHLORUREE SODIQUE
14,HAMMAM GHRIB,44,,BIRBOUCHE,36.167702,2.465039,exact,asal,asal,hammam,22,2,414,BICARBONATEE CALCIQUE
140,HAMMAM CHAREF,17,,CHAREF,34.662705,2.853869,exact,asal,asal,hammam,42,25,1150,CHLORUREE SODIQUE
141,HAMMAM MESRANE,17,,HASSI BAHBAH,34.986687,3.058324,exact,asal,asal,hammam,51,15,850,CHLORUREE SODIQUE
142,HAMMAM EL BARAKA,38,,SIDI SLIMANE,35.866842,1.683682,exact,asal,asal,hammam,42,6,771,CHLORUREE SODIQUE
143,AIN CHIFAA,38,,SIDI SLIMANE,35.868992,1.688224,exact,asal,asal,ain,42,6,748,CHLORUREE SODIQUE
144,AIN KEHLA,53,,FOUGARET EZZOUA,27.393381,3.458185,exact,asal,asal,ain,0,28,355,CHLORUREE SODIQUE
145,HAMMAM SALHIN,07,,BISKRA,34.878397,5.674077,exact,asal,asal,hammam,43,30,116,CHLORUREE SODIQUE
146,HAMMAM CHEGGA,07,,OUMACHE,34.433717,5.915687,exact,asal,asal,hammam,22.2,0.02,19,CHLORUREE SODIQUE
147,EL BORMA,30,,EL BORMA,31.588403,9.168816,exact,asal,asal,source,40,80,239,CHLORUREE SODIQUE
148,GASSI TOUIL,30,,HASSI MESSAOUD,30.66034,6.525919,exact,asal,asal,source,50,100,188,CHLORUREE SODIQUE
149,HAI NASSER,30,,OUARGLA,31.974402,5.232434,exact,asal,asal,source,53,160,221,CHLORUREE SODIQUE
15,AIN KERMA,44,,AIN LECHIEKH,36.075241,2.445344,exact,asal,asal,ain,20,1,747,BICARBONATEE CALCIQUE
150,KHECHEM ERRIH GCA 0,55,,HASSI BEN ABDELLAH,32.307097,5.700746,exact,asal,asal,source,54,150,122,CHLORUREE SODIQUE
151,KHECHEM ERRIH,30,,HASSI BEN ABDELLAH,32.256438,5.6573,exact,asal,asal,source,52,250,130,CHLORUREE SODIQUE
152,SIDI MEHDI IV,55,,NEZLA,33.060161,6.108672,exact,asal,asal,source,56,200,82,CHLORUREE SODIQUE
153,HAMMAM DEHAMCHA,19,,DEHAMCHA,36.3412778,5.6166667,exact,asal,asal,hammam,28,180,742,CHLORUREE SODIQUE
154,HAMMAM NAKHLA,19,,RASFA,35.7327778,5.1675,exact,asal,asal,hammam,34.5,0.4,844,CHLORUREE SODIQUE ET BICARBONATE CALCIQUE
155,HAMMAM SISI EL HADJ,61,,EL OUTIA,35.100087,5.629255,exact,asal,asal,hammam,40.7,16,388,CHLORUREE SODIQUE ET CALCIQUE
156,AIN TAHMAMINT,13,,CHETOUANE,34.94607,-1.308288,exact,asal,asal,ain,32,2,365,CHLORUREE SODIQUE ET MAGNESIENNE
157,HAMMAM SIDI DJABALAH,36,,LAC DES OISEAUX,36.74,8.1544444,exact,asal,asal,hammam,37.2,0.8,306,"CHLORUREE SODIQUE, BICARBONATEE CALCIQUE"
158,HAMMAM MEXA,36,,BOUGOUS,36.7,8.39,exact,asal,asal,hammam,38,0.8,118,"CHLORUREE SODIQUE, BICARBONATEE CALCIQUE"
159,HAMMAM DELAA,28,,HAMMAM DELAA,35.600331,4.379515,exact,asal,asal,hammam,40,2,758,CHLORUREE SULFATEE CALCIQUE ET SODIQUE
16,ZEGHAGHA LAGHROUS,02,,TACHTA ZOUGAGHA,36.366652,1.629972,exact,asal,asal,source,21,0.12,754,BICARBONATEE CALCIQUE
160,BAKHLA,01,,BOUDA,28.010049,-0.448108,exact,asal,asal,source,27,3,238,CHLORUREE SULFATEE SODIQUE
161,HAMMAM OULED YELLES,19,,MEZLOUG,36.0638889,5.2488889,exact,asal,asal,hammam,43,0,920,EAU CHLORO-SULFATEE CALCIQUE RICHE EN MAGNESIUM ET SODIUM
162,SOURCE AIN TINN,43,,AIN TINN,36.3863889,6.3302778,exact,asal,asal,source,32,6,555,HYPER CHLORUREE CALCIQUE
163,SOURCE EL ABIAT,43,,FERDJIOUA,36.4536111,5.9180556,exact,asal,asal,source,37.1,15,494,HYPER CHLORUREE CALCIQUE
164,HAMMAM BENI HAROUN,18,,HAMALA,36.6016667,6.2836111,exact,asal,asal,hammam,42,43,88,HYPER CHLORUREE CALCIQUE
165,SOURCE AIN JRABE,04,,BABAR,35.9880556,7.0891667,exact,asal,asal,source,23,0,978,HYPER CHLORUREE CALCIQUE ET SULFATEE CALCIQUE
166,HAMMAM BENI GUECHA,43,,BENI GUECHA,36.4194444,5.9894444,exact,asal,asal,hammam,48.2,0.5,525,HYPER CHLORUREE ET SULFATEE CALCIQUE
167,HAMMAM OULED AISSA,43,,TELEGHEMA,36.1416667,6.33,exact,asal,asal,hammam,49,7,775,HYPER CHLORUREE ET SULFATEE CALCIQUE
168,FORAGE DACHRA MANSOURAH EL KEBIRA,34,,MANSOURAH,36.0683333,4.4611111,exact,asal,asal,forage,46,10,901,HYPER CHLORUREE SODIQUE
169,HAMMAM AIN EL DJRAB (OU AIN SIDI AHMED ),34,,M'HIR,36.1936111,4.3783333,exact,asal,asal,hammam,48,0.34,495,HYPER CHLORUREE SODIQUE
17,EL MEHADJEBIA BEN HAROUN,10,,DJEBAHIA,36.598611,3.590417,exact,asal,asal,source,2,20.5,394,BICARBONATEE CALCIQUE
170,HAMMAM IBAINEM,34,,EL MAINE,36.3725,4.7822222,exact,asal,asal,hammam,62,1.28,450,HYPER CHLORUREE SODIQUE
171,HAMMAM EL BIBAN,34,,M'HIR,36.1994444,4.39,exact,asal,asal,hammam,80,4,500,HYPER CHLORUREE SODIQUE
172,BOUTRIG,44,,EL ATTAF,36.214882,1.639666,exact,asal,asal,source,56,100,150,HYPER CHLORUREE SODIQUE
173,AIN SELLAMA,31,,MERS EL HADJAD,35.751918,-0.164701,exact,asal,asal,ain,24.5,3,83,HYPER CHLORUREE SODIQUE
174,AIN MADAGH,46,,AIN EL KERMA,35.635804,-1.04171,exact,asal,asal,ain,23.5,2,22,HYPER CHLORUREE SODIQUE
175,HAMMAM BOURIM,36,,CHIHANI,36.6133333,7.7966667,exact,asal,asal,hammam,35,1.5,39,"HYPER CHLORUREE SODIQUE, SULFATEE ET BICARBONATEE CALCIQUE"
176,AIN KARSA,44,,HAMMAM RIGHA,36.379789,2.40011,exact,asal,asal,ain,22,1.2,518,HYPER SULFATEE BICARBONATEE CALCIQUE
177,SOURCE AIN DJARIR,40,,BOUHMAMA,35.28,6.7888889,exact,asal,asal,source,33.4,4,1090,HYPER SULFATEE CALCIQUE
178,SOURCE KRIBSA,43,,OUED ENDJA,36.4783333,6.1086111,exact,asal,asal,source,27,1,218,HYPER SULFATEE CALCIQUE
179,HAMMAM GUERDA,43,,TIBERGUENT,36.385,6.0316667,exact,asal,asal,hammam,28.6,1,512,HYPER SULFATEE CALCIQUE
18,HAMMAM EL ANNASSER,67,,SIDI DAMED,35.857038,3.349361,exact,asal,asal,hammam,21,7,802,BICARBONATEE CALCIQUE
180,SOURCE OULED ELGHOUL,43,,TASSALA,36.5352778,6.0136111,exact,asal,asal,source,30,3,474,HYPER SULFATEE CALCIQUE
181,SOURCE OULED ACHOUR,43,,EL AYADI BARBES,36.4441667,5.8944444,exact,asal,asal,source,39.8,10,478,HYPER SULFATEE CALCIQUE
182,HAMMAM OULED BOU HAMA (ABDALAH),43,,MILA,36.3888889,6.1972222,exact,asal,asal,hammam,43,1.4,500,HYPER SULFATEE CALCIQUE
183,SOURCE GROUZ,43,,OUED ATHMANIA,36.2352778,6.2838889,exact,asal,asal,source,45,5,716,HYPER SULFATEE CALCIQUE
184,HAMMAM MAZZACHE,43,,TELEGHEMA,36.145,6.3261111,exact,asal,asal,hammam,47,8,787,HYPER SULFATEE CALCIQUE
185,HAMMAM TELEGHEMA,43,,TELEGHEMA,36.1433333,6.3277778,exact,asal,asal,hammam,49,10,777,HYPER SULFATEE CALCIQUE
186,HAMMAM FRERES CHAOUCHE,43,,TELEGHEMA,36.137,6.3318333,exact,asal,asal,hammam,49,30,778,HYPER SULFATEE CALCIQUE
187,HAMMAM OULED DJALI,43,,TELEGHEMA,36.1346111,6.3266667,exact,asal,asal,hammam,49,10,779,HYPER SULFATEE CALCIQUE
188,HAMMAM FRERES MENACER,43,,TELEGHEMA,36.1372222,6.3341667,exact,asal,asal,hammam,50,6,771,HYPER SULFATEE CALCIQUE
189,HAMMAM MINANA,43,,TELEGHEMA,36.1375,6.3336111,exact,asal,asal,hammam,50,18,772,HYPER SULFATEE CALCIQUE
19,HAMMAM MOULAY AHMED,26,,AISSAOUIA,36.416055,3.192916,exact,asal,asal,hammam,19.5,3,688,BICARBONATEE CALCIQUE
190,HAMMAM TOUALI,43,,TELEGHEMA,36.1397222,6.3255556,exact,asal,asal,hammam,0,50,766,HYPER SULFATEE CALCIQUE
191,HAMMAM ESSAFSSAF,43,,TELEGHEMA,36.1539167,6.3179111,exact,asal,asal,hammam,51,15,774,HYPER SULFATEE CALCIQUE
192,HAMMAM ETOUAMA,43,,AINE MELLOUK,36.2411111,6.19,exact,asal,asal,hammam,51,8,834,HYPER SULFATEE CALCIQUE
193,HAMMAM CHIFAA OUED ATHMANIA,43,,OUED ATHMANIA,36.2391667,6.2905556,exact,asal,asal,hammam,51,7,793,HYPER SULFATEE CALCIQUE
194,HAMMAM FARFOUR,21,,AZZABA,36.7213889,7.1450556,exact,asal,asal,hammam,35,1.5,146,HYPER SULFATEE CALCIQUE
195,HAMMAM SOUISSI ABDELMADJID,21,,AIN CHERCHAR,36.7203889,7.1804722,exact,asal,asal,hammam,38.6,0.5,94,HYPER SULFATEE CALCIQUE
196,HAMMAM ABDELMALEK MEZGHICHE,21,,BEN AZOUZ,36.7911111,7.2806389,exact,asal,asal,hammam,40.2,2.7,35.5,HYPER SULFATEE CALCIQUE
197,HAMMAM HADEF MILOUD,21,,BEN AZOUZ,36.796,7.2785556,exact,asal,asal,hammam,43,3.2,23,HYPER SULFATEE CALCIQUE
198,HAMMAM HADEF ABBES,21,,BEN AZOUZ,36.7976111,7.2763889,exact,asal,asal,hammam,45,3.5,30.3,HYPER SULFATEE CALCIQUE
199,HAMMAM EL SALHINE,21,,AZZABA,36.7207778,7.1800556,exact,asal,asal,hammam,48,2,109,HYPER SULFATEE CALCIQUE
2,HAMMAM BOUHACHANA BEN TAHER,24,,BOUHACHANA,36.3088889,7.5236111,exact,asal,asal,hammam,25,3,741.5,BICARBONATEE CALCIQUE
20,GROUG EL MIM,26,,AISSAOUIA,36.368753,3.237067,exact,asal,asal,source,20,1,612,BICARBONATEE CALCIQUE
200,HAMMAM RIGHA,44,,HAMMAM RIGHA,36.379553,2.388636,exact,asal,asal,hammam,68.5,7.3,584,HYPER SULFATEE CALCIQUE
201,AIN TOLBA,44,,HAMMAM RIGHA,36.373122,2.38718,exact,asal,asal,ain,36,2.8,510,HYPER SULFATEE CALCIQUE
202,SOURCE KARNIA,43,,TASSALA,36.5352778,5.9863889,exact,asal,asal,source,31.2,1.5,399,HYPER SULFATEE MAGNESIEN
203,BEN KAHLA,30,,OUARGLA,31.902689,5.238765,exact,asal,asal,source,50,120,212,NON ANALYSEE
204,BLIDET AMOR,55,,BLIDET AMOR,32.952001,5.990716,exact,asal,asal,source,53,200,80,NON ANALYSEE
205,EL HADJIRA,55,,EL HADJIRA,32.602645,5.5042,exact,asal,asal,source,55,127,141,NON ANALYSEE
206,DOUCEN,51,,DOUCEN,34.612111,5.082583,exact,asal,asal,source,50.4,30,165,SULFATE SODIQUE
207,EL GUEDDACHI2,55,,EL HADJIRA,32.582645,5.678898,exact,asal,asal,source,52,150,118,SULFATEE  CHLORUREE SODIQUE
208,EL HADEB,30,,ROUISSAT,31.925874,5.371443,exact,asal,asal,source,51,200,134,SULFATEE  CHLORUREE SODIQUE
209,SOURCE EL KOCHBI,05,,OULED SI SLIMANE,35.6051389,5.6689889,exact,asal,asal,source,29.9,5,813,SULFATEE CALCIQUE
21,HAMMAM AIN EL GUESSISS,26,,AISSAOUIA,36.418562,3.213154,exact,asal,asal,hammam,20,1,744,BICARBONATEE CALCIQUE
210,SOURCE GUERDJIMA,05,,GOSBATE,35.5334444,5.4787778,exact,asal,asal,source,41.6,1,647,SULFATEE CALCIQUE
211,FORAGE DE SAIDA,05,,N'GAOUS,35.5675139,5.5632222,exact,asal,asal,forage,63,13,694,SULFATEE CALCIQUE
212,FORAGE AOUINET EL KEBRIT,34,,EL EUCH,35.9530556,4.67,exact,asal,asal,forage,21,10,945,SULFATEE CALCIQUE
213,SOURCE NAKHLAT OULED CHBIL,34,,BENDAOUD,36.0925,4.2091667,exact,asal,asal,source,25,0.9,857,SULFATEE CALCIQUE
214,SOURCE ZERDANE,28,,BENDAOUD,36.0225,4.0838889,exact,asal,asal,source,25,0.85,973,SULFATEE CALCIQUE
215,SOURCE NAKHLET LAAREF (AIN BOU NOUEL),34,,BENDAOUD,36.0919444,4.1419444,exact,asal,asal,source,25,0.4,1097,SULFATEE CALCIQUE
216,HAMMAM OULED  ALI DEFLA,24,,HELIOPOLICE,36.575,7.3816667,exact,asal,asal,hammam,55.3,18.5,214,SULFATEE CALCIQUE
217,HAMMAM OULED ALI NAKHLA,24,,HELIOPOLICE,36.575,7.3811111,exact,asal,asal,hammam,55.7,25,212,SULFATEE CALCIQUE
218,HAMMAM OULED ALI NAKHLATEIN,24,,HELIOPOLICE,36.575,7.3808333,exact,asal,asal,hammam,55.7,20,212,SULFATEE CALCIQUE
219,HAMMAM GUERFA BELHACHANI,41,,AIN LARBI,36.2349833,7.3372167,exact,asal,asal,hammam,63,3,710.3,SULFATEE CALCIQUE
22,HAMMAM CHEBEIKA,26,,SOUAGUI,36.069064,3.221893,exact,asal,asal,hammam,19,0.5,861,BICARBONATEE CALCIQUE
220,HAMMAM GUERFA APC,24,,AIN LARBI,36.2463,7.3394333,exact,asal,asal,hammam,67,4,688.7,SULFATEE CALCIQUE
221,HAMMAM ASSALHINE,40,,EL HAMMA,35.4380278,7.0861944,exact,asal,asal,hammam,60.1,30,1086,SULFATEE CALCIQUE
222,HAMMAM GUERGOUR,19,,HAMMAM GUERGUOUR,36.3238889,5.0552778,exact,asal,asal,hammam,45,18,695,SULFATEE CALCIQUE
223,SOURCE OULED TEBBENE ex SIDI MANSOUR,19,,OULED TEBBENE,35.7894444,5.1255556,exact,asal,asal,source,50,25,1156,SULFATEE CALCIQUE
224,HAMMAM SIDI YAHIA BEN TALEB,12,,EL MERIDJ,35.9059722,8.2463889,exact,asal,asal,hammam,21,1,504,SULFATEE CALCIQUE
225,THELLAT,10,,AMMAL,36.598611,3.590417,exact,asal,asal,source,34,5.6,496,SULFATEE CALCIQUE
226,HAMMAM DJORDANI,67,,AIN BOUCIF,35.887686,3.168333,exact,asal,asal,hammam,20,0.3,1105,SULFATEE CALCIQUE
227,AIN SIDI CHARFE,29,,SIRAT,35.721596,0.1866,exact,asal,asal,ain,38,0.3,88,SULFATEE CALCIQUE
228,AIN BOUAAOKA,20,,AIN SKHOUNA,34.496671,0.851651,exact,asal,asal,ain,29.8,3,995,SULFATEE CALCIQUE
229,BELQUEBOR,33,,BORDJ OMAR IDRIS,28.663198,6.513355,exact,asal,asal,source,41,40,378,SULFATEE CALCIQUE
23,AIN HAMEDH,26,,SIDI NAAMANE,36.239642,3.054097,exact,asal,asal,ain,23,0.4,725,BICARBONATEE CALCIQUE
230,TABANKOURT,33,,BORDJ OMAR IDRIS,28.618445,7.086182,exact,asal,asal,source,44,20,405,SULFATEE CALCIQUE
231,ADJANDO,33,,ILLIZI,26.784741,8.835276,exact,asal,asal,source,43,15,591,SULFATEE CALCIQUE
232,DJERABAA,15,,SOUMAA,35.600331,4.655095,exact,asal,asal,source,24.7,1,420,SULFATEE CALCIQUE ET MAGNESIENNE
233,TAMARNA CHOUCHA,57,,SIDI AMRANE,33.45116,5.981411,exact,asal,asal,source,53,200,54,SULFATEE CALCIQUE ET SODIQUE
234,HAMMAM OULED TEBBENE BENAKRI RACHID,19,,OULED TEBBENE,35.7969444,5.1247222,exact,asal,asal,hammam,48.6,25,1172,SULFATEE CALCIQUE RICHE EN CHLOURES
235,SOUK DJAMAA,26,,SOUAGUI,36.112116,3.240591,exact,asal,asal,source,22,3,823,SULFATEE CARBONATEE
236,KNIF FORAGE,04,,BAGHAI,35.4883056,7.2516389,exact,asal,asal,source,52,8,1022,SULFATEE CHLORUREE CALCIQUE
237,SIDI MEHDI II,55,,NEZLA,33.056908,6.105643,exact,asal,asal,source,56,200,73,SULFATEE ET CHLORUREE SODIQUE
238,SOUK LARBAA,26,,BENI SLIMANE,36.264532,3.384797,exact,asal,asal,source,36,2,498,SULFATEE FERREE
239,BELARIBI,28,,M'SILA,35.827885,4.569129,exact,asal,asal,source,26.8,20,555,SULFATEE MAGNESIENNE  ET CALCIQUE
24,HAMMAM EL FRIOUA,67,,EL AOUINET,35.888611,3.112336,exact,asal,asal,hammam,20,0.3,1039,BICARBONATEE CALCIQUE
240,SOURCE BOUZANI,05,,OULED FADHEL,35.5480278,6.5874167,exact,asal,asal,source,19.9,0.5,995,SULFATEE SODIQUE
241,SOURCE BOUGHENDJA,05,,TIMGAD,35.5080833,6.5144167,exact,asal,asal,source,19.9,0.5,990,SULFATEE SODIQUE
242,SOURCE ZENZANE,34,,BENDAOUD,36.0816667,4.1963889,exact,asal,asal,source,25,0.4,857,SULFATEE SODIQUE
243,SOURCE OULJET OUKHLIFA,40,,KHEIRINE,34.9880556,6.7452778,exact,asal,asal,source,25,2,510,SULFATEE SODIQUE
244,SOURCE TAMARSSITE,40,,EL OULJA,35.0289444,6.75125,exact,asal,asal,source,29,6,656,SULFATEE SODIQUE
245,HAMMAM MED BELAKHDAR,26,,SOUAGUI,36.109911,3.247351,exact,asal,asal,hammam,22,4,841,SULFATEE SODIQUE
246,HAMMAM REBI,20,,OULED KHALED,34.929906,0.181914,exact,asal,asal,hammam,48,7,706,SULFATEE SODIQUE
247,HAMMAM SIDI AISSA,20,,SIDI AMAR,34.959211,0.16636,exact,asal,asal,hammam,48,7,630,SULFATEE SODIQUE
248,AIN SIDI BOUTAIBA,29,,MAMOUNIA,35.458237,0.146927,exact,asal,asal,ain,24,0.8,402,SULFATEE SODIQUE
249,AIN CHAFIA,29,,BOU-HENNI,35.6595,-0.0432778,exact,asal,asal,ain,38,20,31,SULFATEE SODIQUE
25,AIN EL DJRAB,09,,L'ARBA,36.551639,3.177122,exact,asal,asal,ain,24,0.6,250,BICARBONATEE CALCIQUE
250,ROKNET EL METHNAN,20,,ROGASSA,34.286982,0.967406,exact,asal,asal,source,30,7,985,SULFATEE SODIQUE
251,HAOUD TMER,30,,HASSI MESSAOUD,31.693595,5.816091,exact,asal,asal,source,54,80,160,SULFATEE SODIQUE
252,HAOUED EL AMER,30,,NGOUSSA,32.152642,5.232413,exact,asal,asal,source,55,118,185,SULFATEE SODIQUE
253,HASSI BEN ADELLAH III,30,,HASSI BEN ADELLAH,32.048223,5.504519,exact,asal,asal,source,52,200,150,SULFATEE SODIQUE
254,HASSI BEN ADELLAH IV,30,,HASSI BEN ADELLAH,31.997589,5.467977,exact,asal,asal,source,52,200,148,SULFATEE SODIQUE
255,HASSI BEN ADELLAH,30,,HASSI BEN ADELLAH,32.023104,5.466999,exact,asal,asal,source,52,200,135,SULFATEE SODIQUE
256,MEGGARINE,55,,MEGGARINE,33.189411,6.079664,exact,asal,asal,source,56,200,60,SULFATEE SODIQUE
257,ROUISSAT,30,,ROUISSAT,31.906993,5.377524,exact,asal,asal,source,53,200,0,SULFATEE SODIQUE
258,SIDI MEHDI III,55,,NEZLA,33.057634,6.103512,exact,asal,asal,source,56,250,75,SULFATEE SODIQUE
259,SIDI SLIMANE,55,,SIDI SLIMANE,33.281795,6.118318,exact,asal,asal,source,56,150,52,SULFATEE SODIQUE
26,AIN HAMMAM SIDI ALI,29,,HACHEM,35.393342,0.480196,exact,asal,asal,ain,28.5,0,433,BICARBONATEE CALCIQUE
260,TAIBET,55,,TAIBET,33.096115,6.379261,exact,asal,asal,source,62,200,105,SULFATEE SODIQUE
261,TIMACINE,55,,TIMACINE,32.99621,5.995374,exact,asal,asal,source,55,200,75,SULFATEE SODIQUE
262,HAMMAM CHINIGUEL,67,,CHENIGUEL,35.916331,3.598077,exact,asal,asal,hammam,22,0.4,743,SULFATEE SODIQUE
263,HAMMAM DIALEM,28,,OULED ADI LAGBALA,35.595833,4.843389,exact,asal,asal,hammam,30.7,15,476,SULFATEE SODIQUE
264,AIN AMMAR,30,,AIN BEIDA,31.781366,5.850417,exact,asal,asal,ain,56,100,170,SULFATEE SODIQUE
265,AIN MOUDJAHIDINE,30,,HASSI MESSAOUD,31.634559,5.95043,exact,asal,asal,ain,58,150,169,SULFATEE SODIQUE
266,AIN SAHRA II,55,,NEZLA,33.080059,6.03694,exact,asal,asal,ain,56,152,77,SULFATEE SODIQUE
267,AIN SAHRA,55,,NEZLA,33.076422,6.048134,exact,asal,asal,ain,53,200,85,SULFATEE SODIQUE
268,BEN NACER,55,,BEN NACER,33.102999,6.441082,exact,asal,asal,source,60,160,70,SULFATEE SODIQUE
269,HASSI EL BAADJ,55,,HASSI BEN ABDELAH,32.403557,6.049807,exact,asal,asal,source,53,80,116,SULFATEE SODIQUE
27,AIN SIDI AHMED BEN KHEDDA,29,,HACHEM,35.410564,0.562997,exact,asal,asal,ain,27,0,430,BICARBONATEE CALCIQUE
270,EL GUEDDACHI1,55,,EL HADJIRA,32.575107,5.69323,exact,asal,asal,source,55,150,140,SULFATEE SODIQUE
271,EL HADEB II,30,,ROUISSAT,31.921684,5.375597,exact,asal,asal,source,53,200,150,SULFATEE SODIQUE
272,EL  HARHIRA,55,,MEGGARINE,33.226156,6.055499,exact,asal,asal,source,52,150,60,SULFATEE SODIQUE
273,EL MIR,55,,EL HADJIRA,32.662509,5.503023,exact,asal,asal,source,56,150,132,SULFATEE SODIQUE
274,EL MOUSTAKBEL,55,,TOGGOURT,33.120898,6.066995,exact,asal,asal,source,58,166,70,SULFATEE SODIQUE
275,EL ALIA,55,,EL ALIA,32.673886,5.443318,exact,asal,asal,source,50,175,139,SULFATEE SODIQUE
276,GASSI TOUIL 3,30,,HASSI MESSAOUD,30.867953,6.510134,exact,asal,asal,source,21,130,173,SULFATEE SODIQUE
277,GASSI TOUIL 4,30,,HASSI MESSAOUD,30.908213,6.486645,exact,asal,asal,source,48,180,172,SULFATEE SODIQUE
278,HAMMAM OULED BOUSHAB,34,,EL HAMADIA,36.0033333,4.7322222,exact,asal,asal,hammam,20.5,0.3,868,SULFATEE SODIQUE ET CHLORUREE CALCIQUE
279,KNIF (VAPEUR),04,,BAGHAI,35.4864167,7.2555278,exact,asal,asal,source,0,0,1066,
28,TAMEKREST,11,,TAMANRASSET,22.784177,5.816546,exact,asal,asal,source,5,20,927,BICARBONATEE CALCIQUE
280,AIN FEZZA,13,,AIN FEZZA,34.883749,-1.23811,exact,asal,asal,ain,17,10,846,
281,AIN LALLA SETTI,31,,ARZEW,35.862956,-0.319784,exact,asal,asal,ain,0,0,0,
282,HAMMAM METAHRA,48,,HAD ECHAKALA,35.666142,1.10974,exact,asal,asal,hammam,28,4,0,
29,ISKEIFAF,33,,ILLIZI,27.1339,8.75853,exact,asal,asal,source,60,3.5,512,BICARBONATEE CALCIQUE
3,HAMMAM BOUHACHANA ASSASLA,24,,BOUHACHANA,36.3325,7.5380556,exact,asal,asal,hammam,35.4,6,460.5,BICARBONATEE CALCIQUE
30,INDABIRAN,56,,DJANET,24.461203,9.497703,exact,asal,asal,source,28,2,633,BICARBONATEE CALCIQUE
31,HAMMAM KIRIA,15,,ADEKAR,36.723052,4.5696,exact,asal,asal,hammam,45.3,0.3,700,BICARBONATEE CALCIQUE
32,AIN TEMDA,48,,MAZOUNA,36.122186,0.898575,exact,asal,asal,ain,25,6,332,BICARBONATEE CALCIQUE
33,AIN EL BAHRI,48,,EL OULDJA,35.91445,1.18235,exact,asal,asal,ain,37,3,292,BICARBONATEE CALCIQUE
34,AIN ERRAMKA,48,,RAMKA,35.848373,1.363155,exact,asal,asal,ain,28,2,390,BICARBONATEE CALCIQUE
35,HAMMAM AIN EL FOUAR,67,,EL AOUINET,35.892414,3.061778,exact,asal,asal,hammam,18,1,993,BICARBONATEE CALCIQUE ET MAGNESIENNE
36,HAMMAM SOUARI,26,,EL AOUINET,35.867168,3.047429,exact,asal,asal,hammam,20,0.1,928,BICARBONATEE CALCIQUE ET MAGNESIENNE
37,BOURAMROUM,09,,OUED EL ALLEUG,36.572817,2.757983,exact,asal,asal,source,39,11,53,BICARBONATEE CALCIQUE ET MAGNESIENNE
38,HAMMAM BOUHACHANA ROUMIA,24,,BOUHACHANA,36.3208333,7.5438889,exact,asal,asal,hammam,34.3,8,519,BICARBONATEE MAGNESIENNE
39,HAMMAM BOUHACHANA ENAKHLA,24,,BOUHACHANA,36.315,7.5322222,exact,asal,asal,hammam,37,2,623.7,BICARBONATEE MAGNESIENNE
4,EL KROUMA,41,,SIDI FRADJ,36.12155,8.2324667,exact,asal,asal,source,22,0,290,BICARBONATEE CALCIQUE
40,AIN BOUZAROUR,02,,LABIODH MEDJADJA,36.270091,1.380117,exact,asal,asal,ain,19,0.2,497,BICARBONATEE MAGNESIENNE
41,IMIHROU,33,,ILLIZI,25.950583,8.746182,exact,asal,asal,source,37,20,667,BICARBONATEE POTASSIQUE
42,KBALTIA,41,,HENANACHA,36.2155333,7.7342333,exact,asal,asal,source,25,0,750.7,BICARBONATEE SODIQUE
43,HMAMIN,36,,MECHROUHA,36.4372667,7.9909,exact,asal,asal,source,36.2,3,398.5,BICARBONATEE SODIQUE
44,TOUAITIA,12,,SIDI FRADJ,36.0048833,8.2782167,exact,asal,asal,source,37,3,495,BICARBONATEE SODIQUE
45,HAMMAM KSENA,10,,EL HACHEMIA,36.598611,3.590417,exact,asal,asal,hammam,8,90,610,BICARBONATEE SODIQUE
46,HAMMAM SALHINE,26,,BERROUAGHIA,36.152419,2.971516,exact,asal,asal,hammam,39.5,3.1,804,BICARBONATEE SODIQUE
47,HAMMAM KAMORA,67,,BOGHAR,35.893567,2.734694,exact,asal,asal,hammam,36,3,641,BICARBONATEE SODIQUE
48,AIN PALMIER N 1,29,,BOUHANIFIA,35.3163111,-0.0491667,exact,asal,asal,ain,65,1.5,241,BICARBONATEE SODIQUE
49,AIN SIDI ALI N 3,29,,BOUHANIFIA,35.3163889,-0.0483333,exact,asal,asal,ain,67,0.5,258,BICARBONATEE SODIQUE
5,KHENGUET EL HAMAM,41,,ZAAROURIA,36.1960667,7.9054667,exact,asal,asal,source,25,6,674,BICARBONATEE CALCIQUE
50,AIN EL HAMMAM N 6,29,,BOUHANIFIA,35.3141667,-0.0505556,exact,asal,asal,ain,48,2,229,BICARBONATEE SODIQUE
51,DUPONT,29,,BOUHANIFIA,35.3147222,-0.0508333,exact,asal,asal,source,53,5,224,BICARBONATEE SODIQUE
52,AIN EL HAMMAMAT,29,,BOUHANIFIA,35.3411111,-0.1055556,exact,asal,asal,ain,53,2,322,BICARBONATEE SODIQUE
53,FOUSSA,47,,GUERRARA,32.78797,4.494584,exact,asal,asal,source,45,65,0,BICARBONATEE SODIQUE
54,TAMESGUIDA,53,,FOUGARET EZZOUA,27.301992,3.729817,exact,asal,asal,source,0,74,364,BICARBONATEE SODIQUE
55,IN TAHABORT,11,,TAMANRASSET,22.838886,5.630499,exact,asal,asal,source,5,24,869,BICARBONATEE SODIQUE
56,TIT-NOUDAD,11,,TAMANRASSET,23.113003,6.079285,exact,asal,asal,source,6,20,1147,BICARBONATEE SODIQUE
57,LAARACHE,33,,ILLIZI,27.403925,8.841154,exact,asal,asal,source,32,1.5,567,BICARBONATEE SODIQUE
58,ADJAHIL,56,,DJANET,24.536487,9.481322,exact,asal,asal,source,29,1,1037,BICARBONATEE SODIQUE
59,HAMMAM GHOBNCHALA,36,,OULED ZITOUN,36.4536111,8.0686111,exact,asal,asal,hammam,25,1.5,467,"BICARBONATEE SODIQUE, CHLORUREE (SULFATEE) CALCIQUE"
6,HAMMAM ZAID,41,,OULED DRISS,36.3594444,8.012778,exact,asal,asal,hammam,39.2,6,837,BICARBONATEE CALCIQUE
60,HAMMAM ZAID (SIDI ZID),36,,BOUHADJAR,36.4677778,8.1505556,exact,asal,asal,hammam,43,0.6,385,"BICARBONATEE SODIQUE, CHLORUREE (SULFATEE) CALCIQUE"
61,HAMMAM BEN SALAH,36,,BENI SALEH,36.52,8.0369444,exact,asal,asal,hammam,49.3,3,306,"BICARBONATEE SODIQUE, CHLORUREE (SULFATEE) CALCIQUE"
62,HAMMAM SIDI TRAD,36,,ZITOUNA,36.57,8.31,exact,asal,asal,hammam,63.2,2.5,428,"BICARBONATEE SODIQUE, CHLORUREE (SULFATEE) CALCIQUE"
63,HAMMAM KAF N'SOUR,36,,CHAFFIA,36.605,8.0311111,exact,asal,asal,hammam,31,2,123,"BICARBONATEE SODIQUE, CHLORUREE CALCIQUE"
64,HAMMAM ZATOUT,36,,BOUHADJAR,36.47,8.14,exact,asal,asal,hammam,48.2,1.5,309,"BICARBONATEE SODIQUE, CHLORUREE CALCIQUE"
65,SIDI SAFI,29,,TIGHENIF,35.374567,0.375561,exact,asal,asal,source,42,20,500,CARBONATE CALCIQUE
66,SOURCE HAMMAM SIDI AMOR HAMMAM BOUTALEB,19,,EL HAMMA,35.7238889,5.3719444,exact,asal,asal,source,51.6,1.5,1148,CHLORO-SULFATEE CALCIQUE RICHE EN MAGNESIUM ET SODIUM
67,DJEMAA,57,,DJEMAA,33.54825,5.891972,exact,asal,asal,source,53,200,28,CHLORURE ET SULFATEE CALCIQUE
68,GOUIRET CHOHEB,30,,HASSI BEN ABDELAH,32.137557,5.557267,exact,asal,asal,source,52,200,135,CHLORURE ET SULFATEE SODIQUE
69,ZELFANA,47,,ZELFANA,32.393315,4.222364,exact,asal,asal,source,41,35,0,CHLORURE ET SULFATEE SODIQUE
7,HAMMAM (2014),12,,HAMMAMAT,35.4547222,7.9575,exact,asal,asal,hammam,35,2,880,BICARBONATEE CALCIQUE
70,HAMMAM EL BETHEM,26,,OUAMRI,36.206124,2.554359,exact,asal,asal,hammam,20,0.8,408,CHLORUREE CALCIQUE
71,AIN SKHOUNA,20,,AIN SKHOUNA,34.499255,0.848206,exact,asal,asal,ain,31,50,991,CHLORUREE CALCIQUE
72,FORAGE AIN ZEOUI,20,,AIN SKHOUNA,34.463671,0.821151,exact,asal,asal,forage,34.8,40,996,CHLORUREE CALCIQUE
73,FORAGE AIN MELAH,20,,AIN SKHOUNA,34.526448,0.848179,exact,asal,asal,forage,28,25,0,CHLORUREE CALCIQUE
74,EL MKABERTA,14,,OUED ESSLEM,35.492226,0.77751,exact,asal,asal,source,35,8,318,CHLORUREE CALCIQUE
75,HAMMAM ELBOUADJEN,48,,HAD ECHAKALA,35.68139,1.171187,exact,asal,asal,hammam,22,7,0,CHLORUREE CALCIQUE
76,MEKABERTA,48,,KALAA,35.587268,0.315243,exact,asal,asal,source,38,6,394,CHLORUREE CALCIQUE
77,HAMMAM EL MALHA,48,,S.M.BEN OUDA,35.605931,0.594708,exact,asal,asal,hammam,27,6,0,CHLORUREE CALCIQUE
78,CHARCHAR,48,,AIN TAREK,35.788857,1.10985,exact,asal,asal,source,27,5,0,CHLORUREE CALCIQUE
79,HAMMAM DERKAOUA,48,,AIN RAHMA,35.698108,0.968489,exact,asal,asal,hammam,29,5,191,CHLORUREE CALCIQUE
8,AIN SID MHAMED,02,,LABIODH MADJADJA,36.250316,1.34873,exact,asal,asal,ain,19,0.2,388,BICARBONATEE CALCIQUE
80,AIN HNICHE,48,,EL OULDJA,35.947209,1.217393,exact,asal,asal,ain,38,4,407,CHLORUREE CALCIQUE
81,AIN SIDI ALI,48,,AIN RAHMA,35.691627,0.414258,exact,asal,asal,ain,27,4,209,CHLORUREE CALCIQUE
82,AIN BRAHIM,48,,AIN RAHMA,35.607027,0.395144,exact,asal,asal,ain,28,3,368,CHLORUREE CALCIQUE
83,HAMMAM SABONNET,48,,EL OULDJA,35.923098,1.085545,exact,asal,asal,hammam,35,2,186,CHLORUREE CALCIQUE
84,AIN GHAZLI,38,,BORDJ EL AMIR AEK,35.871673,2.243733,exact,asal,asal,ain,28,6,1260,CHLORUREE CALCIQUE
85,HAMMAM YAZROU,38,,OULED BESSAM,35.718828,1.84403,exact,asal,asal,hammam,15,0.2,919,CHLORUREE CALCIQUE
86,DIFFEL,51,,OULED DJELLAL,34.458167,5.095556,exact,asal,asal,source,52.6,45,212,CHLORUREE CALCIQUE
87,LASEL,51,,OULED DJELLAL,34.413611,5.034528,exact,asal,asal,source,52.7,40,194,CHLORUREE CALCIQUE
88,HAMMAM HDJEB EL BARAKA,07,,HADJEB,34.790443,5.590461,exact,asal,asal,hammam,58.5,40,150,CHLORUREE CALCIQUE
89,LAHOUIMED,51,,SIDI KHALED,34.371778,4.972,exact,asal,asal,source,48,30,243,CHLORUREE CALCIQUE
9,MEHISSER,02,,SOBHA,36.145023,1.034234,exact,asal,asal,source,20,0.14,323,BICARBONATEE CALCIQUE
90,HAMOULA,51,,SIDI KHALED,34.390167,4.946311,exact,asal,asal,source,46.6,20,236,CHLORUREE CALCIQUE ET SODIQUE
91,HAMMAM BOUGHRARA,13,,HAMMAM BOUGHRARA,34.890437,-1.639337,exact,asal,asal,hammam,44,6.5,265,CHLORUREE CALCIQUE ET MAGNESIENNE
92,RAS DJEDAR,51,,BESBES,34.392428,5.211537,exact,asal,asal,source,55.8,30,185,CHLORUREE CALCIQUE ET MAGNESIENNE
93,BESBES,51,,BESBES,34.172528,4.9835,exact,asal,asal,source,47,25,318,CHLORUREE CALCIQUE ET MAGNESIENNE
94,HAMMAM DAR ECHEIKH,43,,TIBERGUENT,36.4380556,6.02,exact,asal,asal,hammam,33.4,1,526,CHLORUREE ET SULFATEE CALCIQUE
95,HAMMAM OULED CHENAF,67,,AIN BOUCIF,35.942,3.11,exact,asal,asal,hammam,21,3.1,925,CHLORUREE ET SULFATEE CALCIQUE
96,SIDI EL HABECHI,26,,BENI SLIMANE,36.262797,3.380547,exact,asal,asal,source,21,1,487,CHLORUREE ET SULFATEE CALCIQUE
97,BEN TALHA,26,,BOUSKENE,36.211921,3.25458,exact,asal,asal,source,23,1,660,CHLORUREE ET SULFATEE CALCIQUE
98,HAMMAM MELOUANE,09,,HAMMAM MELOUANE,36.486667,3.044583,exact,asal,asal,hammam,39,2,184,CHLORUREE ET SULFATEE SODIQUE
99,GUETTARA,66,,GUETTARA,33.15181,4.686619,exact,asal,asal,source,50,60,365,CHLORUREE ET SULFATEE SODIQUE
