[
  {
    "source": "osm",
    "osm_id": "node/3012904279",
    "name": "Pharmaicie étatique",
    "name_ar": null,
    "name_fr": "Pharmaicie étatique",
    "operator": null,
    "phone": null,
    "opening_hours": null,
    "dispensing": null,
    "lat": 26.972946,
    "lng": 1.078929,
    "geo_precision": "osm_node",
    "address": null,
    "wilaya_code": "01",
    "wilaya": "Adrar",
    "wilaya_ar": "أدرار",
    "commune": "Aoulef",
    "commune_code": 112,
    "id": "01-00001"
  },
  {
    "source": "osm",
    "osm_id": "node/3067035983",
    "name": "Pharmacie Echefaa",
    "name_ar": "الشفاء",
    "name_fr": "Pharmacie Echefaa",
    "operator": null,
    "phone": null,
    "opening_hours": null,
    "dispensing": true,
    "lat": 26.971472,
    "lng": 1.081066,
    "geo_precision": "osm_node",
    "address": "Rue Larbi Ben Mhidi, Aoulef 01003",
    "wilaya_code": "01",
    "wilaya": "Adrar",
    "wilaya_ar": "أدرار",
    "commune": "Aoulef",
    "commune_code": 112,
    "id": "01-00002"
  },
  {
    "source": "osm",
    "osm_id": "node/3067035984",
    "name": "Pharmacie Hamdi",
    "name_ar": "حامدي",
    "name_fr": "Pharmacie Hamdi",
    "operator": null,
    "phone": null,
    "opening_hours": null,
    "dispensing": true,
    "lat": 26.969404,
    "lng": 1.080783,
    "geo_precision": "osm_node",
    "address": null,
    "wilaya_code": "01",
    "wilaya": "Adrar",
    "wilaya_ar": "أدرار",
    "commune": "Aoulef",
    "commune_code": 112,
    "id": "01-00003"
  },
  {
    "source": "osm",
    "osm_id": "node/3199092870",
    "name": null,
    "name_ar": null,
    "name_fr": null,
    "operator": null,
    "phone": null,
    "opening_hours": null,
    "dispensing": null,
    "lat": 27.873497,
    "lng": -0.298361,
    "geo_precision": "osm_node",
    "address": null,
    "wilaya_code": "01",
    "wilaya": "Adrar",
    "wilaya_ar": "أدرار",
    "commune": "Adrar",
    "commune_code": 101,
    "id": "01-00004"
  },
  {
    "source": "osm",
    "osm_id": "node/3199130755",
    "name": "بلحسان",
    "name_ar": "بلحسان",
    "name_fr": "Pharmacie Belhaçane",
    "operator": null,
    "phone": null,
    "opening_hours": null,
    "dispensing": null,
    "lat": 27.878007,
    "lng": -0.300394,
    "geo_precision": "osm_node",
    "address": "أدرار",
    "wilaya_code": "01",
    "wilaya": "Adrar",
    "wilaya_ar": "أدرار",
    "commune": "Adrar",
    "commune_code": 101,
    "id": "01-00005"
  },
  {
    "source": "osm",
    "osm_id": "node/3900622147",
    "name": "رزوق",
    "name_ar": "رزوق",
    "name_fr": "Pharmacie Rezzoug",
    "operator": null,
    "phone": null,
    "opening_hours": null,
    "dispensing": null,
    "lat": 27.871926,
    "lng": -0.282897,
    "geo_precision": "osm_node",
    "address": null,
    "wilaya_code": "01",
    "wilaya": "Adrar",
    "wilaya_ar": "أدرار",
    "commune": "Adrar",
    "commune_code": 101,
    "id": "01-00006"
  },
  {
    "source": "osm",
    "osm_id": "node/4194340892",
    "name": "Pharmacie EPH Sud",
    "name_ar": "pharmacie EPH الجنوب",
    "name_fr": "Pharmacie EPH Sud",
    "operator": null,
    "phone": null,
    "opening_hours": "24/7",
    "dispensing": null,
    "lat": 26.973962,
    "lng": 1.086394,
    "geo_precision": "osm_node",
    "address": null,
    "wilaya_code": "01",
    "wilaya": "Adrar",
    "wilaya_ar": "أدرار",
    "commune": "Aoulef",
    "commune_code": 112,
    "id": "01-00007"
  },
  {
    "source": "osm",
    "osm_id": "node/10103454118",
    "name": "BENSOUNA H",
    "name_ar": null,
    "name_fr": "BENSOUNA H",
    "operator": null,
    "phone": null,
    "opening_hours": null,
    "dispensing": null,
    "lat": 36.165154,
    "lng": 1.335549,
    "geo_precision": "osm_node",
    "address": null,
    "wilaya_code": "02",
    "wilaya": "Chlef",
    "wilaya_ar": "الشلف",
    "commune": "Chlef",
    "commune_code": 201,
    "id": "02-00001"
  },
  {
    "source": "osm",
    "osm_id": "node/10127802317",
    "name": "BETTAHAR Kh",
    "name_ar": null,
    "name_fr": "BETTAHAR Kh",
    "operator": null,
    "phone": null,
    "opening_hours": null,
    "dispensing": null,
    "lat": 36.085751,
    "lng": 1.210036,
    "geo_precision": "osm_node",
    "address": null,
    "wilaya_code": "02",
    "wilaya": "Chlef",
    "wilaya_ar": "الشلف",
    "commune": "Oued Sly",
    "commune_code": 221,
    "id": "02-00002"
  },
  {
    "source": "osm",
    "osm_id": "node/10128253018",
    "name": "FELLAG A",
    "name_ar": null,
    "name_fr": "FELLAG A",
    "operator": null,
    "phone": null,
    "opening_hours": null,
    "dispensing": null,
    "lat": 36.151798,
    "lng": 1.315524,
    "geo_precision": "osm_node",
    "address": null,
    "wilaya_code": "02",
    "wilaya": "Chlef",
    "wilaya_ar": "الشلف",
    "commune": "Chlef",
    "commune_code": 201,
    "id": "02-00003"
  },
  {
    "source": "osm",
    "osm_id": "node/10172024517",
    "name": "REZKI M.A",
    "name_ar": null,
    "name_fr": "REZKI M.A",
    "operator": null,
    "phone": null,
    "opening_hours": null,
    "dispensing": null,
    "lat": 36.142062,
    "lng": 1.301855,
    "geo_precision": "osm_node",
    "address": null,
    "wilaya_code": "02",
    "wilaya": "Chlef",
    "wilaya_ar": "الشلف",
    "commune": "Chlef",
    "commune_code": 201,
    "id": "02-00004"
  },
  {
    "source": "osm",
    "osm_id": "node/10204018618",
    "name": "ARAB M",
    "name_ar": null,
    "name_fr": "Arab M",
    "operator": null,
    "phone": null,
    "opening_hours": null,
    "dispensing": null,
    "lat": 36.152655,
    "lng": 1.308712,
    "geo_precision": "osm_node",
    "address": null,
    "wilaya_code": "02",
    "wilaya": "Chlef",
    "wilaya_ar": "الشلف",
    "commune": "Chlef",
    "commune_code": 201,
    "id": "02-00005"
  },
  {
    "source": "osm",
    "osm_id": "node/10262228609",
    "name": "SOUDANI H",
    "name_ar": null,
    "name_fr": "SOUDANI H",
    "operator": null,
    "phone": null,
    "opening_hours": null,
    "dispensing": null,
    "lat": 36.206361,
    "lng": 1.264491,
    "geo_precision": "osm_node",
    "address": null,
    "wilaya_code": "02",
    "wilaya": "Chlef",
    "wilaya_ar": "الشلف",
    "commune": "Ouled Fares",
    "commune_code": 210,
    "id": "02-00006"
  },
  {
    "source": "osm",
    "osm_id": "node/10607052205",
    "name": "EPSP de Kouasmia",
    "name_ar": null,
    "name_fr": "EPSP de Kouasmia",
    "operator": null,
    "phone": null,
    "opening_hours": null,
    "dispensing": null,
    "lat": 36.203882,
    "lng": 1.321323,
    "geo_precision": "osm_node",
    "address": null,
    "wilaya_code": "02",
    "wilaya": "Chlef",
    "wilaya_ar": "الشلف",
    "commune": "Chlef",
    "commune_code": 201,
    "id": "02-00007"
  },
  {
    "source": "osm",
    "osm_id": "node/10607053005",
    "name": "ABEDDOU A",
    "name_ar": null,
    "name_fr": "ABEDDOU A",
    "operator": null,
    "phone": null,
    "opening_hours": null,
    "dispensing": null,
    "lat": 36.17712,
    "lng": 1.328223,
    "geo_precision": "osm_node",
    "address": null,
    "wilaya_code": "02",
    "wilaya": "Chlef",
    "wilaya_ar": "الشلف",
    "commune": "Chlef",
    "commune_code": 201,
    "id": "02-00008"
  },
  {
    "source": "osm",
    "osm_id": "node/10631163705",
    "name": "SALHI S",
    "name_ar": null,
    "name_fr": "SALHI S",
    "operator": null,
    "phone": null,
    "opening_hours": null,
    "dispensing": null,
    "lat": 36.208435,
    "lng": 1.246638,
    "geo_precision": "osm_node",
    "address": null,
    "wilaya_code": "02",
    "wilaya": "Chlef",
    "wilaya_ar": "الشلف",
    "commune": "Ouled Fares",
    "commune_code": 210,
    "id": "02-00009"
  },
  {
    "source": "osm",
    "osm_id": "node/10750656405",
    "name": "BENDACHA Kh",
    "name_ar": null,
    "name_fr": "BENDACHA Kh",
    "operator": null,
    "phone": null,
    "opening_hours": null,
    "dispensing": null,
    "lat": 36.10495,
    "lng": 1.106337,
    "geo_precision": "osm_node",
    "address": null,
    "wilaya_code": "02",
    "wilaya": "Chlef",
    "wilaya_ar": "الشلف",
    "commune": "Sobha",
    "commune_code": 208,
    "id": "02-00010"
  },
  {
    "source": "osm",
    "osm_id": "node/10763613105",
    "name": "BRAHIMI I",
    "name_ar": null,
    "name_fr": "BRAHIMI I",
    "operator": null,
    "phone": null,
    "opening_hours": null,
    "dispensing": null,
    "lat": 36.196922,
    "lng": 1.259826,
    "geo_precision": "osm_node",
    "address": null,
    "wilaya_code": "02",
    "wilaya": "Chlef",
    "wilaya_ar": "الشلف",
    "commune": "Ouled Fares",
    "commune_code": 210,
    "id": "02-00011"
  },
  {
    "source": "osm",
    "osm_id": "node/10763713305",
    "name": "DRISS S",
    "name_ar": null,
    "name_fr": "DRISS S",
    "operator": null,
    "phone": null,
    "opening_hours": null,
    "dispensing": null,
    "lat": 36.277694,
    "lng": 1.522509,
    "geo_precision": "osm_node",
    "address": null,
    "wilaya_code": "02",
    "wilaya": "Chlef",
    "wilaya_ar": "الشلف",
    "commune": "Beni Rached",
    "commune_code": 213,
    "id": "02-00012"
  },
  {
    "source": "osm",
    "osm_id": "node/10771064205",
    "name": "MoKhtri M",
    "name_ar": null,
    "name_fr": "MoKhtri M",
    "operator": null,
    "phone": null,
    "opening_hours": null,
    "dispensing": null,
    "lat": 36.417918,
    "lng": 1.193504,
    "geo_precision": "osm_node",
    "address": null,
    "wilaya_code": "02",
    "wilaya": "Chlef",
    "wilaya_ar": "الشلف",
    "commune": "Abou El Hassane",
    "commune_code": 222,
    "id": "02-00013"
  },
  {
    "source": "osm",
    "osm_id": "node/10787007705",
    "name": "IKHLEF",
    "name_ar": null,
    "name_fr": "IKHLEF",
    "operator": null,
    "phone": null,
    "opening_hours": null,
    "dispensing": null,
    "lat": 36.16104,
    "lng": 1.322772,
    "geo_precision": "osm_node",
    "address": null,
    "wilaya_code": "02",
    "wilaya": "Chlef",
    "wilaya_ar": "الشلف",
    "commune": "Chlef",
    "commune_code": 201,
    "id": "02-00014"
  },
  {
    "source": "osm",
    "osm_id": "node/10787008805",
    "name": "ABBOURA Med A",
    "name_ar": null,
    "name_fr": "ABBOURA Med A",
    "operator": null,
    "phone": null,
    "opening_hours": null,
    "dispensing": null,
    "lat": 36.161815,
    "lng": 1.321016,
    "geo_precision": "osm_node",
    "address": null,
    "wilaya_code": "02",
    "wilaya": "Chlef",
    "wilaya_ar": "الشلف",
    "commune": "Chlef",
    "commune_code": 201,
    "id": "02-00015"
  },
  {
    "source": "osm",
    "osm_id": "node/10787009905",
    "name": "DAHMANE SBAIHIA A",
    "name_ar": null,
    "name_fr": "DAHMANE SBAIHIA A",
    "operator": null,
    "phone": null,
    "opening_hours": null,
    "dispensing": null,
    "lat": 36.161667,
    "lng": 1.324796,
    "geo_precision": "osm_node",
    "address": null,
    "wilaya_code": "02",
    "wilaya": "Chlef",
    "wilaya_ar": "الشلف",
    "commune": "Chlef",
    "commune_code": 201,
    "id": "02-00016"
  },
  {
    "source": "osm",
    "osm_id": "node/10795456906",
    "name": "MOKEDDEM kH A",
    "name_ar": null,
    "name_fr": "MOKEDDEM kH A",
    "operator": null,
    "phone": null,
    "opening_hours": null,
    "dispensing": null,
    "lat": 36.145282,
    "lng": 1.330809,
    "geo_precision": "osm_node",
    "address": null,
    "wilaya_code": "02",
    "wilaya": "Chlef",
    "wilaya_ar": "الشلف",
    "commune": "Chlef",
    "commune_code": 201,
    "id": "02-00017"
  },
  {
    "source": "osm",
    "osm_id": "node/10795470105",
    "name": "BOUTCHICHA H",
    "name_ar": null,
    "name_fr": "BOUTCHICHA H",
    "operator": null,
    "phone": null,
    "opening_hours": null,
    "dispensing": null,
    "lat": 36.145182,
    "lng": 1.338232,
    "geo_precision": "osm_node",
    "address": null,
    "wilaya_code": "02",
    "wilaya": "Chlef",
    "wilaya_ar": "الشلف",
    "commune": "Chlef",
    "commune_code": 201,
    "id": "02-00018"
  },
  {
    "source": "osm",
    "osm_id": "node/10795472005",
    "name": "KHARROUBI A",
    "name_ar": null,
    "name_fr": "KHARROUBI A",
    "operator": null,
    "phone": null,
    "opening_hours": null,
    "dispensing": null,
    "lat": 36.149765,
    "lng": 1.342868,
    "geo_precision": "osm_node",
    "address": null,
    "wilaya_code": "02",
    "wilaya": "Chlef",
    "wilaya_ar": "الشلف",
    "commune": "Chlef",
    "commune_code": 201,
    "id": "02-00019"
  },
  {
    "source": "osm",
    "osm_id": "node/10795473305",
    "name": "ABDELMERIAM N",
    "name_ar": null,
    "name_fr": "ABDELMERIAM N",
    "operator": null,
    "phone": null,
    "opening_hours": null,
    "dispensing": null,
    "lat": 36.150933,
    "lng": 1.337639,
    "geo_precision": "osm_node",
    "address": null,
    "wilaya_code": "02",
    "wilaya": "Chlef",
    "wilaya_ar": "الشلف",
    "commune": "Chlef",
    "commune_code": 201,
    "id": "02-00020"
  },
  {
    "source": "osm",
    "osm_id": "node/10795475205",
    "name": "KARA ACHIRA H",
    "name_ar": null,
    "name_fr": "KARA ACHIRA H",
    "operator": null,
    "phone": null,
    "opening_hours": null,
    "dispensing": null,
    "lat": 36.150659,
    "lng": 1.335526,
    "geo_precision": "osm_node",
    "address": null,
    "wilaya_code": "02",
    "wilaya": "Chlef",
    "wilaya_ar": "الشلف",
    "commune": "Chlef",
    "commune_code": 201,
    "id": "02-00021"
  },
  {
    "source": "osm",
    "osm_id": "node/10822208305",
    "name": "SALEM ATTIA H",
    "name_ar": null,
    "name_fr": "SALEM ATTIA H",
    "operator": null,
    "phone": null,
    "opening_hours": null,
    "dispensing": null,
    "lat": 36.169525,
    "lng": 1.357903,
    "geo_precision": "osm_node",
    "address": null,
    "wilaya_code": "02",
    "wilaya": "Chlef",
    "wilaya_ar": "الشلف",
    "commune": "Chlef",
    "commune_code": 201,
    "id": "02-00022"
  },
  {
    "source": "osm",
    "osm_id": "node/10822247305",
    "name": "Pharmacie Orléansville",
    "name_ar": null,
    "name_fr": "Pharmacie Orléansville",
    "operator": null,
    "phone": null,
    "opening_hours": null,
    "dispensing": null,
    "lat": 36.163193,
    "lng": 1.342823,
    "geo_precision": "osm_node",
    "address": null,
    "wilaya_code": "02",
    "wilaya": "Chlef",
    "wilaya_ar": "الشلف",
    "commune": "Chlef",
    "commune_code": 201,
    "id": "02-00023"
  },
  {
    "source": "osm",
    "osm_id": "node/10833759205",
    "name": "MEDDAHI A",
    "name_ar": null,
    "name_fr": "MEDDAHI A",
    "operator": null,
    "phone": null,
    "opening_hours": null,
    "dispensing": null,
    "lat": 36.23377,
    "lng": 1.237481,
    "geo_precision": "osm_node",
    "address": null,
    "wilaya_code": "02",
    "wilaya": "Chlef",
    "wilaya_ar": "الشلف",
    "commune": "Ouled Fares",
    "commune_code": 210,
    "id": "02-00024"
  },
  {
    "source": "osm",
    "osm_id": "node/10931502405",
    "name": "BOUSSOUFA M",
    "name_ar": null,
    "name_fr": "BOUSSOUFA M",
    "operator": null,
    "phone": null,
    "opening_hours": null,
    "dispensing": null,
    "lat": 36.320575,
    "lng": 1.137071,
    "geo_precision": "osm_node",
    "address": null,
    "wilaya_code": "02",
    "wilaya": "Chlef",
    "wilaya_ar": "الشلف",
    "commune": "Bouzeghaia",
    "commune_code": 231,
    "id": "02-00025"
  },
  {
    "source": "osm",
    "osm_id": "node/10939707205",
    "name": "OUALI Rabae",
    "name_ar": null,
    "name_fr": "OUALI Rabae",
    "operator": null,
    "phone": null,
    "opening_hours": null,
    "dispensing": null,
    "lat": 36.200495,
    "lng": 1.388742,
    "geo_precision": "osm_node",
    "address": null,
    "wilaya_code": "02",
    "wilaya": "Chlef",
    "wilaya_ar": "الشلف",
    "commune": "Oum Drou",
    "commune_code": 233,
    "id": "02-00026"
  },
  {
    "source": "osm",
    "osm_id": "node/10951522505",
    "name": "GUERTI S",
    "name_ar": null,
    "name_fr": "GUERTI S",
    "operator": null,
    "phone": null,
    "opening_hours": null,
    "dispensing": null,
    "lat": 36.110268,
    "lng": 1.56048,
    "geo_precision": "osm_node",
    "address": null,
    "wilaya_code": "02",
    "wilaya": "Chlef",
    "wilaya_ar": "الشلف",
    "commune": "El Karimia",
    "commune_code": 204,
    "id": "02-00027"
  },
  {
    "source": "osm",
    "osm_id": "node/10959406708",
    "name": "BEKARA F",
    "name_ar": null,
    "name_fr": "BEKARA F",
    "operator": null,
    "phone": null,
    "opening_hours": null,
    "dispensing": null,
    "lat": 36.464465,
    "lng": 1.305122,
    "geo_precision": "osm_node",
    "address": null,
    "wilaya_code": "02",
    "wilaya": "Chlef",
    "wilaya_ar": "الشلف",
    "commune": "Sidi Akkacha",
    "commune_code": 211,
    "id": "02-00028"
  },
  {
    "source": "osm",
    "osm_id": "node/10991941005",
    "name": "HAMICHE L",
    "name_ar": null,
    "name_fr": "HAMICHE L",
    "operator": null,
    "phone": null,
    "opening_hours": null,
    "dispensing": null,
    "lat": 36.181645,
    "lng": 1.529391,
    "geo_precision": "osm_node",
    "address": null,
    "wilaya_code": "02",
    "wilaya": "Chlef",
    "wilaya_ar": "الشلف",
    "commune": "Oued Fodda",
    "commune_code": 229,
    "id": "02-00029"
  },
  {
    "source": "osm",
    "osm_id": "node/11004389805",
    "name": "BEnkhedoma A",
    "name_ar": null,
    "name_fr": "BEnkhedoma A",
    "operator": null,
    "phone": null,
    "opening_hours": null,
    "dispensing": null,
    "lat": 36.187302,
    "lng": 1.532643,
    "geo_precision": "osm_node",
    "address": null,
    "wilaya_code": "02",
    "wilaya": "Chlef",
    "wilaya_ar": "الشلف",
    "commune": "Oued Fodda",
    "commune_code": 229,
    "id": "02-00030"
  },
  {
    "source": "osm",
    "osm_id": "node/11147284305",
    "name": "ZAIDI Hayet",
    "name_ar": null,
    "name_fr": "ZAIDI Hayet",
    "operator": null,
    "phone": null,
    "opening_hours": null,
    "dispensing": null,
    "lat": 36.503016,
    "lng": 1.271924,
    "geo_precision": "osm_node",
    "address": null,
    "wilaya_code": "02",
    "wilaya": "Chlef",
    "wilaya_ar": "الشلف",
    "commune": "Tenes",
    "commune_code": 202,
    "id": "02-00031"
  },
  {
    "source": "osm",
    "osm_id": "node/11180908139",
    "name": "ARABA ziane",
    "name_ar": null,
    "name_fr": "ARABA ziane",
    "operator": null,
    "phone": null,
    "opening_hours": null,
    "dispensing": null,
    "lat": 36.153957,
    "lng": 1.340798,
    "geo_precision": "osm_node",
    "address": null,
    "wilaya_code": "02",
    "wilaya": "Chlef",
    "wilaya_ar": "الشلف",
    "commune": "Chlef",
    "commune_code": 201,
    "id": "02-00032"
  },
  {
    "source": "osm",
    "osm_id": "node/11297750271",
    "name": "Missoum benziane H",
    "name_ar": null,
    "name_fr": "Missoum benziane H",
    "operator": null,
    "phone": null,
    "opening_hours": null,
    "dispensing": null,
    "lat": 36.199605,
    "lng": 1.264192,
    "geo_precision": "osm_node",
    "address": null,
    "wilaya_code": "02",
    "wilaya": "Chlef",
    "wilaya_ar": "الشلف",
    "commune": "Ouled Fares",
    "commune_code": 210,
    "id": "02-00033"
  },
  {
    "source": "osm",
    "osm_id": "node/11297759069",
    "name": "BENMAHFOUD O",
    "name_ar": null,
    "name_fr": "BENMAHFOUD O",
    "operator": null,
    "phone": null,
    "opening_hours": null,
    "dispensing": null,
    "lat": 36.106999,
    "lng": 1.107861,
    "geo_precision": "osm_node",
    "address": null,
    "wilaya_code": "02",
    "wilaya": "Chlef",
    "wilaya_ar": "الشلف",
    "commune": "Sobha",
    "commune_code": 208,
    "id": "02-00034"
  },
  {
    "source": "osm",
    "osm_id": "node/11354757870",
    "name": "FELLG ARIOUAT S",
    "name_ar": null,
    "name_fr": "FELLG ARIOUAT S",
    "operator": null,
    "phone": null,
    "opening_hours": null,
    "dispensing": null,
    "lat": 36.135067,
    "lng": 1.355459,
    "geo_precision": "osm_node",
    "address": null,
    "wilaya_code": "02",
    "wilaya": "Chlef",
    "wilaya_ar": "الشلف",
    "commune": "Chlef",
    "commune_code": 201,
    "id": "02-00035"
  },
  {
    "source": "osm",
    "osm_id": "node/11539833669",
    "name": "KADDOUR DJABBAR D",
    "name_ar": null,
    "name_fr": "KADDOUR DJABBAR D",
    "operator": null,
    "phone": null,
    "opening_hours": null,
    "dispensing": null,
    "lat": 36.064514,
    "lng": 1.127808,
    "geo_precision": "osm_node",
    "address": null,
    "wilaya_code": "02",
    "wilaya": "Chlef",
    "wilaya_ar": "الشلف",
    "commune": "Boukadir",
    "commune_code": 212,
    "id": "02-00036"
  },
  {
    "source": "osm",
    "osm_id": "node/11622304469",
    "name": "BELMECHRI R",
    "name_ar": null,
    "name_fr": "BELMECHRI R",
    "operator": null,
    "phone": null,
    "opening_hours": null,
    "dispensing": null,
    "lat": 36.279785,
    "lng": 1.522956,
    "geo_precision": "osm_node",
    "address": null,
    "wilaya_code": "02",
    "wilaya": "Chlef",
    "wilaya_ar": "الشلف",
    "commune": "Beni Rached",
    "commune_code": 213,
    "id": "02-00037"
  },
  {
    "source": "osm",
    "osm_id": "node/11622359069",
    "name": "CHERRAK S",
    "name_ar": null,
    "name_fr": "CHERRAK S",
    "operator": null,
    "phone": null,
    "opening_hours": null,
    "dispensing": null,
    "lat": 36.278289,
    "lng": 1.52015,
    "geo_precision": "osm_node",
    "address": null,
    "wilaya_code": "02",
    "wilaya": "Chlef",
    "wilaya_ar": "الشلف",
    "commune": "Beni Rached",
    "commune_code": 213,
    "id": "02-00038"
  },
  {
    "source": "osm",
    "osm_id": "node/11635898369",
    "name": "BENYAMINA DOUMA",
    "name_ar": null,
    "name_fr": "BENYAMINA DOUMA",
    "operator": null,
    "phone": null,
    "opening_hours": null,
    "dispensing": null,
    "lat": 36.184151,
    "lng": 1.405833,
    "geo_precision": "osm_node",
    "address": null,
    "wilaya_code": "02",
    "wilaya": "Chlef",
    "wilaya_ar": "الشلف",
    "commune": "Oum Drou",
    "commune_code": 233,
    "id": "02-00039"
  },
  {
    "source": "osm",
    "osm_id": "node/11635898370",
    "name": "MEDDAHI F",
    "name_ar": null,
    "name_fr": "MEDDAHI F",
    "operator": null,
    "phone": null,
    "opening_hours": null,
    "dispensing": null,
    "lat": 36.276851,
    "lng": 1.52488,
    "geo_precision": "osm_node",
    "address": null,
    "wilaya_code": "02",
    "wilaya": "Chlef",
    "wilaya_ar": "الشلف",
    "commune": "Beni Rached",
    "commune_code": 213,
    "id": "02-00040"
  },
  {
    "source": "osm",
    "osm_id": "node/11635910370",
    "name": "FETTAH W",
    "name_ar": null,
    "name_fr": "FETTAH W",
    "operator": null,
    "phone": null,
    "opening_hours": null,
    "dispensing": null,
    "lat": 36.215986,
    "lng": 1.485656,
    "geo_precision": "osm_node",
    "address": null,
    "wilaya_code": "02",
    "wilaya": "Chlef",
    "wilaya_ar": "الشلف",
    "commune": "Ouled Abbes",
    "commune_code": 218,
    "id": "02-00041"
  },
  {
    "source": "osm",
    "osm_id": "node/11637748969",
    "name": "BENABOURA I",
    "name_ar": null,
    "name_fr": "BENABOURA I",
    "operator": null,
    "phone": null,
    "opening_hours": null,
    "dispensing": null,
    "lat": 36.070132,
    "lng": 1.394454,
    "geo_precision": "osm_node",
    "address": null,
    "wilaya_code": "02",
    "wilaya": "Chlef",
    "wilaya_ar": "الشلف",
    "commune": "El Hadjadj",
    "commune_code": 227,
    "id": "02-00042"
  },
  {
    "source": "osm",
    "osm_id": "node/11662920069",
    "name": "TARFAOUI N",
    "name_ar": null,
    "name_fr": "TARFAOUI N",
    "operator": null,
    "phone": null,
    "opening_hours": null,
    "dispensing": null,
    "lat": 36.20447,
    "lng": 1.258957,
    "geo_precision": "osm_node",
    "address": null,
    "wilaya_code": "02",
    "wilaya": "Chlef",
    "wilaya_ar": "الشلف",
    "commune": "Ouled Fares",
    "commune_code": 210,
    "id": "02-00043"
  },
  {
    "source": "osm",
    "osm_id": "node/11800339669",
    "name": "BELARIF H",
    "name_ar": null,
    "name_fr": "BELARIF H",
    "operator": null,
    "phone": null,
    "opening_hours": null,
    "dispensing": null,
    "lat": 36.136885,
    "lng": 1.288845,
    "geo_precision": "osm_node",
    "address": null,
    "wilaya_code": "02",
    "wilaya": "Chlef",
    "wilaya_ar": "الشلف",
    "commune": "Chlef",
    "commune_code": 201,
    "id": "02-00044"
  },
  {
    "source": "osm",
    "osm_id": "node/11816727976",
    "name": "boussedour kh",
    "name_ar": null,
    "name_fr": "boussedour kh",
    "operator": null,
    "phone": null,
    "opening_hours": null,
    "dispensing": null,
    "lat": 36.148678,
    "lng": 1.304549,
    "geo_precision": "osm_node",
    "address": null,
    "wilaya_code": "02",
    "wilaya": "Chlef",
    "wilaya_ar": "الشلف",
    "commune": "Chlef",
    "commune_code": 201,
    "id": "02-00045"
  },
  {
    "source": "osm",
    "osm_id": "node/11826235069",
    "name": "TOUIL H",
    "name_ar": null,
    "name_fr": "TOUIL H",
    "operator": null,
    "phone": null,
    "opening_hours": null,
    "dispensing": null,
    "lat": 36.420203,
    "lng": 1.236078,
    "geo_precision": "osm_node",
    "address": null,
    "wilaya_code": "02",
    "wilaya": "Chlef",
    "wilaya_ar": "الشلف",
    "commune": "Abou El Hassane",
    "commune_code": 222,
    "id": "02-00046"
  },
  {
    "source": "osm",
    "osm_id": "node/11869558769",
    "name": "pharmacie elezaar charef",
    "name_ar": null,
    "name_fr": "pharmacie elezaar charef",
    "operator": null,
    "phone": null,
    "opening_hours": "24/7",
    "dispensing": null,
    "lat": 36.060086,
    "lng": 1.133303,
    "geo_precision": "osm_node",
    "address": null,
    "wilaya_code": "02",
    "wilaya": "Chlef",
    "wilaya_ar": "الشلف",
    "commune": "Boukadir",
    "commune_code": 212,
    "id": "02-00047"
  },
  {
    "source": "osm",
    "osm_id": "node/11872050569",
    "name": "elezaar charef",
    "name_ar": null,
    "name_fr": "elezaar charef",
    "operator": null,
    "phone": null,
    "opening_hours": null,
    "dispensing": null,
    "lat": 36.059419,
    "lng": 1.133298,
    "geo_precision": "osm_node",
    "address": null,
    "wilaya_code": "02",
    "wilaya": "Chlef",
    "wilaya_ar": "الشلف",
    "commune": "Boukadir",
    "commune_code": 212,
    "id": "02-00048"
  },
  {
    "source": "osm",
    "osm_id": "node/11918424069",
    "name": "MISSOUM R",
    "name_ar": null,
    "name_fr": "MISSOUM R",
    "operator": null,
    "phone": null,
    "opening_hours": null,
    "dispensing": null,
    "lat": 36.35313,
    "lng": 1.374145,
    "geo_precision": "osm_node",
    "address": null,
    "wilaya_code": "02",
    "wilaya": "Chlef",
    "wilaya_ar": "الشلف",
    "commune": "Benairia",
    "commune_code": 203,
    "id": "02-00049"
  },
  {
    "source": "osm",
    "osm_id": "node/11937068469",
    "name": "MISSOUM BENZINE H",
    "name_ar": null,
    "name_fr": "MISSOUM BENZINE H",
    "operator": null,
    "phone": null,
    "opening_hours": null,
    "dispensing": null,
    "lat": 36.199188,
    "lng": 1.263432,
    "geo_precision": "osm_node",
    "address": null,
    "wilaya_code": "02",
    "wilaya": "Chlef",
    "wilaya_ar": "الشلف",
    "commune": "Ouled Fares",
    "commune_code": 210,
    "id": "02-00050"
  },
  {
    "source": "osm",
    "osm_id": "node/12294795828",
    "name": "مصابيح",
    "name_ar": "مصابيح",
    "name_fr": "Pharmacie Messabih",
    "operator": null,
    "phone": "027713293",
    "opening_hours": "Mo-Su 08:00-24:00",
    "dispensing": null,
    "lat": 36.308987,
    "lng": 1.245651,
    "geo_precision": "osm_node",
    "address": null,
    "wilaya_code": "02",
    "wilaya": "Chlef",
    "wilaya_ar": "الشلف",
    "commune": "Tadjena",
    "commune_code": 205,
    "id": "02-00051"
  },
  {
    "source": "osm",
    "osm_id": "node/12596703262",
    "name": "pharmacie brahim azzouz",
    "name_ar": null,
    "name_fr": "pharmacie brahim azzouz",
    "operator": null,
    "phone": null,
    "opening_hours": null,
    "dispensing": null,
    "lat": 36.14592,
    "lng": 1.329191,
    "geo_precision": "osm_node",
    "address": "02000",
    "wilaya_code": "02",
    "wilaya": "Chlef",
    "wilaya_ar": "الشلف",
    "commune": "Chlef",
    "commune_code": 201,
    "id": "02-00052"
  },
  {
    "source": "osm",
    "osm_id": "node/12609768570",
    "name": "سفيان",
    "name_ar": "سفيان",
    "name_fr": "Pharmacien soufian",
    "operator": "Pharmacien",
    "phone": null,
    "opening_hours": null,
    "dispensing": null,
    "lat": 36.145477,
    "lng": 1.322025,
    "geo_precision": "osm_node",
    "address": "rond point",
    "wilaya_code": "02",
    "wilaya": "Chlef",
    "wilaya_ar": "الشلف",
    "commune": "Chlef",
    "commune_code": 201,
    "id": "02-00053"
  },
  {
    "source": "osm",
    "osm_id": "node/13327567501",
    "name": "pharmacie Bouzana Abdelhadi",
    "name_ar": null,
    "name_fr": "pharmacie Bouzana Abdelhadi",
    "operator": null,
    "phone": "0562823155",
    "opening_hours": "Mo-Su 07:00-00:00",
    "dispensing": null,
    "lat": 36.066023,
    "lng": 1.130336,
    "geo_precision": "osm_node",
    "address": "Cité Frères Belgaid Boukadir Chlef, 02002",
    "wilaya_code": "02",
    "wilaya": "Chlef",
    "wilaya_ar": "الشلف",
    "commune": "Boukadir",
    "commune_code": 212,
    "id": "02-00054"
  },
  {
    "source": "osm",
    "osm_id": "node/13563946603",
    "name": "Ali Arous H Pharmacy صيدلية علي عروس ح",
    "name_ar": "علي عروس ح",
    "name_fr": null,
    "operator": null,
    "phone": null,
    "opening_hours": null,
    "dispensing": null,
    "lat": 36.17083,
    "lng": 1.363239,
    "geo_precision": "osm_node",
    "address": null,
    "wilaya_code": "02",
    "wilaya": "Chlef",
    "wilaya_ar": "الشلف",
    "commune": "Chlef",
    "commune_code": 201,
    "id": "02-00055"
  },
  {
    "source": "osm",
    "osm_id": "node/3160142909",
    "name": "Pharmacie Belhadia",
    "name_ar": null,
    "name_fr": "Pharmacie Belhadia",
    "operator": "Belhadia",
    "phone": null,
    "opening_hours": null,
    "dispensing": null,
    "lat": 36.188842,
    "lng": 1.533904,
    "geo_precision": "osm_node",
    "address": "RN4, Oued Fodda 02100",
    "wilaya_code": "02",
    "wilaya": "Chlef",
    "wilaya_ar": "الشلف",
    "commune": "Oued Fodda",
    "commune_code": 229,
    "id": "02-00056"
  },
  {
    "source": "osm",
    "osm_id": "node/3937335917",
    "name": null,
    "name_ar": null,
    "name_fr": null,
    "operator": null,
    "phone": null,
    "opening_hours": null,
    "dispensing": null,
    "lat": 36.461818,
    "lng": 1.303381,
    "geo_precision": "osm_node",
    "address": "سيدي عكاشة",
    "wilaya_code": "02",
    "wilaya": "Chlef",
    "wilaya_ar": "الشلف",
    "commune": "Sidi Akkacha",
    "commune_code": 211,
    "id": "02-00057"
  },
  {
    "source": "osm",
    "osm_id": "node/3938032198",
    "name": "بن عبورة",
    "name_ar": "بن عبورة",
    "name_fr": "Pharmacie Benaboura",
    "operator": ". بن عبورة",
    "phone": null,
    "opening_hours": null,
    "dispensing": true,
    "lat": 36.502215,
    "lng": 1.25447,
    "geo_precision": "osm_node",
    "address": "وادي القصب, تنس",
    "wilaya_code": "02",
    "wilaya": "Chlef",
    "wilaya_ar": "الشلف",
    "commune": "Tenes",
    "commune_code": 202,
    "id": "02-00058"
  },
  {
    "source": "osm",
    "osm_id": "node/4041045117",
    "name": "Pharmacie Lazaar",
    "name_ar": null,
    "name_fr": "Pharmacie Lazaar",
    "operator": null,
    "phone": null,
    "opening_hours": null,
    "dispensing": null,
    "lat": 36.068253,
    "lng": 1.125445,
    "geo_precision": "osm_node",
    "address": null,
    "wilaya_code": "02",
    "wilaya": "Chlef",
    "wilaya_ar": "الشلف",
    "commune": "Boukadir",
    "commune_code": 212,
    "id": "02-00059"
  },
  {
    "source": "osm",
    "osm_id": "node/4042079205",
    "name": "Pharmacie Taleb",
    "name_ar": null,
    "name_fr": "Pharmacie Taleb",
    "operator": null,
    "phone": null,
    "opening_hours": null,
    "dispensing": true,
    "lat": 36.066278,
    "lng": 1.126501,
    "geo_precision": "osm_node",
    "address": null,
    "wilaya_code": "02",
    "wilaya": "Chlef",
    "wilaya_ar": "الشلف",
    "commune": "Boukadir",
    "commune_code": 212,
    "id": "02-00060"
  },
  {
    "source": "osm",
    "osm_id": "node/4144884590",
    "name": "Pharmacie 3847",
    "name_ar": null,
    "name_fr": "Pharmacie 3847",
    "operator": null,
    "phone": null,
    "opening_hours": null,
    "dispensing": true,
    "lat": 36.531383,
    "lng": 1.57044,
    "geo_precision": "osm_node",
    "address": null,
    "wilaya_code": "02",
    "wilaya": "Chlef",
    "wilaya_ar": "الشلف",
    "commune": "Beni Haoua",
    "commune_code": 207,
    "id": "02-00061"
  },
  {
    "source": "osm",
    "osm_id": "node/4310053290",
    "name": "Pharmacie Fettah",
    "name_ar": null,
    "name_fr": "Pharmacie Fettah",
    "operator": null,
    "phone": null,
    "opening_hours": "24/7",
    "dispensing": null,
    "lat": 36.182934,
    "lng": 1.534051,
    "geo_precision": "osm_node",
    "address": "02003",
    "wilaya_code": "02",
    "wilaya": "Chlef",
    "wilaya_ar": "الشلف",
    "commune": "Oued Fodda",
    "commune_code": 229,
    "id": "02-00062"
  },
  {
    "source": "osm",
    "osm_id": "node/4310071589",
    "name": "Fettah",
    "name_ar": null,
    "name_fr": "Fettah",
    "operator": null,
    "phone": null,
    "opening_hours": null,
    "dispensing": null,
    "lat": 36.182997,
    "lng": 1.53415,
    "geo_precision": "osm_node",
    "address": "02003",
    "wilaya_code": "02",
    "wilaya": "Chlef",
    "wilaya_ar": "الشلف",
    "commune": "Oued Fodda",
    "commune_code": 229,
    "id": "02-00063"
  },
  {
    "source": "osm",
    "osm_id": "node/4391855891",
    "name": null,
    "name_ar": null,
    "name_fr": null,
    "operator": null,
    "phone": null,
    "opening_hours": null,
    "dispensing": null,
    "lat": 36.277269,
    "lng": 1.520452,
    "geo_precision": "osm_node",
    "address": null,
    "wilaya_code": "02",
    "wilaya": "Chlef",
    "wilaya_ar": "الشلف",
    "commune": "Beni Rached",
    "commune_code": 213,
    "id": "02-00064"
  },
  {
    "source": "osm",
    "osm_id": "node/4428910292",
    "name": "حميدي بوجلطية",
    "name_ar": "حميدي بوجلطية",
    "name_fr": "Pharmacie hemidi",
    "operator": null,
    "phone": null,
    "opening_hours": null,
    "dispensing": null,
    "lat": 36.325522,
    "lng": 1.138771,
    "geo_precision": "osm_node",
    "address": null,
    "wilaya_code": "02",
    "wilaya": "Chlef",
    "wilaya_ar": "الشلف",
    "commune": "Bouzeghaia",
    "commune_code": 231,
    "id": "02-00065"
  },
  {
    "source": "osm",
    "osm_id": "node/4428910293",
    "name": "Centre de prévention",
    "name_ar": null,
    "name_fr": "Centre de prévention",
    "operator": null,
    "phone": null,
    "opening_hours": null,
    "dispensing": null,
    "lat": 36.325073,
    "lng": 1.138818,
    "geo_precision": "osm_node",
    "address": null,
    "wilaya_code": "02",
    "wilaya": "Chlef",
    "wilaya_ar": "الشلف",
    "commune": "Bouzeghaia",
    "commune_code": 231,
    "id": "02-00066"
  },
  {
    "source": "osm",
    "osm_id": "node/4474677990",
    "name": null,
    "name_ar": null,
    "name_fr": null,
    "operator": null,
    "phone": null,
    "opening_hours": null,
    "dispensing": null,
    "lat": 36.276204,
    "lng": 1.52257,
    "geo_precision": "osm_node",
    "address": null,
    "wilaya_code": "02",
    "wilaya": "Chlef",
    "wilaya_ar": "الشلف",
    "commune": "Beni Rached",
    "commune_code": 213,
    "id": "02-00067"
  },
  {
    "source": "osm",
    "osm_id": "node/4511166391",
    "name": null,
    "name_ar": null,
    "name_fr": null,
    "operator": null,
    "phone": null,
    "opening_hours": null,
    "dispensing": null,
    "lat": 36.229376,
    "lng": 1.233689,
    "geo_precision": "osm_node",
    "address": "أولاد فارس",
    "wilaya_code": "02",
    "wilaya": "Chlef",
    "wilaya_ar": "الشلف",
    "commune": "Ouled Fares",
    "commune_code": 210,
    "id": "02-00068"
  },
  {
    "source": "osm",
    "osm_id": "node/4582564993",
    "name": null,
    "name_ar": null,
    "name_fr": null,
    "operator": null,
    "phone": null,
    "opening_hours": null,
    "dispensing": null,
    "lat": 36.16509,
    "lng": 1.342148,
    "geo_precision": "osm_node",
    "address": null,
    "wilaya_code": "02",
    "wilaya": "Chlef",
    "wilaya_ar": "الشلف",
    "commune": "Chlef",
    "commune_code": 201,
    "id": "02-00069"
  },
  {
    "source": "osm",
    "osm_id": "node/4624142489",
    "name": null,
    "name_ar": null,
    "name_fr": null,
    "operator": null,
    "phone": null,
    "opening_hours": null,
    "dispensing": null,
    "lat": 36.154249,
    "lng": 1.353013,
    "geo_precision": "osm_node",
    "address": null,
    "wilaya_code": "02",
    "wilaya": "Chlef",
    "wilaya_ar": "الشلف",
    "commune": "Chlef",
    "commune_code": 201,
    "id": "02-00070"
  },
  {
    "source": "osm",
    "osm_id": "node/4644300691",
    "name": "بن دريس",
    "name_ar": "بن دريس",
    "name_fr": "Pharmacie Bendris",
    "operator": null,
    "phone": null,
    "opening_hours": null,
    "dispensing": true,
    "lat": 36.067537,
    "lng": 1.132791,
    "geo_precision": "osm_node",
    "address": null,
    "wilaya_code": "02",
    "wilaya": "Chlef",
    "wilaya_ar": "الشلف",
    "commune": "Boukadir",
    "commune_code": 212,
    "id": "02-00071"
  },
  {
    "source": "osm",
    "osm_id": "node/4788423728",
    "name": null,
    "name_ar": null,
    "name_fr": null,
    "operator": null,
    "phone": null,
    "opening_hours": null,
    "dispensing": null,
    "lat": 36.203441,
    "lng": 1.255956,
    "geo_precision": "osm_node",
    "address": "Zone 09, 02170",
    "wilaya_code": "02",
    "wilaya": "Chlef",
    "wilaya_ar": "الشلف",
    "commune": "Ouled Fares",
    "commune_code": 210,
    "id": "02-00072"
  },
  {
    "source": "osm",
    "osm_id": "node/5000391221",
    "name": "إيتيم",
    "name_ar": "إيتيم",
    "name_fr": "Pharmacie Itim",
    "operator": null,
    "phone": null,
    "opening_hours": null,
    "dispensing": null,
    "lat": 36.149904,
    "lng": 1.329623,
    "geo_precision": "osm_node",
    "address": "الشلف",
    "wilaya_code": "02",
    "wilaya": "Chlef",
    "wilaya_ar": "الشلف",
    "commune": "Chlef",
    "commune_code": 201,
    "id": "02-00073"
  },
  {
    "source": "osm",
    "osm_id": "node/5000391421",
    "name": "Pharmacie Bouthiba",
    "name_ar": null,
    "name_fr": "Pharmacie Bouthiba",
    "operator": null,
    "phone": null,
    "opening_hours": null,
    "dispensing": null,
    "lat": 36.164426,
    "lng": 1.321033,
    "geo_precision": "osm_node",
    "address": null,
    "wilaya_code": "02",
    "wilaya": "Chlef",
    "wilaya_ar": "الشلف",
    "commune": "Chlef",
    "commune_code": 201,
    "id": "02-00074"
  },
  {
    "source": "osm",
    "osm_id": "node/5135751222",
    "name": "Pharmacie Chemami",
    "name_ar": null,
    "name_fr": "Pharmacie Chemami",
    "operator": null,
    "phone": null,
    "opening_hours": null,
    "dispensing": true,
    "lat": 36.164906,
    "lng": 1.333727,
    "geo_precision": "osm_node",
    "address": null,
    "wilaya_code": "02",
    "wilaya": "Chlef",
    "wilaya_ar": "الشلف",
    "commune": "Chlef",
    "commune_code": 201,
    "id": "02-00075"
  },
  {
    "source": "osm",
    "osm_id": "node/5314526857",
    "name": "Pharmacie Younes",
    "name_ar": null,
    "name_fr": "Pharmacie Younes",
    "operator": null,
    "phone": null,
    "opening_hours": null,
    "dispensing": null,
    "lat": 36.10904,
    "lng": 1.10667,
    "geo_precision": "osm_node",
    "address": null,
    "wilaya_code": "02",
    "wilaya": "Chlef",
    "wilaya_ar": "الشلف",
    "commune": "Sobha",
    "commune_code": 208,
    "id": "02-00076"
  },
  {
    "source": "osm",
    "osm_id": "node/5420966023",
    "name": "أدوية",
    "name_ar": "أدوية",
    "name_fr": "Pharmacie",
    "operator": null,
    "phone": null,
    "opening_hours": null,
    "dispensing": null,
    "lat": 36.161476,
    "lng": 0.972631,
    "geo_precision": "osm_node",
    "address": null,
    "wilaya_code": "02",
    "wilaya": "Chlef",
    "wilaya_ar": "الشلف",
    "commune": "Ain Merane",
    "commune_code": 232,
    "id": "02-00077"
  },
  {
    "source": "osm",
    "osm_id": "node/5420970421",
    "name": "أدوية",
    "name_ar": "أدوية",
    "name_fr": "Pharmacie",
    "operator": null,
    "phone": "0772195198",
    "opening_hours": null,
    "dispensing": null,
    "lat": 36.160445,
    "lng": 0.970947,
    "geo_precision": "osm_node",
    "address": null,
    "wilaya_code": "02",
    "wilaya": "Chlef",
    "wilaya_ar": "الشلف",
    "commune": "Ain Merane",
    "commune_code": 232,
    "id": "02-00078"
  },
  {
    "source": "osm",
    "osm_id": "node/5420970521",
    "name": "Pharmacie Bouchakour khaled",
    "name_ar": "أدوية",
    "name_fr": "Pharmacie Bouchakour khaled",
    "operator": null,
    "phone": null,
    "opening_hours": null,
    "dispensing": true,
    "lat": 36.16199,
    "lng": 0.96982,
    "geo_precision": "osm_node",
    "address": null,
    "wilaya_code": "02",
    "wilaya": "Chlef",
    "wilaya_ar": "الشلف",
    "commune": "Ain Merane",
    "commune_code": 232,
    "id": "02-00079"
  },
  {
    "source": "osm",
    "osm_id": "node/5420970522",
    "name": "أدوية",
    "name_ar": "أدوية",
    "name_fr": "Chouib sanaa",
    "operator": null,
    "phone": null,
    "opening_hours": null,
    "dispensing": null,
    "lat": 36.163024,
    "lng": 0.98138,
    "geo_precision": "osm_node",
    "address": null,
    "wilaya_code": "02",
    "wilaya": "Chlef",
    "wilaya_ar": "الشلف",
    "commune": "Ain Merane",
    "commune_code": 232,
    "id": "02-00080"
  },
  {
    "source": "osm",
    "osm_id": "node/5423743328",
    "name": null,
    "name_ar": null,
    "name_fr": null,
    "operator": null,
    "phone": null,
    "opening_hours": null,
    "dispensing": null,
    "lat": 36.161922,
    "lng": 0.966911,
    "geo_precision": "osm_node",
    "address": null,
    "wilaya_code": "02",
    "wilaya": "Chlef",
    "wilaya_ar": "الشلف",
    "commune": "Ain Merane",
    "commune_code": 232,
    "id": "02-00081"
  },
  {
    "source": "osm",
    "osm_id": "node/5424313825",
    "name": null,
    "name_ar": null,
    "name_fr": null,
    "operator": null,
    "phone": null,
    "opening_hours": null,
    "dispensing": null,
    "lat": 36.322476,
    "lng": 1.13603,
    "geo_precision": "osm_node",
    "address": null,
    "wilaya_code": "02",
    "wilaya": "Chlef",
    "wilaya_ar": "الشلف",
    "commune": "Bouzeghaia",
    "commune_code": 231,
    "id": "02-00082"
  },
  {
    "source": "osm",
    "osm_id": "node/5424361524",
    "name": null,
    "name_ar": null,
    "name_fr": null,
    "operator": null,
    "phone": "027 42 98 97",
    "opening_hours": null,
    "dispensing": null,
    "lat": 36.161898,
    "lng": 0.966731,
    "geo_precision": "osm_node",
    "address": null,
    "wilaya_code": "02",
    "wilaya": "Chlef",
    "wilaya_ar": "الشلف",
    "commune": "Ain Merane",
    "commune_code": 232,
    "id": "02-00083"
  },
  {
    "source": "osm",
    "osm_id": "node/5424365922",
    "name": null,
    "name_ar": null,
    "name_fr": null,
    "operator": null,
    "phone": null,
    "opening_hours": null,
    "dispensing": null,
    "lat": 36.056267,
    "lng": 1.121135,
    "geo_precision": "osm_node",
    "address": null,
    "wilaya_code": "02",
    "wilaya": "Chlef",
    "wilaya_ar": "الشلف",
    "commune": "Boukadir",
    "commune_code": 212,
    "id": "02-00084"
  },
  {
    "source": "osm",
    "osm_id": "node/5424384921",
    "name": null,
    "name_ar": null,
    "name_fr": null,
    "operator": null,
    "phone": null,
    "opening_hours": null,
    "dispensing": null,
    "lat": 36.13531,
    "lng": 1.298538,
    "geo_precision": "osm_node",
    "address": null,
    "wilaya_code": "02",
    "wilaya": "Chlef",
    "wilaya_ar": "الشلف",
    "commune": "Chlef",
    "commune_code": 201,
    "id": "02-00085"
  },
  {
    "source": "osm",
    "osm_id": "node/5424384923",
    "name": null,
    "name_ar": null,
    "name_fr": null,
    "operator": null,
    "phone": null,
    "opening_hours": null,
    "dispensing": null,
    "lat": 36.147033,
    "lng": 1.313404,
    "geo_precision": "osm_node",
    "address": null,
    "wilaya_code": "02",
    "wilaya": "Chlef",
    "wilaya_ar": "الشلف",
    "commune": "Chlef",
    "commune_code": 201,
    "id": "02-00086"
  },
  {
    "source": "osm",
    "osm_id": "node/5427647024",
    "name": null,
    "name_ar": null,
    "name_fr": null,
    "operator": null,
    "phone": null,
    "opening_hours": null,
    "dispensing": null,
    "lat": 36.406851,
    "lng": 0.918169,
    "geo_precision": "osm_node",
    "address": null,
    "wilaya_code": "02",
    "wilaya": "Chlef",
    "wilaya_ar": "الشلف",
    "commune": "El Marsa",
    "commune_code": 223,
    "id": "02-00087"
  },
  {
    "source": "osm",
    "osm_id": "node/5428421323",
    "name": null,
    "name_ar": null,
    "name_fr": null,
    "operator": null,
    "phone": null,
    "opening_hours": null,
    "dispensing": null,
    "lat": 36.230843,
    "lng": 1.233109,
    "geo_precision": "osm_node",
    "address": "أولاد فارس",
    "wilaya_code": "02",
    "wilaya": "Chlef",
    "wilaya_ar": "الشلف",
    "commune": "Ouled Fares",
    "commune_code": 210,
    "id": "02-00088"
  },
  {
    "source": "osm",
    "osm_id": "node/5428430721",
    "name": null,
    "name_ar": null,
    "name_fr": null,
    "operator": null,
    "phone": null,
    "opening_hours": null,
    "dispensing": null,
    "lat": 36.232444,
    "lng": 1.237192,
    "geo_precision": "osm_node",
    "address": "أولاد فارس",
    "wilaya_code": "02",
    "wilaya": "Chlef",
    "wilaya_ar": "الشلف",
    "commune": "Ouled Fares",
    "commune_code": 210,
    "id": "02-00089"
  },
  {
    "source": "osm",
    "osm_id": "node/5428453221",
    "name": null,
    "name_ar": null,
    "name_fr": null,
    "operator": null,
    "phone": null,
    "opening_hours": null,
    "dispensing": null,
    "lat": 36.158915,
    "lng": 0.964885,
    "geo_precision": "osm_node",
    "address": null,
    "wilaya_code": "02",
    "wilaya": "Chlef",
    "wilaya_ar": "الشلف",
    "commune": "Ain Merane",
    "commune_code": 232,
    "id": "02-00090"
  },
  {
    "source": "osm",
    "osm_id": "node/5428581521",
    "name": null,
    "name_ar": null,
    "name_fr": null,
    "operator": null,
    "phone": null,
    "opening_hours": null,
    "dispensing": null,
    "lat": 36.255688,
    "lng": 0.850247,
    "geo_precision": "osm_node",
    "address": null,
    "wilaya_code": "02",
    "wilaya": "Chlef",
    "wilaya_ar": "الشلف",
    "commune": "Dahra",
    "commune_code": 217,
    "id": "02-00091"
  },
  {
    "source": "osm",
    "osm_id": "node/5555201625",
    "name": "Adda Mohamed",
    "name_ar": null,
    "name_fr": "Adda Mohamed",
    "operator": null,
    "phone": null,
    "opening_hours": null,
    "dispensing": null,
    "lat": 36.097241,
    "lng": 1.2251,
    "geo_precision": "osm_node",
    "address": null,
    "wilaya_code": "02",
    "wilaya": "Chlef",
    "wilaya_ar": "الشلف",
    "commune": "Oued Sly",
    "commune_code": 221,
    "id": "02-00092"
  },
  {
    "source": "osm",
    "osm_id": "node/5555214721",
    "name": "Tahmi ismail",
    "name_ar": null,
    "name_fr": "Tahmi ismail",
    "operator": null,
    "phone": null,
    "opening_hours": null,
    "dispensing": null,
    "lat": 36.161366,
    "lng": 1.317388,
    "geo_precision": "osm_node",
    "address": null,
    "wilaya_code": "02",
    "wilaya": "Chlef",
    "wilaya_ar": "الشلف",
    "commune": "Chlef",
    "commune_code": 201,
    "id": "02-00093"
  },
  {
    "source": "osm",
    "osm_id": "node/5555223821",
    "name": "Tsabet mosaab",
    "name_ar": null,
    "name_fr": "Tsabet mosaab",
    "operator": null,
    "phone": null,
    "opening_hours": null,
    "dispensing": null,
    "lat": 36.214502,
    "lng": 1.277052,
    "geo_precision": "osm_node",
    "address": null,
    "wilaya_code": "02",
    "wilaya": "Chlef",
    "wilaya_ar": "الشلف",
    "commune": "Ouled Fares",
    "commune_code": 210,
    "id": "02-00094"
  },
  {
    "source": "osm",
    "osm_id": "node/5556240132",
    "name": "الهادي",
    "name_ar": "الهادي",
    "name_fr": "MERBOUH Elhadi",
    "operator": "cnas-casnos-militaire",
    "phone": "027740709",
    "opening_hours": "Mo-Su 08:00-22:00",
    "dispensing": null,
    "lat": 36.062423,
    "lng": 1.119929,
    "geo_precision": "osm_node",
    "address": "Rue N°04 Boukadir",
    "wilaya_code": "02",
    "wilaya": "Chlef",
    "wilaya_ar": "الشلف",
    "commune": "Boukadir",
    "commune_code": 212,
    "id": "02-00095"
  },
  {
    "source": "osm",
    "osm_id": "node/5556254734",
    "name": "عبد الكريم",
    "name_ar": "عبد الكريم",
    "name_fr": "Saber Abdelkrim",
    "operator": null,
    "phone": null,
    "opening_hours": "Mo-Su 08:00-22:00",
    "dispensing": null,
    "lat": 36.063289,
    "lng": 1.122303,
    "geo_precision": "osm_node",
    "address": "Rue national N° 04 : 06 Boukadir",
    "wilaya_code": "02",
    "wilaya": "Chlef",
    "wilaya_ar": "الشلف",
    "commune": "Boukadir",
    "commune_code": 212,
    "id": "02-00096"
  },
  {
    "source": "osm",
    "osm_id": "node/5556277740",
    "name": "Khalfi ahmed",
    "name_ar": null,
    "name_fr": "Khalfi ahmed",
    "operator": null,
    "phone": null,
    "opening_hours": null,
    "dispensing": null,
    "lat": 36.067376,
    "lng": 1.130212,
    "geo_precision": "osm_node",
    "address": null,
    "wilaya_code": "02",
    "wilaya": "Chlef",
    "wilaya_ar": "الشلف",
    "commune": "Boukadir",
    "commune_code": 212,
    "id": "02-00097"
  },
  {
    "source": "osm",
    "osm_id": "node/5558883222",
    "name": "سارة",
    "name_ar": "سارة",
    "name_fr": "Daoudd sara",
    "operator": "cnas-casnos",
    "phone": null,
    "opening_hours": null,
    "dispensing": null,
    "lat": 36.056029,
    "lng": 1.121113,
    "geo_precision": "osm_node",
    "address": "hay ben dacha el merainia boukadir",
    "wilaya_code": "02",
    "wilaya": "Chlef",
    "wilaya_ar": "الشلف",
    "commune": "Boukadir",
    "commune_code": 212,
    "id": "02-00098"
  },
  {
    "source": "osm",
    "osm_id": "node/5602709721",
    "name": "Djilali Berkene Kaddour",
    "name_ar": "بركان قدور",
    "name_fr": "Djilali Berkene Kaddour",
    "operator": null,
    "phone": null,
    "opening_hours": null,
    "dispensing": null,
    "lat": 36.064253,
    "lng": 1.124874,
    "geo_precision": "osm_node",
    "address": null,
    "wilaya_code": "02",
    "wilaya": "Chlef",
    "wilaya_ar": "الشلف",
    "commune": "Boukadir",
    "commune_code": 212,
    "id": "02-00099"
  },
  {
    "source": "osm",
    "osm_id": "node/5774236553",
    "name": null,
    "name_ar": null,
    "name_fr": null,
    "operator": null,
    "phone": null,
    "opening_hours": null,
    "dispensing": null,
    "lat": 36.24632,
    "lng": 0.922641,
    "geo_precision": "osm_node",
    "address": null,
    "wilaya_code": "02",
    "wilaya": "Chlef",
    "wilaya_ar": "الشلف",
    "commune": "Taougrit",
    "commune_code": 206,
    "id": "02-00100"
  },
  {
    "source": "osm",
    "osm_id": "node/5774236653",
    "name": null,
    "name_ar": null,
    "name_fr": null,
    "operator": null,
    "phone": null,
    "opening_hours": null,
    "dispensing": null,
    "lat": 36.244515,
    "lng": 0.92191,
    "geo_precision": "osm_node",
    "address": null,
    "wilaya_code": "02",
    "wilaya": "Chlef",
    "wilaya_ar": "الشلف",
    "commune": "Taougrit",
    "commune_code": 206,
    "id": "02-00101"
  },
  {
    "source": "osm",
    "osm_id": "node/6601156985",
    "name": "شعبان فايزة",
    "name_ar": "شعبان فايزة",
    "name_fr": "BENCHAABANE Faiza",
    "operator": null,
    "phone": null,
    "opening_hours": null,
    "dispensing": null,
    "lat": 36.248785,
    "lng": 0.924394,
    "geo_precision": "osm_node",
    "address": null,
    "wilaya_code": "02",
    "wilaya": "Chlef",
    "wilaya_ar": "الشلف",
    "commune": "Taougrit",
    "commune_code": 206,
    "id": "02-00102"
  },
  {
    "source": "osm",
    "osm_id": "node/6601162585",
    "name": "عبد الرحمان",
    "name_ar": "عبد الرحمان",
    "name_fr": "MELLOUK Abderrahmane",
    "operator": null,
    "phone": null,
    "opening_hours": null,
    "dispensing": null,
    "lat": 36.249043,
    "lng": 1.049271,
    "geo_precision": "osm_node",
    "address": null,
    "wilaya_code": "02",
    "wilaya": "Chlef",
    "wilaya_ar": "الشلف",
    "commune": "Herenfa",
    "commune_code": 215,
    "id": "02-00103"
  },
  {
    "source": "osm",
    "osm_id": "node/6601166085",
    "name": "عبد الرحمان",
    "name_ar": "عبد الرحمان",
    "name_fr": "HANIFI Abderrahmane",
    "operator": null,
    "phone": null,
    "opening_hours": null,
    "dispensing": null,
    "lat": 36.416813,
    "lng": 1.194707,
    "geo_precision": "osm_node",
    "address": null,
    "wilaya_code": "02",
    "wilaya": "Chlef",
    "wilaya_ar": "الشلف",
    "commune": "Abou El Hassane",
    "commune_code": 222,
    "id": "02-00104"
  },
  {
    "source": "osm",
    "osm_id": "node/6601176785",
    "name": "ڨ شبرة",
    "name_ar": "ڨ شبرة الجيلالي",
    "name_fr": "FELLAG CHABRA ELDJILALI",
    "operator": null,
    "phone": null,
    "opening_hours": null,
    "dispensing": null,
    "lat": 36.351702,
    "lng": 1.428566,
    "geo_precision": "osm_node",
    "address": null,
    "wilaya_code": "02",
    "wilaya": "Chlef",
    "wilaya_ar": "الشلف",
    "commune": "Zeboudja",
    "commune_code": 220,
    "id": "02-00105"
  },
  {
    "source": "osm",
    "osm_id": "node/8583898118",
    "name": "BOUZID R",
    "name_ar": null,
    "name_fr": "BOUZID R",
    "operator": null,
    "phone": null,
    "opening_hours": null,
    "dispensing": null,
    "lat": 36.478332,
    "lng": 1.31618,
    "geo_precision": "osm_node",
    "address": null,
    "wilaya_code": "02",
    "wilaya": "Chlef",
    "wilaya_ar": "الشلف",
    "commune": "Sidi Akkacha",
    "commune_code": 211,
    "id": "02-00106"
  },
  {
    "source": "osm",
    "osm_id": "node/8583898119",
    "name": "El Houari",
    "name_ar": null,
    "name_fr": "El Houari",
    "operator": null,
    "phone": null,
    "opening_hours": null,
    "dispensing": null,
    "lat": 36.514805,
    "lng": 1.313965,
    "geo_precision": "osm_node",
    "address": null,
    "wilaya_code": "02",
    "wilaya": "Chlef",
    "wilaya_ar": "الشلف",
    "commune": "Tenes",
    "commune_code": 202,
    "id": "02-00107"
  },
  {
    "source": "osm",
    "osm_id": "node/8583898219",
    "name": "Abdellah F",
    "name_ar": null,
    "name_fr": "Abdellah F",
    "operator": null,
    "phone": null,
    "opening_hours": null,
    "dispensing": null,
    "lat": 36.503385,
    "lng": 1.280906,
    "geo_precision": "osm_node",
    "address": null,
    "wilaya_code": "02",
    "wilaya": "Chlef",
    "wilaya_ar": "الشلف",
    "commune": "Tenes",
    "commune_code": 202,
    "id": "02-00108"
  },
  {
    "source": "osm",
    "osm_id": "node/8583898222",
    "name": "BOUTHELDJA KH",
    "name_ar": null,
    "name_fr": "BOUTHELDJA KH",
    "operator": null,
    "phone": null,
    "opening_hours": null,
    "dispensing": null,
    "lat": 36.176476,
    "lng": 1.491476,
    "geo_precision": "osm_node",
    "address": null,
    "wilaya_code": "02",
    "wilaya": "Chlef",
    "wilaya_ar": "الشلف",
    "commune": "Ouled Abbes",
    "commune_code": 218,
    "id": "02-00109"
  },
  {
    "source": "osm",
    "osm_id": "node/8583898223",
    "name": "Bouziane Aek",
    "name_ar": null,
    "name_fr": "Bouziane Aek",
    "operator": null,
    "phone": null,
    "opening_hours": null,
    "dispensing": null,
    "lat": 36.198618,
    "lng": 1.388269,
    "geo_precision": "osm_node",
    "address": null,
    "wilaya_code": "02",
    "wilaya": "Chlef",
    "wilaya_ar": "الشلف",
    "commune": "Oum Drou",
    "commune_code": 233,
    "id": "02-00110"
  },
  {
    "source": "osm",
    "osm_id": "node/8583898317",
    "name": "Katrane",
    "name_ar": null,
    "name_fr": "Katrane",
    "operator": null,
    "phone": null,
    "opening_hours": null,
    "dispensing": null,
    "lat": 36.508477,
    "lng": 1.302931,
    "geo_precision": "osm_node",
    "address": null,
    "wilaya_code": "02",
    "wilaya": "Chlef",
    "wilaya_ar": "الشلف",
    "commune": "Tenes",
    "commune_code": 202,
    "id": "02-00111"
  },
  {
    "source": "osm",
    "osm_id": "node/8583898417",
    "name": "Amamra Z",
    "name_ar": null,
    "name_fr": "Amamra Z",
    "operator": null,
    "phone": null,
    "opening_hours": null,
    "dispensing": null,
    "lat": 36.502576,
    "lng": 1.278678,
    "geo_precision": "osm_node",
    "address": null,
    "wilaya_code": "02",
    "wilaya": "Chlef",
    "wilaya_ar": "الشلف",
    "commune": "Tenes",
    "commune_code": 202,
    "id": "02-00112"
  },
  {
    "source": "osm",
    "osm_id": "node/8583898818",
    "name": "BENGRIBA F",
    "name_ar": null,
    "name_fr": "BENGRIBA F",
    "operator": null,
    "phone": null,
    "opening_hours": null,
    "dispensing": null,
    "lat": 36.174363,
    "lng": 1.492461,
    "geo_precision": "osm_node",
    "address": null,
    "wilaya_code": "02",
    "wilaya": "Chlef",
    "wilaya_ar": "الشلف",
    "commune": "Ouled Abbes",
    "commune_code": 218,
    "id": "02-00113"
  },
  {
    "source": "osm",
    "osm_id": "node/8592092317",
    "name": "Mouri",
    "name_ar": null,
    "name_fr": "Mouri",
    "operator": null,
    "phone": null,
    "opening_hours": null,
    "dispensing": null,
    "lat": 36.507936,
    "lng": 1.305409,
    "geo_precision": "osm_node",
    "address": null,
    "wilaya_code": "02",
    "wilaya": "Chlef",
    "wilaya_ar": "الشلف",
    "commune": "Tenes",
    "commune_code": 202,
    "id": "02-00114"
  },
  {
    "source": "osm",
    "osm_id": "node/8592092917",
    "name": "Ali faudil n",
    "name_ar": null,
    "name_fr": "Ali faudil n",
    "operator": null,
    "phone": null,
    "opening_hours": null,
    "dispensing": null,
    "lat": 36.185517,
    "lng": 1.251989,
    "geo_precision": "osm_node",
    "address": null,
    "wilaya_code": "02",
    "wilaya": "Chlef",
    "wilaya_ar": "الشلف",
    "commune": "Chettia",
    "commune_code": 224,
    "id": "02-00115"
  },
  {
    "source": "osm",
    "osm_id": "node/8593424917",
    "name": "Tarfaoui m",
    "name_ar": null,
    "name_fr": "Tarfaoui m",
    "operator": null,
    "phone": null,
    "opening_hours": null,
    "dispensing": null,
    "lat": 36.193262,
    "lng": 1.250485,
    "geo_precision": "osm_node",
    "address": null,
    "wilaya_code": "02",
    "wilaya": "Chlef",
    "wilaya_ar": "الشلف",
    "commune": "Chettia",
    "commune_code": 224,
    "id": "02-00116"
  },
  {
    "source": "osm",
    "osm_id": "node/8593425017",
    "name": "Tarfaoui N",
    "name_ar": null,
    "name_fr": "Tarfaoui N",
    "operator": null,
    "phone": null,
    "opening_hours": null,
    "dispensing": null,
    "lat": 36.189754,
    "lng": 1.249999,
    "geo_precision": "osm_node",
    "address": null,
    "wilaya_code": "02",
    "wilaya": "Chlef",
    "wilaya_ar": "الشلف",
    "commune": "Chettia",
    "commune_code": 224,
    "id": "02-00117"
  },
  {
    "source": "osm",
    "osm_id": "node/8593425018",
    "name": "Khalil h",
    "name_ar": null,
    "name_fr": "Khalil h",
    "operator": null,
    "phone": null,
    "opening_hours": null,
    "dispensing": null,
    "lat": 36.19359,
    "lng": 1.252338,
    "geo_precision": "osm_node",
    "address": null,
    "wilaya_code": "02",
    "wilaya": "Chlef",
    "wilaya_ar": "الشلف",
    "commune": "Chettia",
    "commune_code": 224,
    "id": "02-00118"
  },
  {
    "source": "osm",
    "osm_id": "node/8595468217",
    "name": "Bachir lazaar dj",
    "name_ar": null,
    "name_fr": "Bachir lazaar dj",
    "operator": null,
    "phone": null,
    "opening_hours": null,
    "dispensing": null,
    "lat": 36.066619,
    "lng": 1.124116,
    "geo_precision": "osm_node",
    "address": null,
    "wilaya_code": "02",
    "wilaya": "Chlef",
    "wilaya_ar": "الشلف",
    "commune": "Boukadir",
    "commune_code": 212,
    "id": "02-00119"
  },
  {
    "source": "osm",
    "osm_id": "node/8596154717",
    "name": "Saidi M.A",
    "name_ar": null,
    "name_fr": "Saidi M.A",
    "operator": null,
    "phone": null,
    "opening_hours": null,
    "dispensing": null,
    "lat": 36.337005,
    "lng": 1.239886,
    "geo_precision": "osm_node",
    "address": null,
    "wilaya_code": "02",
    "wilaya": "Chlef",
    "wilaya_ar": "الشلف",
    "commune": "Abou El Hassane",
    "commune_code": 222,
    "id": "02-00120"
  },
  {
    "source": "osm",
    "osm_id": "node/8596774618",
    "name": "CHABANE F",
    "name_ar": null,
    "name_fr": "CHABANE F",
    "operator": null,
    "phone": null,
    "opening_hours": null,
    "dispensing": null,
    "lat": 36.067327,
    "lng": 1.112492,
    "geo_precision": "osm_node",
    "address": null,
    "wilaya_code": "02",
    "wilaya": "Chlef",
    "wilaya_ar": "الشلف",
    "commune": "Boukadir",
    "commune_code": 212,
    "id": "02-00121"
  },
  {
    "source": "osm",
    "osm_id": "node/8603064617",
    "name": "Lakouas w",
    "name_ar": null,
    "name_fr": "Lakouas w",
    "operator": null,
    "phone": null,
    "opening_hours": null,
    "dispensing": null,
    "lat": 36.202111,
    "lng": 1.252541,
    "geo_precision": "osm_node",
    "address": null,
    "wilaya_code": "02",
    "wilaya": "Chlef",
    "wilaya_ar": "الشلف",
    "commune": "Ouled Fares",
    "commune_code": 210,
    "id": "02-00122"
  },
  {
    "source": "osm",
    "osm_id": "node/8617693917",
    "name": "ABADNI Fadhila",
    "name_ar": null,
    "name_fr": "ABADNI Fadhila",
    "operator": null,
    "phone": null,
    "opening_hours": null,
    "dispensing": null,
    "lat": 36.16788,
    "lng": 1.337333,
    "geo_precision": "osm_node",
    "address": null,
    "wilaya_code": "02",
    "wilaya": "Chlef",
    "wilaya_ar": "الشلف",
    "commune": "Chlef",
    "commune_code": 201,
    "id": "02-00123"
  },
  {
    "source": "osm",
    "osm_id": "node/8623131717",
    "name": "FELLAG ARIOUAT S",
    "name_ar": null,
    "name_fr": "FELLAG ARIOUAT S",
    "operator": null,
    "phone": null,
    "opening_hours": null,
    "dispensing": null,
    "lat": 36.134877,
    "lng": 1.356299,
    "geo_precision": "osm_node",
    "address": null,
    "wilaya_code": "02",
    "wilaya": "Chlef",
    "wilaya_ar": "الشلف",
    "commune": "Chlef",
    "commune_code": 201,
    "id": "02-00124"
  },
  {
    "source": "osm",
    "osm_id": "node/8623192017",
    "name": "Djadaouadji M",
    "name_ar": null,
    "name_fr": "Djadaouadji M",
    "operator": null,
    "phone": null,
    "opening_hours": null,
    "dispensing": null,
    "lat": 36.160553,
    "lng": 0.968453,
    "geo_precision": "osm_node",
    "address": null,
    "wilaya_code": "02",
    "wilaya": "Chlef",
    "wilaya_ar": "الشلف",
    "commune": "Ain Merane",
    "commune_code": 232,
    "id": "02-00125"
  },
  {
    "source": "osm",
    "osm_id": "node/8625851818",
    "name": "BENZEGANE",
    "name_ar": null,
    "name_fr": "BENZEGANE",
    "operator": null,
    "phone": null,
    "opening_hours": null,
    "dispensing": null,
    "lat": 36.162007,
    "lng": 0.970328,
    "geo_precision": "osm_node",
    "address": null,
    "wilaya_code": "02",
    "wilaya": "Chlef",
    "wilaya_ar": "الشلف",
    "commune": "Ain Merane",
    "commune_code": 232,
    "id": "02-00126"
  },
  {
    "source": "osm",
    "osm_id": "node/8631946717",
    "name": "Baadani S",
    "name_ar": null,
    "name_fr": "Baadani S",
    "operator": null,
    "phone": null,
    "opening_hours": null,
    "dispensing": null,
    "lat": 36.061106,
    "lng": 1.401952,
    "geo_precision": "osm_node",
    "address": null,
    "wilaya_code": "02",
    "wilaya": "Chlef",
    "wilaya_ar": "الشلف",
    "commune": "El Hadjadj",
    "commune_code": 227,
    "id": "02-00127"
  },
  {
    "source": "osm",
    "osm_id": "node/8632395317",
    "name": "NADOUR B",
    "name_ar": null,
    "name_fr": "NADOUR B",
    "operator": null,
    "phone": null,
    "opening_hours": null,
    "dispensing": null,
    "lat": 36.191801,
    "lng": 1.249498,
    "geo_precision": "osm_node",
    "address": null,
    "wilaya_code": "02",
    "wilaya": "Chlef",
    "wilaya_ar": "الشلف",
    "commune": "Chettia",
    "commune_code": 224,
    "id": "02-00128"
  },
  {
    "source": "osm",
    "osm_id": "node/8632532918",
    "name": "Bouguerra",
    "name_ar": null,
    "name_fr": "Bouguerra",
    "operator": null,
    "phone": null,
    "opening_hours": null,
    "dispensing": null,
    "lat": 36.134748,
    "lng": 1.28593,
    "geo_precision": "osm_node",
    "address": null,
    "wilaya_code": "02",
    "wilaya": "Chlef",
    "wilaya_ar": "الشلف",
    "commune": "Chettia",
    "commune_code": 224,
    "id": "02-00129"
  },
  {
    "source": "osm",
    "osm_id": "node/8640258020",
    "name": "TIAB M",
    "name_ar": null,
    "name_fr": "TIAB M",
    "operator": null,
    "phone": null,
    "opening_hours": null,
    "dispensing": null,
    "lat": 36.186234,
    "lng": 1.534228,
    "geo_precision": "osm_node",
    "address": null,
    "wilaya_code": "02",
    "wilaya": "Chlef",
    "wilaya_ar": "الشلف",
    "commune": "Oued Fodda",
    "commune_code": 229,
    "id": "02-00130"
  },
  {
    "source": "osm",
    "osm_id": "node/8652480017",
    "name": "Bouali b",
    "name_ar": null,
    "name_fr": "Bouali b",
    "operator": null,
    "phone": null,
    "opening_hours": null,
    "dispensing": null,
    "lat": 36.1623,
    "lng": 1.3616,
    "geo_precision": "osm_node",
    "address": null,
    "wilaya_code": "02",
    "wilaya": "Chlef",
    "wilaya_ar": "الشلف",
    "commune": "Chlef",
    "commune_code": 201,
    "id": "02-00131"
  },
  {
    "source": "osm",
    "osm_id": "node/8697247817",
    "name": "HACHEMI A",
    "name_ar": null,
    "name_fr": "HACHEMI A",
    "operator": null,
    "phone": null,
    "opening_hours": null,
    "dispensing": null,
    "lat": 36.182659,
    "lng": 1.256494,
    "geo_precision": "osm_node",
    "address": null,
    "wilaya_code": "02",
    "wilaya": "Chlef",
    "wilaya_ar": "الشلف",
    "commune": "Chettia",
    "commune_code": 224,
    "id": "02-00132"
  },
  {
    "source": "osm",
    "osm_id": "node/8701516217",
    "name": "Ouarem Ilyas",
    "name_ar": null,
    "name_fr": "Ouarem Ilyas",
    "operator": null,
    "phone": null,
    "opening_hours": null,
    "dispensing": null,
    "lat": 36.242622,
    "lng": 1.04683,
    "geo_precision": "osm_node",
    "address": null,
    "wilaya_code": "02",
    "wilaya": "Chlef",
    "wilaya_ar": "الشلف",
    "commune": "Herenfa",
    "commune_code": 215,
    "id": "02-00133"
  },
  {
    "source": "osm",
    "osm_id": "node/8702457417",
    "name": "BEKHOUKHA K",
    "name_ar": null,
    "name_fr": "BEKHOUKHA K",
    "operator": null,
    "phone": null,
    "opening_hours": null,
    "dispensing": null,
    "lat": 36.333551,
    "lng": 1.241154,
    "geo_precision": "osm_node",
    "address": null,
    "wilaya_code": "02",
    "wilaya": "Chlef",
    "wilaya_ar": "الشلف",
    "commune": "Abou El Hassane",
    "commune_code": 222,
    "id": "02-00134"
  },
  {
    "source": "osm",
    "osm_id": "node/8738969618",
    "name": "Bot",
    "name_ar": null,
    "name_fr": "Bot",
    "operator": null,
    "phone": null,
    "opening_hours": null,
    "dispensing": null,
    "lat": 36.15685,
    "lng": 0.967181,
    "geo_precision": "osm_node",
    "address": null,
    "wilaya_code": "02",
    "wilaya": "Chlef",
    "wilaya_ar": "الشلف",
    "commune": "Ain Merane",
    "commune_code": 232,
    "id": "02-00135"
  },
  {
    "source": "osm",
    "osm_id": "node/8739096717",
    "name": "MANAA Gh",
    "name_ar": null,
    "name_fr": "MANAA Gh",
    "operator": null,
    "phone": null,
    "opening_hours": null,
    "dispensing": null,
    "lat": 36.185074,
    "lng": 1.528663,
    "geo_precision": "osm_node",
    "address": null,
    "wilaya_code": "02",
    "wilaya": "Chlef",
    "wilaya_ar": "الشلف",
    "commune": "Oued Fodda",
    "commune_code": 229,
    "id": "02-00136"
  },
  {
    "source": "osm",
    "osm_id": "node/8747146918",
    "name": "Boualem",
    "name_ar": null,
    "name_fr": "Boualem",
    "operator": null,
    "phone": null,
    "opening_hours": null,
    "dispensing": null,
    "lat": 36.102796,
    "lng": 1.198616,
    "geo_precision": "osm_node",
    "address": null,
    "wilaya_code": "02",
    "wilaya": "Chlef",
    "wilaya_ar": "الشلف",
    "commune": "Oued Sly",
    "commune_code": 221,
    "id": "02-00137"
  },
  {
    "source": "osm",
    "osm_id": "node/8747161617",
    "name": "SELLAI",
    "name_ar": null,
    "name_fr": "SELLAI",
    "operator": null,
    "phone": null,
    "opening_hours": null,
    "dispensing": null,
    "lat": 36.102397,
    "lng": 1.201241,
    "geo_precision": "osm_node",
    "address": null,
    "wilaya_code": "02",
    "wilaya": "Chlef",
    "wilaya_ar": "الشلف",
    "commune": "Oued Sly",
    "commune_code": 221,
    "id": "02-00138"
  },
  {
    "source": "osm",
    "osm_id": "node/8747161717",
    "name": "Bouanik",
    "name_ar": null,
    "name_fr": "Bouanik",
    "operator": null,
    "phone": null,
    "opening_hours": null,
    "dispensing": null,
    "lat": 36.104605,
    "lng": 1.197344,
    "geo_precision": "osm_node",
    "address": null,
    "wilaya_code": "02",
    "wilaya": "Chlef",
    "wilaya_ar": "الشلف",
    "commune": "Oued Sly",
    "commune_code": 221,
    "id": "02-00139"
  },
  {
    "source": "osm",
    "osm_id": "node/8750142717",
    "name": "HADDOM",
    "name_ar": null,
    "name_fr": "HADDOM",
    "operator": null,
    "phone": null,
    "opening_hours": null,
    "dispensing": null,
    "lat": 36.160072,
    "lng": 0.965836,
    "geo_precision": "osm_node",
    "address": null,
    "wilaya_code": "02",
    "wilaya": "Chlef",
    "wilaya_ar": "الشلف",
    "commune": "Ain Merane",
    "commune_code": 232,
    "id": "02-00140"
  },
  {
    "source": "osm",
    "osm_id": "node/8757700417",
    "name": "Hemidi boudjalthia",
    "name_ar": null,
    "name_fr": "Hemidi boudjalthia",
    "operator": null,
    "phone": null,
    "opening_hours": null,
    "dispensing": null,
    "lat": 36.183151,
    "lng": 1.520468,
    "geo_precision": "osm_node",
    "address": null,
    "wilaya_code": "02",
    "wilaya": "Chlef",
    "wilaya_ar": "الشلف",
    "commune": "Oued Fodda",
    "commune_code": 229,
    "id": "02-00141"
  },
  {
    "source": "osm",
    "osm_id": "node/8767966217",
    "name": "KATTOU A",
    "name_ar": null,
    "name_fr": "KATTOU A",
    "operator": null,
    "phone": null,
    "opening_hours": null,
    "dispensing": null,
    "lat": 36.210446,
    "lng": 1.251426,
    "geo_precision": "osm_node",
    "address": null,
    "wilaya_code": "02",
    "wilaya": "Chlef",
    "wilaya_ar": "الشلف",
    "commune": "Ouled Fares",
    "commune_code": 210,
    "id": "02-00142"
  },
  {
    "source": "osm",
    "osm_id": "node/8773327217",
    "name": "YOUCEFI K",
    "name_ar": null,
    "name_fr": "YOUCEFI K",
    "operator": null,
    "phone": null,
    "opening_hours": null,
    "dispensing": null,
    "lat": 36.312031,
    "lng": 1.248038,
    "geo_precision": "osm_node",
    "address": null,
    "wilaya_code": "02",
    "wilaya": "Chlef",
    "wilaya_ar": "الشلف",
    "commune": "Tadjena",
    "commune_code": 205,
    "id": "02-00143"
  },
  {
    "source": "osm",
    "osm_id": "node/8773327317",
    "name": "BOUCEKKINE H",
    "name_ar": null,
    "name_fr": "BOUCEKKINE H",
    "operator": null,
    "phone": null,
    "opening_hours": null,
    "dispensing": null,
    "lat": 36.2812,
    "lng": 1.239131,
    "geo_precision": "osm_node",
    "address": null,
    "wilaya_code": "02",
    "wilaya": "Chlef",
    "wilaya_ar": "الشلف",
    "commune": "Ouled Fares",
    "commune_code": 210,
    "id": "02-00144"
  },
  {
    "source": "osm",
    "osm_id": "node/8783758517",
    "name": "SAIAH",
    "name_ar": null,
    "name_fr": "SAIAH",
    "operator": null,
    "phone": null,
    "opening_hours": null,
    "dispensing": null,
    "lat": 36.167584,
    "lng": 1.341041,
    "geo_precision": "osm_node",
    "address": null,
    "wilaya_code": "02",
    "wilaya": "Chlef",
    "wilaya_ar": "الشلف",
    "commune": "Chlef",
    "commune_code": 201,
    "id": "02-00145"
  },
  {
    "source": "osm",
    "osm_id": "node/8789731273",
    "name": "Djaffal N",
    "name_ar": null,
    "name_fr": "Djaffal N",
    "operator": null,
    "phone": null,
    "opening_hours": null,
    "dispensing": null,
    "lat": 36.508153,
    "lng": 1.307685,
    "geo_precision": "osm_node",
    "address": null,
    "wilaya_code": "02",
    "wilaya": "Chlef",
    "wilaya_ar": "الشلف",
    "commune": "Tenes",
    "commune_code": 202,
    "id": "02-00146"
  },
  {
    "source": "osm",
    "osm_id": "node/8789772769",
    "name": "MACHTA N",
    "name_ar": null,
    "name_fr": "MACHTA N",
    "operator": null,
    "phone": null,
    "opening_hours": null,
    "dispensing": null,
    "lat": 36.162309,
    "lng": 1.32978,
    "geo_precision": "osm_node",
    "address": null,
    "wilaya_code": "02",
    "wilaya": "Chlef",
    "wilaya_ar": "الشلف",
    "commune": "Chlef",
    "commune_code": 201,
    "id": "02-00147"
  },
  {
    "source": "osm",
    "osm_id": "node/8796172019",
    "name": "DAHMANE SBAIHIA A",
    "name_ar": null,
    "name_fr": "DAHMANE SBAIHIA A",
    "operator": null,
    "phone": null,
    "opening_hours": null,
    "dispensing": null,
    "lat": 36.161645,
    "lng": 1.321326,
    "geo_precision": "osm_node",
    "address": null,
    "wilaya_code": "02",
    "wilaya": "Chlef",
    "wilaya_ar": "الشلف",
    "commune": "Chlef",
    "commune_code": 201,
    "id": "02-00148"
  },
  {
    "source": "osm",
    "osm_id": "node/8796245617",
    "name": "MELLAL MOUSTAPHA",
    "name_ar": null,
    "name_fr": "MELLAL MOUSTAPHA",
    "operator": null,
    "phone": null,
    "opening_hours": null,
    "dispensing": null,
    "lat": 36.141033,
    "lng": 1.307881,
    "geo_precision": "osm_node",
    "address": null,
    "wilaya_code": "02",
    "wilaya": "Chlef",
    "wilaya_ar": "الشلف",
    "commune": "Chlef",
    "commune_code": 201,
    "id": "02-00149"
  },
  {
    "source": "osm",
    "osm_id": "node/8818555917",
    "name": "TARI M",
    "name_ar": null,
    "name_fr": "TARI M",
    "operator": null,
    "phone": null,
    "opening_hours": null,
    "dispensing": null,
    "lat": 36.198766,
    "lng": 1.254876,
    "geo_precision": "osm_node",
    "address": null,
    "wilaya_code": "02",
    "wilaya": "Chlef",
    "wilaya_ar": "الشلف",
    "commune": "Ouled Fares",
    "commune_code": 210,
    "id": "02-00150"
  },
  {
    "source": "osm",
    "osm_id": "node/8829225218",
    "name": "BENZEKHROUFA KH",
    "name_ar": null,
    "name_fr": "BENZEKHROUFA KH",
    "operator": null,
    "phone": null,
    "opening_hours": null,
    "dispensing": null,
    "lat": 36.112965,
    "lng": 1.107052,
    "geo_precision": "osm_node",
    "address": null,
    "wilaya_code": "02",
    "wilaya": "Chlef",
    "wilaya_ar": "الشلف",
    "commune": "Sobha",
    "commune_code": 208,
    "id": "02-00151"
  },
  {
    "source": "osm",
    "osm_id": "node/8838811017",
    "name": "HARCHOUCHE A",
    "name_ar": null,
    "name_fr": "HARCHOUCHE A",
    "operator": null,
    "phone": null,
    "opening_hours": null,
    "dispensing": null,
    "lat": 36.19952,
    "lng": 1.390451,
    "geo_precision": "osm_node",
    "address": null,
    "wilaya_code": "02",
    "wilaya": "Chlef",
    "wilaya_ar": "الشلف",
    "commune": "Oum Drou",
    "commune_code": 233,
    "id": "02-00152"
  },
  {
    "source": "osm",
    "osm_id": "node/8851453617",
    "name": "AISSANI Z",
    "name_ar": null,
    "name_fr": "AISSANI Z",
    "operator": null,
    "phone": null,
    "opening_hours": null,
    "dispensing": null,
    "lat": 36.065451,
    "lng": 1.123717,
    "geo_precision": "osm_node",
    "address": null,
    "wilaya_code": "02",
    "wilaya": "Chlef",
    "wilaya_ar": "الشلف",
    "commune": "Boukadir",
    "commune_code": 212,
    "id": "02-00153"
  },
  {
    "source": "osm",
    "osm_id": "node/8851453717",
    "name": "OUNAN Ch",
    "name_ar": null,
    "name_fr": "OUNAN Ch",
    "operator": null,
    "phone": null,
    "opening_hours": null,
    "dispensing": null,
    "lat": 36.065528,
    "lng": 1.128177,
    "geo_precision": "osm_node",
    "address": null,
    "wilaya_code": "02",
    "wilaya": "Chlef",
    "wilaya_ar": "الشلف",
    "commune": "Boukadir",
    "commune_code": 212,
    "id": "02-00154"
  },
  {
    "source": "osm",
    "osm_id": "node/8854606117",
    "name": "BENATTIA AEK",
    "name_ar": null,
    "name_fr": "BENATTIA AEK",
    "operator": null,
    "phone": null,
    "opening_hours": null,
    "dispensing": null,
    "lat": 36.100016,
    "lng": 1.201539,
    "geo_precision": "osm_node",
    "address": null,
    "wilaya_code": "02",
    "wilaya": "Chlef",
    "wilaya_ar": "الشلف",
    "commune": "Oued Sly",
    "commune_code": 221,
    "id": "02-00155"
  },
  {
    "source": "osm",
    "osm_id": "node/8854606417",
    "name": "DIDOUCHE N",
    "name_ar": null,
    "name_fr": "DIDOUCHE N",
    "operator": null,
    "phone": null,
    "opening_hours": null,
    "dispensing": null,
    "lat": 36.100864,
    "lng": 1.203426,
    "geo_precision": "osm_node",
    "address": null,
    "wilaya_code": "02",
    "wilaya": "Chlef",
    "wilaya_ar": "الشلف",
    "commune": "Oued Sly",
    "commune_code": 221,
    "id": "02-00156"
  },
  {
    "source": "osm",
    "osm_id": "node/8855178417",
    "name": "AMEUR Mohammed",
    "name_ar": null,
    "name_fr": "AMEUR Mohammed",
    "operator": null,
    "phone": null,
    "opening_hours": null,
    "dispensing": null,
    "lat": 36.10094,
    "lng": 1.197993,
    "geo_precision": "osm_node",
    "address": null,
    "wilaya_code": "02",
    "wilaya": "Chlef",
    "wilaya_ar": "الشلف",
    "commune": "Oued Sly",
    "commune_code": 221,
    "id": "02-00157"
  },
  {
    "source": "osm",
    "osm_id": "node/8856984228",
    "name": "NEFIDSA Abdellah",
    "name_ar": null,
    "name_fr": "NEFIDSA Abdellah",
    "operator": null,
    "phone": null,
    "opening_hours": null,
    "dispensing": null,
    "lat": 36.113956,
    "lng": 1.551227,
    "geo_precision": "osm_node",
    "address": null,
    "wilaya_code": "02",
    "wilaya": "Chlef",
    "wilaya_ar": "الشلف",
    "commune": "El Karimia",
    "commune_code": 204,
    "id": "02-00158"
  },
  {
    "source": "osm",
    "osm_id": "node/8857710019",
    "name": "ABBACI Zahra",
    "name_ar": null,
    "name_fr": "ABBACI Zahra",
    "operator": null,
    "phone": null,
    "opening_hours": null,
    "dispensing": null,
    "lat": 36.109809,
    "lng": 1.108923,
    "geo_precision": "osm_node",
    "address": null,
    "wilaya_code": "02",
    "wilaya": "Chlef",
    "wilaya_ar": "الشلف",
    "commune": "Sobha",
    "commune_code": 208,
    "id": "02-00159"
  },
  {
    "source": "osm",
    "osm_id": "node/8898772017",
    "name": "YETTO A",
    "name_ar": null,
    "name_fr": "YETTO A",
    "operator": null,
    "phone": null,
    "opening_hours": null,
    "dispensing": null,
    "lat": 36.154321,
    "lng": 0.939387,
    "geo_precision": "osm_node",
    "address": null,
    "wilaya_code": "02",
    "wilaya": "Chlef",
    "wilaya_ar": "الشلف",
    "commune": "Ain Merane",
    "commune_code": 232,
    "id": "02-00160"
  },
  {
    "source": "osm",
    "osm_id": "node/8933222917",
    "name": "BENHALIMA M",
    "name_ar": null,
    "name_fr": "BENHALIMA M",
    "operator": null,
    "phone": null,
    "opening_hours": null,
    "dispensing": null,
    "lat": 36.231573,
    "lng": 1.23802,
    "geo_precision": "osm_node",
    "address": null,
    "wilaya_code": "02",
    "wilaya": "Chlef",
    "wilaya_ar": "الشلف",
    "commune": "Ouled Fares",
    "commune_code": 210,
    "id": "02-00161"
  },
  {
    "source": "osm",
    "osm_id": "node/8951631319",
    "name": "BELBOULA A",
    "name_ar": null,
    "name_fr": "BELBOULA A",
    "operator": null,
    "phone": null,
    "opening_hours": null,
    "dispensing": null,
    "lat": 36.349839,
    "lng": 1.431098,
    "geo_precision": "osm_node",
    "address": null,
    "wilaya_code": "02",
    "wilaya": "Chlef",
    "wilaya_ar": "الشلف",
    "commune": "Zeboudja",
    "commune_code": 220,
    "id": "02-00162"
  },
  {
    "source": "osm",
    "osm_id": "node/8960787917",
    "name": "HAMIDCHA A",
    "name_ar": null,
    "name_fr": "HAMIDCHA A",
    "operator": null,
    "phone": null,
    "opening_hours": null,
    "dispensing": null,
    "lat": 36.063086,
    "lng": 1.132079,
    "geo_precision": "osm_node",
    "address": null,
    "wilaya_code": "02",
    "wilaya": "Chlef",
    "wilaya_ar": "الشلف",
    "commune": "Boukadir",
    "commune_code": 212,
    "id": "02-00163"
  },
  {
    "source": "osm",
    "osm_id": "node/9031828117",
    "name": "Lakhal E",
    "name_ar": null,
    "name_fr": "Lakhal E",
    "operator": null,
    "phone": null,
    "opening_hours": null,
    "dispensing": null,
    "lat": 36.243113,
    "lng": 0.922353,
    "geo_precision": "osm_node",
    "address": null,
    "wilaya_code": "02",
    "wilaya": "Chlef",
    "wilaya_ar": "الشلف",
    "commune": "Taougrit",
    "commune_code": 206,
    "id": "02-00164"
  },
  {
    "source": "osm",
    "osm_id": "node/9052959317",
    "name": "MELLAL A",
    "name_ar": null,
    "name_fr": "MELLAL A",
    "operator": null,
    "phone": null,
    "opening_hours": null,
    "dispensing": null,
    "lat": 36.250235,
    "lng": 0.921115,
    "geo_precision": "osm_node",
    "address": null,
    "wilaya_code": "02",
    "wilaya": "Chlef",
    "wilaya_ar": "الشلف",
    "commune": "Taougrit",
    "commune_code": 206,
    "id": "02-00165"
  },
  {
    "source": "osm",
    "osm_id": "node/9052959417",
    "name": "BRAHIMI Khadidja",
    "name_ar": null,
    "name_fr": "BRAHIMI Khadidja",
    "operator": null,
    "phone": null,
    "opening_hours": null,
    "dispensing": null,
    "lat": 36.18399,
    "lng": 1.523242,
    "geo_precision": "osm_node",
    "address": null,
    "wilaya_code": "02",
    "wilaya": "Chlef",
    "wilaya_ar": "الشلف",
    "commune": "Oued Fodda",
    "commune_code": 229,
    "id": "02-00166"
  },
  {
    "source": "osm",
    "osm_id": "node/9053207017",
    "name": "SEDDAKI Aicha",
    "name_ar": null,
    "name_fr": "SEDDAKI Aicha",
    "operator": null,
    "phone": null,
    "opening_hours": null,
    "dispensing": null,
    "lat": 36.17125,
    "lng": 1.327295,
    "geo_precision": "osm_node",
    "address": null,
    "wilaya_code": "02",
    "wilaya": "Chlef",
    "wilaya_ar": "الشلف",
    "commune": "Chlef",
    "commune_code": 201,
    "id": "02-00167"
  },
  {
    "source": "osm",
    "osm_id": "node/9057042417",
    "name": "M'HAMEDI BOUZINA KH",
    "name_ar": null,
    "name_fr": "M'HAMEDI BOUZINA KH",
    "operator": null,
    "phone": null,
    "opening_hours": null,
    "dispensing": null,
    "lat": 36.141213,
    "lng": 1.31005,
    "geo_precision": "osm_node",
    "address": null,
    "wilaya_code": "02",
    "wilaya": "Chlef",
    "wilaya_ar": "الشلف",
    "commune": "Chlef",
    "commune_code": 201,
    "id": "02-00168"
  },
  {
    "source": "osm",
    "osm_id": "node/9063910517",
    "name": "BEDDIAF F",
    "name_ar": null,
    "name_fr": "BEDDIAF F",
    "operator": null,
    "phone": null,
    "opening_hours": null,
    "dispensing": null,
    "lat": 36.110764,
    "lng": 1.550045,
    "geo_precision": "osm_node",
    "address": null,
    "wilaya_code": "02",
    "wilaya": "Chlef",
    "wilaya_ar": "الشلف",
    "commune": "El Karimia",
    "commune_code": 204,
    "id": "02-00169"
  },
  {
    "source": "osm",
    "osm_id": "node/9095384417",
    "name": "MEDJAHED W",
    "name_ar": null,
    "name_fr": "MEDJAHED W",
    "operator": null,
    "phone": null,
    "opening_hours": null,
    "dispensing": null,
    "lat": 36.152478,
    "lng": 1.328811,
    "geo_precision": "osm_node",
    "address": null,
    "wilaya_code": "02",
    "wilaya": "Chlef",
    "wilaya_ar": "الشلف",
    "commune": "Chlef",
    "commune_code": 201,
    "id": "02-00170"
  },
  {
    "source": "osm",
    "osm_id": "node/9124274017",
    "name": "Nabed",
    "name_ar": null,
    "name_fr": "Nabed",
    "operator": null,
    "phone": null,
    "opening_hours": null,
    "dispensing": null,
    "lat": 36.234003,
    "lng": 1.233769,
    "geo_precision": "osm_node",
    "address": null,
    "wilaya_code": "02",
    "wilaya": "Chlef",
    "wilaya_ar": "الشلف",
    "commune": "Ouled Fares",
    "commune_code": 210,
    "id": "02-00171"
  },
  {
    "source": "osm",
    "osm_id": "node/9126208417",
    "name": "Brahimi Imane",
    "name_ar": null,
    "name_fr": "Brahimi Imane",
    "operator": null,
    "phone": null,
    "opening_hours": null,
    "dispensing": null,
    "lat": 36.197124,
    "lng": 1.260171,
    "geo_precision": "osm_node",
    "address": null,
    "wilaya_code": "02",
    "wilaya": "Chlef",
    "wilaya_ar": "الشلف",
    "commune": "Ouled Fares",
    "commune_code": 210,
    "id": "02-00172"
  },
  {
    "source": "osm",
    "osm_id": "node/9129563617",
    "name": "MERINE M",
    "name_ar": null,
    "name_fr": "MERINE M",
    "operator": null,
    "phone": null,
    "opening_hours": null,
    "dispensing": null,
    "lat": 36.463032,
    "lng": 1.30267,
    "geo_precision": "osm_node",
    "address": null,
    "wilaya_code": "02",
    "wilaya": "Chlef",
    "wilaya_ar": "الشلف",
    "commune": "Sidi Akkacha",
    "commune_code": 211,
    "id": "02-00173"
  },
  {
    "source": "osm",
    "osm_id": "node/9136051317",
    "name": "SADOUK A",
    "name_ar": null,
    "name_fr": "SADOUK A",
    "operator": null,
    "phone": null,
    "opening_hours": null,
    "dispensing": null,
    "lat": 36.463785,
    "lng": 1.299309,
    "geo_precision": "osm_node",
    "address": null,
    "wilaya_code": "02",
    "wilaya": "Chlef",
    "wilaya_ar": "الشلف",
    "commune": "Sidi Akkacha",
    "commune_code": 211,
    "id": "02-00174"
  },
  {
    "source": "osm",
    "osm_id": "node/9136051318",
    "name": "Dahmani",
    "name_ar": null,
    "name_fr": "Dahmani",
    "operator": null,
    "phone": null,
    "opening_hours": null,
    "dispensing": null,
    "lat": 36.466011,
    "lng": 1.301122,
    "geo_precision": "osm_node",
    "address": null,
    "wilaya_code": "02",
    "wilaya": "Chlef",
    "wilaya_ar": "الشلف",
    "commune": "Sidi Akkacha",
    "commune_code": 211,
    "id": "02-00175"
  },
  {
    "source": "osm",
    "osm_id": "node/9150093017",
    "name": "Pharmacie Lakaksa Mohamed",
    "name_ar": null,
    "name_fr": "Pharmacie Lakaksa Mohamed",
    "operator": null,
    "phone": null,
    "opening_hours": null,
    "dispensing": null,
    "lat": 36.504009,
    "lng": 1.284191,
    "geo_precision": "osm_node",
    "address": "Ténès",
    "wilaya_code": "02",
    "wilaya": "Chlef",
    "wilaya_ar": "الشلف",
    "commune": "Tenes",
    "commune_code": 202,
    "id": "02-00176"
  },
  {
    "source": "osm",
    "osm_id": "node/9167102817",
    "name": "MAROUCHE F",
    "name_ar": null,
    "name_fr": "MAROUCHE F",
    "operator": null,
    "phone": null,
    "opening_hours": null,
    "dispensing": null,
    "lat": 36.417879,
    "lng": 1.197421,
    "geo_precision": "osm_node",
    "address": null,
    "wilaya_code": "02",
    "wilaya": "Chlef",
    "wilaya_ar": "الشلف",
    "commune": "Abou El Hassane",
    "commune_code": 222,
    "id": "02-00177"
  },
  {
    "source": "osm",
    "osm_id": "node/9167185517",
    "name": "MANAA D",
    "name_ar": null,
    "name_fr": "MANAA D",
    "operator": null,
    "phone": null,
    "opening_hours": null,
    "dispensing": null,
    "lat": 36.417458,
    "lng": 1.198754,
    "geo_precision": "osm_node",
    "address": null,
    "wilaya_code": "02",
    "wilaya": "Chlef",
    "wilaya_ar": "الشلف",
    "commune": "Abou El Hassane",
    "commune_code": 222,
    "id": "02-00178"
  },
  {
    "source": "osm",
    "osm_id": "node/9177990017",
    "name": "Rabah H",
    "name_ar": null,
    "name_fr": "Rabah H",
    "operator": null,
    "phone": null,
    "opening_hours": null,
    "dispensing": null,
    "lat": 36.162806,
    "lng": 1.331996,
    "geo_precision": "osm_node",
    "address": "Chlef",
    "wilaya_code": "02",
    "wilaya": "Chlef",
    "wilaya_ar": "الشلف",
    "commune": "Chlef",
    "commune_code": 201,
    "id": "02-00179"
  },
  {
    "source": "osm",
    "osm_id": "node/9181262017",
    "name": "BENSAAD A",
    "name_ar": null,
    "name_fr": "BENSAAD A",
    "operator": null,
    "phone": null,
    "opening_hours": null,
    "dispensing": null,
    "lat": 36.43586,
    "lng": 1.138172,
    "geo_precision": "osm_node",
    "address": null,
    "wilaya_code": "02",
    "wilaya": "Chlef",
    "wilaya_ar": "الشلف",
    "commune": "Abou El Hassane",
    "commune_code": 222,
    "id": "02-00180"
  },
  {
    "source": "osm",
    "osm_id": "node/9264208217",
    "name": "OUM SALEM A",
    "name_ar": null,
    "name_fr": "OUM SALEM A",
    "operator": null,
    "phone": null,
    "opening_hours": null,
    "dispensing": null,
    "lat": 36.123998,
    "lng": 1.381288,
    "geo_precision": "osm_node",
    "address": null,
    "wilaya_code": "02",
    "wilaya": "Chlef",
    "wilaya_ar": "الشلف",
    "commune": "Chlef",
    "commune_code": 201,
    "id": "02-00181"
  },
  {
    "source": "osm",
    "osm_id": "node/9293581017",
    "name": "SOUDANI A",
    "name_ar": null,
    "name_fr": "SOUDANI A",
    "operator": null,
    "phone": null,
    "opening_hours": null,
    "dispensing": null,
    "lat": 36.067959,
    "lng": 1.123708,
    "geo_precision": "osm_node",
    "address": null,
    "wilaya_code": "02",
    "wilaya": "Chlef",
    "wilaya_ar": "الشلف",
    "commune": "Boukadir",
    "commune_code": 212,
    "id": "02-00182"
  },
  {
    "source": "osm",
    "osm_id": "node/9297589717",
    "name": "BOUACHIBA FZ",
    "name_ar": null,
    "name_fr": "BOUACHIBA FZ",
    "operator": null,
    "phone": null,
    "opening_hours": null,
    "dispensing": null,
    "lat": 36.162544,
    "lng": 1.328809,
    "geo_precision": "osm_node",
    "address": null,
    "wilaya_code": "02",
    "wilaya": "Chlef",
    "wilaya_ar": "الشلف",
    "commune": "Chlef",
    "commune_code": 201,
    "id": "02-00183"
  },
  {
    "source": "osm",
    "osm_id": "node/9331917617",
    "name": "CHAIEB EDDOUR I",
    "name_ar": null,
    "name_fr": "CHAIEB EDDOUR I",
    "operator": null,
    "phone": null,
    "opening_hours": null,
    "dispensing": null,
    "lat": 36.112379,
    "lng": 1.10943,
    "geo_precision": "osm_node",
    "address": null,
    "wilaya_code": "02",
    "wilaya": "Chlef",
    "wilaya_ar": "الشلف",
    "commune": "Sobha",
    "commune_code": 208,
    "id": "02-00184"
  },
  {
    "source": "osm",
    "osm_id": "node/9388271917",
    "name": "MENHOUDJ A",
    "name_ar": null,
    "name_fr": "MENHOUDJ A",
    "operator": null,
    "phone": null,
    "opening_hours": null,
    "dispensing": null,
    "lat": 36.352739,
    "lng": 1.37664,
    "geo_precision": "osm_node",
    "address": null,
    "wilaya_code": "02",
    "wilaya": "Chlef",
    "wilaya_ar": "الشلف",
    "commune": "Benairia",
    "commune_code": 203,
    "id": "02-00185"
  },
  {
    "source": "osm",
    "osm_id": "node/9391922825",
    "name": "BRAIKI Aek",
    "name_ar": null,
    "name_fr": "BRAIKI Aek",
    "operator": null,
    "phone": null,
    "opening_hours": null,
    "dispensing": null,
    "lat": 36.187878,
    "lng": 1.531261,
    "geo_precision": "osm_node",
    "address": null,
    "wilaya_code": "02",
    "wilaya": "Chlef",
    "wilaya_ar": "الشلف",
    "commune": "Oued Fodda",
    "commune_code": 229,
    "id": "02-00186"
  },
  {
    "source": "osm",
    "osm_id": "node/9393118617",
    "name": "Pharmacie AZHAR",
    "name_ar": null,
    "name_fr": "Pharmacie AZHAR",
    "operator": null,
    "phone": null,
    "opening_hours": null,
    "dispensing": null,
    "lat": 36.154229,
    "lng": 1.325692,
    "geo_precision": "osm_node",
    "address": null,
    "wilaya_code": "02",
    "wilaya": "Chlef",
    "wilaya_ar": "الشلف",
    "commune": "Chlef",
    "commune_code": 201,
    "id": "02-00187"
  },
  {
    "source": "osm",
    "osm_id": "node/9393171518",
    "name": "BENTATA N.N",
    "name_ar": null,
    "name_fr": "BENTATA N.N",
    "operator": null,
    "phone": null,
    "opening_hours": null,
    "dispensing": null,
    "lat": 36.147547,
    "lng": 1.321963,
    "geo_precision": "osm_node",
    "address": null,
    "wilaya_code": "02",
    "wilaya": "Chlef",
    "wilaya_ar": "الشلف",
    "commune": "Chlef",
    "commune_code": 201,
    "id": "02-00188"
  },
  {
    "source": "osm",
    "osm_id": "node/9393180117",
    "name": "BENDAOUDA M.A",
    "name_ar": null,
    "name_fr": "BENDAOUDA M.A",
    "operator": null,
    "phone": null,
    "opening_hours": null,
    "dispensing": null,
    "lat": 36.151416,
    "lng": 1.324493,
    "geo_precision": "osm_node",
    "address": null,
    "wilaya_code": "02",
    "wilaya": "Chlef",
    "wilaya_ar": "الشلف",
    "commune": "Chlef",
    "commune_code": 201,
    "id": "02-00189"
  },
  {
    "source": "osm",
    "osm_id": "node/9404907717",
    "name": "النصراني",
    "name_ar": "النصراني",
    "name_fr": "HAMIDI N",
    "operator": null,
    "phone": null,
    "opening_hours": null,
    "dispensing": null,
    "lat": 36.161442,
    "lng": 1.333017,
    "geo_precision": "osm_node",
    "address": "الشلف",
    "wilaya_code": "02",
    "wilaya": "Chlef",
    "wilaya_ar": "الشلف",
    "commune": "Chlef",
    "commune_code": 201,
    "id": "02-00190"
  },
  {
    "source": "osm",
    "osm_id": "node/9445613817",
    "name": "FELLAG F",
    "name_ar": null,
    "name_fr": "FELLAG F",
    "operator": null,
    "phone": null,
    "opening_hours": null,
    "dispensing": null,
    "lat": 36.232903,
    "lng": 1.234519,
    "geo_precision": "osm_node",
    "address": null,
    "wilaya_code": "02",
    "wilaya": "Chlef",
    "wilaya_ar": "الشلف",
    "commune": "Ouled Fares",
    "commune_code": 210,
    "id": "02-00191"
  },
  {
    "source": "osm",
    "osm_id": "node/9451262617",
    "name": "KAOULAL S",
    "name_ar": null,
    "name_fr": "KAOULAL S",
    "operator": null,
    "phone": null,
    "opening_hours": null,
    "dispensing": null,
    "lat": 36.355882,
    "lng": 1.373862,
    "geo_precision": "osm_node",
    "address": null,
    "wilaya_code": "02",
    "wilaya": "Chlef",
    "wilaya_ar": "الشلف",
    "commune": "Benairia",
    "commune_code": 203,
    "id": "02-00192"
  },
  {
    "source": "osm",
    "osm_id": "node/9461703917",
    "name": "Parapharmacie BENABOURA",
    "name_ar": null,
    "name_fr": "Parapharmacie BENABOURA",
    "operator": null,
    "phone": null,
    "opening_hours": null,
    "dispensing": null,
    "lat": 36.502483,
    "lng": 1.253146,
    "geo_precision": "osm_node",
    "address": null,
    "wilaya_code": "02",
    "wilaya": "Chlef",
    "wilaya_ar": "الشلف",
    "commune": "Tenes",
    "commune_code": 202,
    "id": "02-00193"
  },
  {
    "source": "osm",
    "osm_id": "node/9532292017",
    "name": "TEGGAR S.A",
    "name_ar": null,
    "name_fr": "TEGGAR S.A",
    "operator": null,
    "phone": null,
    "opening_hours": null,
    "dispensing": null,
    "lat": 36.22881,
    "lng": 1.235464,
    "geo_precision": "osm_node",
    "address": null,
    "wilaya_code": "02",
    "wilaya": "Chlef",
    "wilaya_ar": "الشلف",
    "commune": "Ouled Fares",
    "commune_code": 210,
    "id": "02-00194"
  },
  {
    "source": "osm",
    "osm_id": "node/9620991717",
    "name": "ARAIBI L",
    "name_ar": null,
    "name_fr": "ARAIBI L",
    "operator": null,
    "phone": null,
    "opening_hours": null,
    "dispensing": null,
    "lat": 36.150183,
    "lng": 1.310338,
    "geo_precision": "osm_node",
    "address": null,
    "wilaya_code": "02",
    "wilaya": "Chlef",
    "wilaya_ar": "الشلف",
    "commune": "Chlef",
    "commune_code": 201,
    "id": "02-00195"
  },
  {
    "source": "osm",
    "osm_id": "node/9645743117",
    "name": "HALIMA MANSOUR F",
    "name_ar": null,
    "name_fr": "HALIMA MANSOUR F",
    "operator": null,
    "phone": null,
    "opening_hours": null,
    "dispensing": null,
    "lat": 36.339771,
    "lng": 1.237239,
    "geo_precision": "osm_node",
    "address": null,
    "wilaya_code": "02",
    "wilaya": "Chlef",
    "wilaya_ar": "الشلف",
    "commune": "Abou El Hassane",
    "commune_code": 222,
    "id": "02-00196"
  },
  {
    "source": "osm",
    "osm_id": "node/9649055017",
    "name": "BACHA Oussama",
    "name_ar": null,
    "name_fr": "BACHA Oussama",
    "operator": null,
    "phone": null,
    "opening_hours": null,
    "dispensing": null,
    "lat": 36.101154,
    "lng": 1.196619,
    "geo_precision": "osm_node",
    "address": null,
    "wilaya_code": "02",
    "wilaya": "Chlef",
    "wilaya_ar": "الشلف",
    "commune": "Oued Sly",
    "commune_code": 221,
    "id": "02-00197"
  },
  {
    "source": "osm",
    "osm_id": "node/9663328117",
    "name": "AIRECHE Dj",
    "name_ar": null,
    "name_fr": "AIRECHE Dj",
    "operator": null,
    "phone": null,
    "opening_hours": null,
    "dispensing": null,
    "lat": 36.161546,
    "lng": 1.340153,
    "geo_precision": "osm_node",
    "address": null,
    "wilaya_code": "02",
    "wilaya": "Chlef",
    "wilaya_ar": "الشلف",
    "commune": "Chlef",
    "commune_code": 201,
    "id": "02-00198"
  },
  {
    "source": "osm",
    "osm_id": "node/9675748517",
    "name": "KHAROUBI N",
    "name_ar": null,
    "name_fr": "KHAROUBI N",
    "operator": null,
    "phone": null,
    "opening_hours": null,
    "dispensing": null,
    "lat": 36.059724,
    "lng": 1.131951,
    "geo_precision": "osm_node",
    "address": null,
    "wilaya_code": "02",
    "wilaya": "Chlef",
    "wilaya_ar": "الشلف",
    "commune": "Boukadir",
    "commune_code": 212,
    "id": "02-00199"
  },
  {
    "source": "osm",
    "osm_id": "node/9680149217",
    "name": "RAHMANI I",
    "name_ar": null,
    "name_fr": "RAHMANI I",
    "operator": null,
    "phone": null,
    "opening_hours": null,
    "dispensing": null,
    "lat": 36.167911,
    "lng": 1.333722,
    "geo_precision": "osm_node",
    "address": null,
    "wilaya_code": "02",
    "wilaya": "Chlef",
    "wilaya_ar": "الشلف",
    "commune": "Chlef",
    "commune_code": 201,
    "id": "02-00200"
  },
  {
    "source": "osm",
    "osm_id": "node/9689597717",
    "name": "BENZAMIA A",
    "name_ar": null,
    "name_fr": "BENZAMIA A",
    "operator": null,
    "phone": null,
    "opening_hours": null,
    "dispensing": null,
    "lat": 36.354447,
    "lng": 1.427519,
    "geo_precision": "osm_node",
    "address": null,
    "wilaya_code": "02",
    "wilaya": "Chlef",
    "wilaya_ar": "الشلف",
    "commune": "Zeboudja",
    "commune_code": 220,
    "id": "02-00201"
  },