[
  {
    "id": "1",
    "name": "Ancienne piste d'aviation",
    "wilaya_code": "01",
    "commune_code": null,
    "commune": null,
    "lat": 26.4062703,
    "lng": 0.0192765,
    "geo_precision": "exact",
    "geo_method": "osm",
    "source": "osm",
    "refs": {
      "osm": "4318916905"
    },
    "type": "aircraft"
  },
  {
    "id": "10",
    "name": "Byzantine Fort in Timgad",
    "name_fr": "Fort byzantin de Timgad",
    "name_ar": "القلعة البيزنطية في تيمقاد",
    "wilaya_code": "05",
    "commune_code": null,
    "commune": null,
    "lat": 35.479736,
    "lng": 6.46852,
    "geo_precision": "exact",
    "geo_method": "osm",
    "source": "osm",
    "type": "archaeological_site"
  },
  {
    "id": "100",
    "name": "Benian ntaa Soumâa Citadel",
    "wilaya_code": "35",
    "commune_code": null,
    "commune": null,
    "lat": 36.7014594,
    "lng": 3.550191,
    "geo_precision": "exact",
    "geo_method": "osm",
    "source": "osm",
    "refs": {
      "osm": "1384102734"
    },
    "type": "archaeological_site"
  },
  {
    "id": "1000",
    "name": "Djamaâ Bou T'har",
    "wilaya_code": "18",
    "commune_code": null,
    "commune": null,
    "lat": 36.6946238,
    "lng": 5.5923791,
    "geo_precision": "exact",
    "geo_method": "osm",
    "source": "osm",
    "refs": {
      "osm": "5381018387"
    },
    "type": "ruins"
  },
  {
    "id": "1001",
    "name": "Lella Takouba",
    "name_ar": "لالة ثاكوبة",
    "wilaya_code": "18",
    "commune_code": null,
    "commune": null,
    "lat": 36.6166355,
    "lng": 5.500535,
    "geo_precision": "exact",
    "geo_method": "osm",
    "source": "osm",
    "refs": {
      "osm": "3728184747"
    },
    "type": "ruins"
  },
  {
    "id": "1002",
    "name": "Mali",
    "wilaya_code": "18",
    "commune_code": null,
    "commune": null,
    "lat": 36.6850986,
    "lng": 5.7075069,
    "geo_precision": "exact",
    "geo_method": "osm",
    "source": "osm",
    "refs": {
      "osm": "4323900018"
    },
    "type": "ruins"
  },
  {
    "id": "1003",
    "name": "Mzara",
    "wilaya_code": "18",
    "commune_code": null,
    "commune": null,
    "lat": 36.7968707,
    "lng": 5.7001215,
    "geo_precision": "exact",
    "geo_method": "osm",
    "source": "osm",
    "refs": {
      "osm": "4306380689"
    },
    "type": "ruins"
  },
  {
    "id": "1004",
    "name": "Mzarat Sidi Djebar",
    "name_ar": "مزارة سيدي جبار",
    "wilaya_code": "18",
    "commune_code": null,
    "commune": null,
    "lat": 36.6677512,
    "lng": 5.5151323,
    "geo_precision": "exact",
    "geo_method": "osm",
    "source": "osm",
    "refs": {
      "osm": "3721400641"
    },
    "type": "ruins"
  },
  {
    "id": "1005",
    "name": "Ruines du Sor",
    "wilaya_code": "18",
    "commune_code": null,
    "commune": null,
    "lat": 36.8245923,
    "lng": 5.7599,
    "geo_precision": "exact",
    "geo_method": "osm",
    "source": "osm",
    "refs": {
      "osm": "3060093977"
    },
    "type": "ruins"
  },
  {
    "id": "1006",
    "name": "Sidi Aghrib",
    "wilaya_code": "18",
    "commune_code": null,
    "commune": null,
    "lat": 36.6184172,
    "lng": 5.4905328,
    "geo_precision": "exact",
    "geo_method": "osm",
    "source": "osm",
    "refs": {
      "osm": "4386455942"
    },
    "type": "ruins"
  },
  {
    "id": "1007",
    "name": "Sidi Ahmed",
    "wilaya_code": "18",
    "commune_code": null,
    "commune": null,
    "lat": 36.6020362,
    "lng": 5.5326448,
    "geo_precision": "exact",
    "geo_method": "osm",
    "source": "osm",
    "refs": {
      "osm": "5376454786"
    },
    "type": "ruins"
  },
  {
    "id": "1008",
    "name": "Sidi Akellal",
    "wilaya_code": "18",
    "commune_code": null,
    "commune": null,
    "lat": 36.8225425,
    "lng": 5.7225186,
    "geo_precision": "exact",
    "geo_method": "osm",
    "source": "osm",
    "refs": {
      "osm": "4355219632"
    },
    "type": "ruins"
  },
  {
    "id": "1009",
    "name": "Sidi Ben Ouadda",
    "wilaya_code": "18",
    "commune_code": null,
    "commune": null,
    "lat": 36.7619161,
    "lng": 5.6662017,
    "geo_precision": "exact",
    "geo_method": "osm",
    "source": "osm",
    "refs": {
      "osm": "4355337405"
    },
    "type": "ruins"
  },
  {
    "id": "101",
    "name": "Castellum Tulei",
    "wilaya_code": "35",
    "commune_code": null,
    "commune": null,
    "lat": 36.778793,
    "lng": 3.7976035,
    "geo_precision": "exact",
    "geo_method": "osm",
    "source": "osm",
    "refs": {
      "osm": "1410759471"
    },
    "type": "archaeological_site"
  },
  {
    "id": "1010",
    "name": "Sidi Dris",
    "wilaya_code": "18",
    "commune_code": null,
    "commune": null,
    "lat": 36.6298239,
    "lng": 5.489195,
    "geo_precision": "exact",
    "geo_method": "osm",
    "source": "osm",
    "refs": {
      "osm": "4314513019"
    },
    "type": "ruins"
  },
  {
    "id": "1011",
    "name": "Sidi El Hadj",
    "name_ar": "سيدى الحاج",
    "wilaya_code": "18",
    "commune_code": null,
    "commune": null,
    "lat": 36.6166276,
    "lng": 5.4794934,
    "geo_precision": "exact",
    "geo_method": "osm",
    "source": "osm",
    "refs": {
      "osm": "4384691677"
    },
    "type": "ruins"
  },
  {
    "id": "1012",
    "name": "Sidi Nacer",
    "wilaya_code": "18",
    "commune_code": null,
    "commune": null,
    "lat": 36.6404193,
    "lng": 5.4678685,
    "geo_precision": "exact",
    "geo_method": "osm",
    "source": "osm",
    "refs": {
      "osm": "396072699"
    },
    "type": "ruins"
  },
  {
    "id": "1013",
    "name": "Sidi Rehal",
    "name_ar": "سيدي رحال",
    "wilaya_code": "18",
    "commune_code": null,
    "commune": null,
    "lat": 36.6132576,
    "lng": 5.521855,
    "geo_precision": "exact",
    "geo_method": "osm",
    "source": "osm",
    "refs": {
      "osm": "3721400640"
    },
    "type": "ruins"
  },
  {
    "id": "1014",
    "name": "Sidi Zaher",
    "wilaya_code": "18",
    "commune_code": null,
    "commune": null,
    "lat": 36.6339403,
    "lng": 5.4989157,
    "geo_precision": "exact",
    "geo_method": "osm",
    "source": "osm",
    "refs": {
      "osm": "367417205"
    },
    "type": "ruins"
  },
  {
    "id": "1015",
    "name": "برج مراقبة لجيش الإستعمار الفرنسي 1",
    "name_fr": "Tour de contrôle de l'armée coloniale française 1",
    "name_ar": "برج مراقبة لجيش الإستعمار الفرنسي 1",
    "wilaya_code": "18",
    "commune_code": null,
    "commune": null,
    "lat": 36.7033431,
    "lng": 5.9409235,
    "geo_precision": "exact",
    "geo_method": "osm",
    "source": "osm",
    "refs": {
      "osm": "13142280889"
    },
    "type": "ruins"
  },
  {
    "id": "1016",
    "name": "برج مراقبة لجيش الإستعمار الفرنسي 2",
    "name_fr": "Tour de contrôle de l'armée coloniale française 2",
    "name_ar": "برج مراقبة لجيش الإستعمار الفرنسي 2",
    "wilaya_code": "18",
    "commune_code": null,
    "commune": null,
    "lat": 36.7013501,
    "lng": 5.9429214,
    "geo_precision": "exact",
    "geo_method": "osm",
    "source": "osm",
    "refs": {
      "osm": "13142280888"
    },
    "type": "ruins"
  },
  {
    "id": "1017",
    "name": "سيدي يحيى الوحشي",
    "name_fr": "Sidi Yahia el Ouahchi",
    "name_ar": "سيدي يحيى الوحشي",
    "wilaya_code": "18",
    "commune_code": null,
    "commune": null,
    "lat": 36.745149,
    "lng": 5.6143747,
    "geo_precision": "exact",
    "geo_method": "osm",
    "source": "osm",
    "refs": {
      "osm": "4338683652"
    },
    "type": "ruins"
  },
  {
    "id": "1018",
    "name": "قبور بونيقية - الرابطة",
    "name_fr": "Tombes puniques - La Rabta",
    "name_ar": "قبور بونيقية - الرابطة",
    "wilaya_code": "18",
    "commune_code": null,
    "commune": null,
    "lat": 36.825197,
    "lng": 5.7540703,
    "geo_precision": "exact",
    "geo_method": "osm",
    "source": "osm",
    "refs": {
      "osm": "13068228187"
    },
    "type": "ruins"
  },
  {
    "id": "1019",
    "name": "Arc de Caracalla",
    "wilaya_code": "19",
    "commune_code": null,
    "commune": null,
    "lat": 36.320462,
    "lng": 5.735567,
    "geo_precision": "exact",
    "geo_method": "osm",
    "source": "osm",
    "refs": {
      "osm": "209622856"
    },
    "type": "ruins"
  },
  {
    "id": "102",
    "name": "Chateau Romain",
    "name_ar": "قصر رومي",
    "wilaya_code": "35",
    "commune_code": null,
    "commune": null,
    "lat": 36.6632058,
    "lng": 3.6557993,
    "geo_precision": "exact",
    "geo_method": "osm",
    "source": "osm",
    "refs": {
      "osm": "1379129665"
    },
    "type": "archaeological_site"
  },
  {
    "id": "1020",
    "name": "Basilica of Cresconius",
    "wilaya_code": "19",
    "commune_code": null,
    "commune": null,
    "lat": 36.3190586,
    "lng": 5.7377961,
    "geo_precision": "exact",
    "geo_method": "osm",
    "source": "osm",
    "refs": {
      "osm": "209623231"
    },
    "type": "ruins"
  },
  {
    "id": "1021",
    "name": "Roman Forum",
    "wilaya_code": "19",
    "commune_code": null,
    "commune": null,
    "lat": 36.3222344,
    "lng": 5.7350964,
    "geo_precision": "exact",
    "geo_method": "osm",
    "source": "osm",
    "refs": {
      "osm": "209622860"
    },
    "type": "ruins"
  },
  {
    "id": "1022",
    "name": "Roman Forum Courtyard",
    "wilaya_code": "19",
    "commune_code": null,
    "commune": null,
    "lat": 36.3218077,
    "lng": 5.7352413,
    "geo_precision": "exact",
    "geo_method": "osm",
    "source": "osm",
    "refs": {
      "osm": "1123877539"
    },
    "type": "ruins"
  },
  {
    "id": "1023",
    "name": "Temple de la famille des Sévères",
    "wilaya_code": "19",
    "commune_code": null,
    "commune": null,
    "lat": 36.3207295,
    "lng": 5.736437,
    "geo_precision": "exact",
    "geo_method": "osm",
    "source": "osm",
    "refs": {
      "osm": "209622858"
    },
    "type": "ruins"
  },
  {
    "id": "1024",
    "name": "Thermes romains",
    "wilaya_code": "19",
    "commune_code": null,
    "commune": null,
    "lat": 36.3191882,
    "lng": 5.736129,
    "geo_precision": "exact",
    "geo_method": "osm",
    "source": "osm",
    "refs": {
      "osm": "209622853"
    },
    "type": "ruins"
  },
  {
    "id": "1025",
    "name": "الجلة",
    "name_fr": "Djela",
    "name_ar": "الجلة",
    "wilaya_code": "19",
    "commune_code": null,
    "commune": null,
    "lat": 36.2844229,
    "lng": 5.1564586,
    "geo_precision": "exact",
    "geo_method": "osm",
    "source": "osm",
    "refs": {
      "osm": "422621161"
    },
    "type": "ruins"
  },
  {
    "id": "1026",
    "name": "الريب",
    "name_ar": "الريب",
    "wilaya_code": "19",
    "commune_code": null,
    "commune": null,
    "lat": 36.291872,
    "lng": 5.157139,
    "geo_precision": "exact",
    "geo_method": "osm",
    "source": "osm",
    "refs": {
      "osm": "422621265"
    },
    "type": "ruins"
  },
  {
    "id": "1027",
    "name": "Ruines Francaise",
    "wilaya_code": "24",
    "commune_code": null,
    "commune": null,
    "lat": 36.3787634,
    "lng": 7.7644207,
    "geo_precision": "exact",
    "geo_method": "osm",
    "source": "osm",
    "refs": {
      "osm": "205823219"
    },
    "type": "ruins"
  },
  {
    "id": "1028",
    "name": "Ruines romaines",
    "wilaya_code": "24",
    "commune_code": null,
    "commune": null,
    "lat": 36.3953563,
    "lng": 7.2626835,
    "geo_precision": "exact",
    "geo_method": "osm",
    "source": "osm",
    "refs": {
      "osm": "1538980192"
    },
    "type": "ruins"
  },
  {
    "id": "1029",
    "name": "Aqueduc Romain",
    "wilaya_code": "25",
    "commune_code": null,
    "commune": null,
    "lat": 36.3501957,
    "lng": 6.6175773,
    "geo_precision": "exact",
    "geo_method": "osm",
    "source": "osm",
    "refs": {
      "osm": "5280672657"
    },
    "type": "ruins"
  },
  {
    "id": "103",
    "name": "Dra Azib Boujet",
    "wilaya_code": "35",
    "commune_code": null,
    "commune": null,
    "lat": 36.7746074,
    "lng": 3.7303635,
    "geo_precision": "exact",
    "geo_method": "osm",
    "source": "osm",
    "refs": {
      "osm": "1410759470"
    },
    "type": "archaeological_site"
  },
  {
    "id": "1030",
    "name": "Rapidium",
    "wilaya_code": "26",
    "commune_code": null,
    "commune": null,
    "lat": 36.1368537,
    "lng": 3.4224246,
    "geo_precision": "exact",
    "geo_method": "osm",
    "source": "osm",
    "refs": {
      "osm": "1212738075"
    },
    "type": "ruins"
  },
  {
    "id": "1031",
    "name": "Qasr Beni Hamad",
    "wilaya_code": "28",
    "commune_code": null,
    "commune": null,
    "lat": 35.8230021,
    "lng": 4.7990636,
    "geo_precision": "exact",
    "geo_method": "osm",
    "source": "osm",
    "refs": {
      "osm": "1560595799"
    },
    "type": "ruins"
  },
  {
    "id": "1032",
    "name": "زاوية سي الحاج محمد الادرسي الحسني الهاشمي القرشي",
    "wilaya_code": "30",
    "commune_code": null,
    "commune": null,
    "lat": 32.1564858,
    "lng": 5.3525906,
    "geo_precision": "exact",
    "geo_method": "osm",
    "source": "osm",
    "refs": {
      "osm": "13321746001"
    },
    "type": "ruins"
  },
  {
    "id": "1033",
    "name": "Porte de Santon",
    "name_fr": "Porte de Santon",
    "wilaya_code": "31",
    "commune_code": null,
    "commune": null,
    "lat": 35.7056374,
    "lng": -0.6565187,
    "geo_precision": "exact",
    "geo_method": "osm",
    "source": "osm",
    "refs": {
      "osm": "6501698685"
    },
    "type": "ruins"
  },
  {
    "id": "1034",
    "name": "Borj sidi hamza",
    "wilaya_code": "32",
    "commune_code": null,
    "commune": null,
    "lat": 33.0990301,
    "lng": 1.26222,
    "geo_precision": "exact",
    "geo_method": "osm",
    "source": "osm",
    "refs": {
      "osm": "5856732184"
    },
    "type": "ruins"
  },
  {
    "id": "1035",
    "name": "Ksar al Ghassoul",
    "wilaya_code": "32",
    "commune_code": null,
    "commune": null,
    "lat": 33.3811579,
    "lng": 1.1971211,
    "geo_precision": "exact",
    "geo_method": "osm",
    "source": "osm",
    "refs": {
      "osm": "5856731885"
    },
    "type": "ruins"
  },
  {
    "id": "1036",
    "name": "قصر المجاهدة بنت الخص",
    "name_ar": "قصر المجاهدة بنت الخص",
    "wilaya_code": "32",
    "commune_code": null,
    "commune": null,
    "lat": 33.0593548,
    "lng": 1.1832828,
    "geo_precision": "exact",
    "geo_method": "osm",
    "source": "osm",
    "refs": {
      "osm": "437156353"
    },
    "type": "ruins"
  },
  {
    "id": "1037",
    "name": "Ancien Borj siège de la Jemâa",
    "wilaya_code": "34",
    "commune_code": null,
    "commune": null,
    "lat": 36.2987906,
    "lng": 4.5836463,
    "geo_precision": "exact",
    "geo_method": "osm",
    "source": "osm",
    "refs": {
      "osm": "4261048160"
    },
    "type": "ruins"
  },
  {
    "id": "1038",
    "name": "Ancienne casbah rasée",
    "wilaya_code": "34",
    "commune_code": null,
    "commune": null,
    "lat": 36.29574,
    "lng": 4.5822124,
    "geo_precision": "exact",
    "geo_method": "osm",
    "source": "osm",
    "refs": {
      "osm": "4261153576"
    },
    "type": "ruins"
  },
  {
    "id": "1039",
    "name": "Bordj Chemissa",
    "wilaya_code": "34",
    "commune_code": null,
    "commune": null,
    "lat": 35.8910417,
    "lng": 4.9190008,
    "geo_precision": "exact",
    "geo_method": "osm",
    "source": "osm",
    "refs": {
      "osm": "6534068116"
    },
    "type": "ruins"
  },
  {
    "id": "104",
    "name": "El Jamaa Ihaddaden",
    "wilaya_code": "35",
    "commune_code": null,
    "commune": null,
    "lat": 36.6806997,
    "lng": 3.8142227,
    "geo_precision": "exact",
    "geo_method": "osm",
    "source": "osm",
    "refs": {
      "osm": "1383065133"
    },
    "type": "archaeological_site"
  },
  {
    "id": "1040",
    "name": "La Vigie",
    "wilaya_code": "34",
    "commune_code": null,
    "commune": null,
    "lat": 36.2986346,
    "lng": 4.5773158,
    "geo_precision": "exact",
    "geo_method": "osm",
    "source": "osm",
    "refs": {
      "osm": "4261127134"
    },
    "type": "ruins"
  },
  {
    "id": "1041",
    "name": "Nadi Thoubat",
    "wilaya_code": "34",
    "commune_code": null,
    "commune": null,
    "lat": 36.2969363,
    "lng": 4.5859393,
    "geo_precision": "exact",
    "geo_method": "osm",
    "source": "osm",
    "refs": {
      "osm": "4261132748"
    },
    "type": "ruins"
  },
  {
    "id": "1042",
    "name": "Tunnel de l'armurerie",
    "wilaya_code": "34",
    "commune_code": null,
    "commune": null,
    "lat": 36.2967659,
    "lng": 4.5858056,
    "geo_precision": "exact",
    "geo_method": "osm",
    "source": "osm",
    "refs": {
      "osm": "4261132749"
    },
    "type": "ruins"
  },
  {
    "id": "1043",
    "name": "Nisanian Pentagram",
    "wilaya_code": "37",
    "commune_code": null,
    "commune": null,
    "lat": 29.2401128,
    "lng": -7.0376905,
    "geo_precision": "exact",
    "geo_method": "osm",
    "source": "osm",
    "refs": {
      "osm": "7137153519"
    },
    "type": "ruins"
  },
  {
    "id": "1044",
    "name": "Ksar El Kahina",
    "wilaya_code": "40",
    "commune_code": null,
    "commune": null,
    "lat": 35.535855,
    "lng": 7.1191274,
    "geo_precision": "exact",
    "geo_method": "osm",
    "source": "osm",
    "refs": {
      "osm": "1551154609"
    },
    "type": "ruins"
  },
  {
    "id": "1045",
    "name": "Ruines",
    "wilaya_code": "41",
    "commune_code": null,
    "commune": null,
    "lat": 35.9735934,
    "lng": 7.612083,
    "geo_precision": "exact",
    "geo_method": "osm",
    "source": "osm",
    "refs": {
      "osm": "3295284787"
    },
    "type": "ruins"
  },
  {
    "id": "1046",
    "name": "Ruines romaines de Khemissa",
    "wilaya_code": "41",
    "commune_code": null,
    "commune": null,
    "lat": 36.1934233,
    "lng": 7.6566039,
    "geo_precision": "exact",
    "geo_method": "osm",
    "source": "osm",
    "refs": {
      "osm": "1540360908"
    },
    "type": "ruins"
  },
  {
    "id": "1047",
    "name": "Ruines romaines de Madaurus",
    "wilaya_code": "41",
    "commune_code": null,
    "commune": null,
    "lat": 36.0771619,
    "lng": 7.9023528,
    "geo_precision": "exact",
    "geo_method": "osm",
    "source": "osm",
    "refs": {
      "osm": "464334607"
    },
    "type": "ruins"
  },
  {
    "id": "1048",
    "name": "nymphaeum",
    "wilaya_code": "41",
    "commune_code": null,
    "commune": null,
    "lat": 36.194211,
    "lng": 7.6562627,
    "geo_precision": "exact",
    "geo_method": "osm",
    "source": "osm",
    "refs": {
      "osm": "1321756090"
    },
    "type": "ruins"
  },
  {
    "id": "1049",
    "name": "Amphithéâtre Romain",
    "name_fr": "Amphithéâtre Romain",
    "wilaya_code": "42",
    "commune_code": null,
    "commune": null,
    "lat": 36.5931472,
    "lng": 2.445422,
    "geo_precision": "exact",
    "geo_method": "osm",
    "source": "osm",
    "refs": {
      "osm": "266408729"
    },
    "type": "ruins"
  },
  {
    "id": "105",
    "name": "Haouch el Oudjani",
    "wilaya_code": "35",
    "commune_code": null,
    "commune": null,
    "lat": 36.8589721,
    "lng": 3.8307342,
    "geo_precision": "exact",
    "geo_method": "osm",
    "source": "osm",
    "refs": {
      "osm": "1410759474"
    },
    "type": "archaeological_site"
  },
  {
    "id": "1050",
    "name": "Bab el Gherb",
    "name_fr": "Bab El Gherb",
    "name_ar": "باب الغرب",
    "wilaya_code": "42",
    "commune_code": null,
    "commune": null,
    "lat": 36.6057429,
    "lng": 2.1862139,
    "geo_precision": "exact",
    "geo_method": "osm",
    "source": "osm",
    "refs": {
      "osm": "4457095230"
    },
    "type": "ruins"
  },
  {
    "id": "1051",
    "name": "Césarée de Maurétanie",
    "name_fr": "Césarée de Maurétanie",
    "wilaya_code": "42",
    "commune_code": null,
    "commune": null,
    "lat": 36.6073337,
    "lng": 2.1869681,
    "geo_precision": "exact",
    "geo_method": "osm",
    "source": "osm",
    "refs": {
      "osm": "172032689"
    },
    "type": "ruins"
  },
  {
    "id": "1052",
    "name": "Nymphes Water Fountain Ruins",
    "name_fr": "Nymphes Water Fountain Ruins",
    "wilaya_code": "42",
    "commune_code": null,
    "commune": null,
    "lat": 36.592673,
    "lng": 2.4428285,
    "geo_precision": "exact",
    "geo_method": "osm",
    "source": "osm",
    "refs": {
      "osm": "266408728"
    },
    "type": "ruins"
  },
  {
    "id": "1053",
    "name": "Saïdia",
    "wilaya_code": "42",
    "commune_code": null,
    "commune": null,
    "lat": 36.6177463,
    "lng": 2.639891,
    "geo_precision": "exact",
    "geo_method": "osm",
    "source": "osm",
    "refs": {
      "osm": "3013572925"
    },
    "type": "ruins"
  },
  {
    "id": "1054",
    "name": "Théâtre Romain",
    "name_fr": "Théâtre Romain",
    "wilaya_code": "42",
    "commune_code": null,
    "commune": null,
    "lat": 36.5926511,
    "lng": 2.4416522,
    "geo_precision": "exact",
    "geo_method": "osm",
    "source": "osm",
    "refs": {
      "osm": "266408727"
    },
    "type": "ruins"
  },
  {
    "id": "1055",
    "name": "Théâtre romain",
    "name_fr": "Théâtre romain",
    "wilaya_code": "42",
    "commune_code": null,
    "commune": null,
    "lat": 36.6052591,
    "lng": 2.1905535,
    "geo_precision": "exact",
    "geo_method": "osm",
    "source": "osm",
    "refs": {
      "osm": "266410062"
    },
    "type": "ruins"
  },
  {
    "id": "1056",
    "name": "Villa des Fresques",
    "name_fr": "Villa des Fresques",
    "wilaya_code": "42",
    "commune_code": null,
    "commune": null,
    "lat": 36.5947971,
    "lng": 2.4439004,
    "geo_precision": "exact",
    "geo_method": "osm",
    "source": "osm",
    "refs": {
      "osm": "266533407"
    },
    "type": "ruins"
  },
  {
    "id": "1057",
    "name": "بوحراتي",
    "wilaya_code": "42",
    "commune_code": null,
    "commune": null,
    "lat": 36.6479059,
    "lng": 2.7465952,
    "geo_precision": "exact",
    "geo_method": "osm",
    "source": "osm",
    "refs": {
      "osm": "12293747501"
    },
    "type": "ruins"
  },
  {
    "id": "1058",
    "name": "بوحراتي العربي",
    "wilaya_code": "42",
    "commune_code": null,
    "commune": null,
    "lat": 36.64716,
    "lng": 2.7464072,
    "geo_precision": "exact",
    "geo_method": "osm",
    "source": "osm",
    "refs": {
      "osm": "12293746701"
    },
    "type": "ruins"
  },
  {
    "id": "1059",
    "name": "حمّامات رومانية",
    "name_fr": "Thermes romains ouest",
    "name_ar": "حمّامات رومانية",
    "wilaya_code": "42",
    "commune_code": null,
    "commune": null,
    "lat": 36.6074391,
    "lng": 2.1867548,
    "geo_precision": "exact",
    "geo_method": "osm",
    "source": "osm",
    "refs": {
      "osm": "2727459373"
    },
    "type": "ruins"
  },
  {
    "id": "106",
    "name": "Kobr Roumia",
    "wilaya_code": "35",
    "commune_code": null,
    "commune": null,
    "lat": 36.8144935,
    "lng": 3.8165788,
    "geo_precision": "exact",
    "geo_method": "osm",
    "source": "osm",
    "refs": {
      "osm": "1410759472"
    },
    "type": "archaeological_site"
  },
  {
    "id": "1060",
    "name": "رحال",
    "wilaya_code": "42",
    "commune_code": null,
    "commune": null,
    "lat": 36.6432913,
    "lng": 2.7693878,
    "geo_precision": "exact",
    "geo_method": "osm",
    "source": "osm",
    "refs": {
      "osm": "12291695701"
    },
    "type": "ruins"
  },
  {
    "id": "1061",
    "name": "عقيد عميروش",
    "wilaya_code": "42",
    "commune_code": null,
    "commune": null,
    "lat": 36.649532,
    "lng": 2.6921557,
    "geo_precision": "exact",
    "geo_method": "osm",
    "source": "osm",
    "refs": {
      "osm": "12254968401"
    },
    "type": "ruins"
  },
  {
    "id": "1062",
    "name": "كاري",
    "wilaya_code": "42",
    "commune_code": null,
    "commune": null,
    "lat": 36.643253,
    "lng": 2.7694682,
    "geo_precision": "exact",
    "geo_method": "osm",
    "source": "osm",
    "refs": {
      "osm": "12291688902"
    },
    "type": "ruins"
  },
  {
    "id": "1063",
    "name": "Bab el Bled",
    "wilaya_code": "43",
    "commune_code": null,
    "commune": null,
    "lat": 36.4521493,
    "lng": 6.2736322,
    "geo_precision": "exact",
    "geo_method": "osm",
    "source": "osm",
    "refs": {
      "osm": "4361933048"
    },
    "type": "ruins"
  },
  {
    "id": "1064",
    "name": "Ruines romaines de Tiddis",
    "wilaya_code": "43",
    "commune_code": null,
    "commune": null,
    "lat": 36.4623166,
    "lng": 6.4823727,
    "geo_precision": "exact",
    "geo_method": "osm",
    "source": "osm",
    "refs": {
      "osm": "215927252"
    },
    "type": "ruins"
  },
  {
    "id": "1065",
    "name": "الآثار الرومانية",
    "name_fr": "Ruines romaines",
    "name_ar": "الآثار الرومانية",
    "wilaya_code": "43",
    "commune_code": null,
    "commune": null,
    "lat": 36.4502,
    "lng": 6.2712045,
    "geo_precision": "exact",
    "geo_method": "osm",
    "source": "osm",
    "refs": {
      "osm": "4363220764"
    },
    "type": "ruins"
  },
  {
    "id": "1066",
    "name": "الخربة",
    "name_fr": "Ruine",
    "name_ar": "الخربة",
    "wilaya_code": "43",
    "commune_code": null,
    "commune": null,
    "lat": 36.1726403,
    "lng": 6.3451472,
    "geo_precision": "exact",
    "geo_method": "osm",
    "source": "osm",
    "refs": {
      "osm": "5247654478"
    },
    "type": "ruins"
  },
  {
    "id": "1067",
    "name": "الهنشير",
    "name_fr": "Hanchir",
    "name_ar": "الهنشير",
    "wilaya_code": "43",
    "commune_code": null,
    "commune": null,
    "lat": 36.1478311,
    "lng": 6.3565551,
    "geo_precision": "exact",
    "geo_method": "osm",
    "source": "osm",
    "refs": {
      "osm": "5251007157"
    },
    "type": "ruins"
  },
  {
    "id": "1068",
    "name": "Boumead school مدرسة بومعد",
    "wilaya_code": "44",
    "commune_code": null,
    "commune": null,
    "lat": 36.3648277,
    "lng": 2.1272211,
    "geo_precision": "exact",
    "geo_method": "osm",
    "source": "osm",
    "refs": {
      "osm": "10893515279"
    },
    "type": "ruins"
  },
  {
    "id": "1069",
    "name": "Boumead school مدرسة بومعد",
    "wilaya_code": "44",
    "commune_code": null,
    "commune": null,
    "lat": 36.3652079,
    "lng": 2.1277159,
    "geo_precision": "exact",
    "geo_method": "osm",
    "source": "osm",
    "refs": {
      "osm": "10893515280"
    },
    "type": "ruins"
  },
  {
    "id": "107",
    "name": "Marsa al Dejjaj مرسى الدجاج",
    "name_ar": "مرسى الدجاج",
    "wilaya_code": "35",
    "commune_code": null,
    "commune": null,
    "lat": 36.7995335,
    "lng": 3.5661432,
    "geo_precision": "exact",
    "geo_method": "osm",
    "source": "osm",
    "refs": {
      "osm": "1376564101"
    },
    "type": "archaeological_site"
  },
  {
    "id": "1070",
    "name": "Boumead school مدرسة بومعد",
    "wilaya_code": "44",
    "commune_code": null,
    "commune": null,
    "lat": 36.3653083,
    "lng": 2.1276529,
    "geo_precision": "exact",
    "geo_method": "osm",
    "source": "osm",
    "refs": {
      "osm": "10893515281"
    },
    "type": "ruins"
  },
  {
    "id": "1071",
    "name": "Old russian village",
    "wilaya_code": "44",
    "commune_code": null,
    "commune": null,
    "lat": 36.3742125,
    "lng": 2.518943,
    "geo_precision": "exact",
    "geo_method": "osm",
    "source": "osm",
    "refs": {
      "osm": "4396470290"
    },
    "type": "ruins"
  },
  {
    "id": "1072",
    "name": "Taouret prison سجن تاوريت",
    "wilaya_code": "44",
    "commune_code": null,
    "commune": null,
    "lat": 36.3647143,
    "lng": 2.125538,
    "geo_precision": "exact",
    "geo_method": "osm",
    "source": "osm",
    "refs": {
      "osm": "10893562518"
    },
    "type": "ruins"
  },
  {
    "id": "1073",
    "name": "ruins أثار",
    "wilaya_code": "44",
    "commune_code": null,
    "commune": null,
    "lat": 36.354626,
    "lng": 2.2828522,
    "geo_precision": "exact",
    "geo_method": "osm",
    "source": "osm",
    "refs": {
      "osm": "10931604055"
    },
    "type": "ruins"
  },
  {
    "id": "1074",
    "name": "ruins أثار",
    "wilaya_code": "44",
    "commune_code": null,
    "commune": null,
    "lat": 36.3581671,
    "lng": 2.2754976,
    "geo_precision": "exact",
    "geo_method": "osm",
    "source": "osm",
    "refs": {
      "osm": "10931604131"
    },
    "type": "ruins"
  },
  {
    "id": "1075",
    "name": "ruins أثار",
    "wilaya_code": "44",
    "commune_code": null,
    "commune": null,
    "lat": 36.3581664,
    "lng": 2.2755901,
    "geo_precision": "exact",
    "geo_method": "osm",
    "source": "osm",
    "refs": {
      "osm": "10931604137"
    },
    "type": "ruins"
  },
  {
    "id": "1076",
    "name": "ruins أثار",
    "wilaya_code": "44",
    "commune_code": null,
    "commune": null,
    "lat": 36.3564808,
    "lng": 2.1635284,
    "geo_precision": "exact",
    "geo_method": "osm",
    "source": "osm",
    "refs": {
      "osm": "1172596891"
    },
    "type": "ruins"
  },
  {
    "id": "1077",
    "name": "ruins أثار",
    "wilaya_code": "44",
    "commune_code": null,
    "commune": null,
    "lat": 36.356534,
    "lng": 2.1641245,
    "geo_precision": "exact",
    "geo_method": "osm",
    "source": "osm",
    "refs": {
      "osm": "1172596892"
    },
    "type": "ruins"
  },
  {
    "id": "1078",
    "name": "ruins أثار",
    "wilaya_code": "44",
    "commune_code": null,
    "commune": null,
    "lat": 36.3564586,
    "lng": 2.1642126,
    "geo_precision": "exact",
    "geo_method": "osm",
    "source": "osm",
    "refs": {
      "osm": "1172596893"
    },
    "type": "ruins"
  },
  {
    "id": "1079",
    "name": "ruins أثار",
    "wilaya_code": "44",
    "commune_code": null,
    "commune": null,
    "lat": 36.3563137,
    "lng": 2.1647009,
    "geo_precision": "exact",
    "geo_method": "osm",
    "source": "osm",
    "refs": {
      "osm": "1172596894"
    },
    "type": "ruins"
  },
  {
    "id": "108",
    "name": "Marsa al-Djaje",
    "name_fr": "Marsa al-Djaje",
    "name_ar": "مرسى الدجاج",
    "wilaya_code": "35",
    "commune_code": null,
    "commune": null,
    "lat": 36.8002658,
    "lng": 3.5651722,
    "geo_precision": "exact",
    "geo_method": "osm",
    "source": "osm",
    "type": "archaeological_site"
  },
  {
    "id": "1080",
    "name": "ruins أثار",
    "wilaya_code": "44",
    "commune_code": null,
    "commune": null,
    "lat": 36.3562128,
    "lng": 2.1647827,
    "geo_precision": "exact",
    "geo_method": "osm",
    "source": "osm",
    "refs": {
      "osm": "1172596895"
    },
    "type": "ruins"
  },
  {
    "id": "1081",
    "name": "ruins أثار",
    "wilaya_code": "44",
    "commune_code": null,
    "commune": null,
    "lat": 36.3502559,
    "lng": 2.1535203,
    "geo_precision": "exact",
    "geo_method": "osm",
    "source": "osm",
    "refs": {
      "osm": "1172596908"
    },
    "type": "ruins"
  },
  {
    "id": "1082",
    "name": "ruins أثار",
    "wilaya_code": "44",
    "commune_code": null,
    "commune": null,
    "lat": 36.3222959,
    "lng": 2.2285718,
    "geo_precision": "exact",
    "geo_method": "osm",
    "source": "osm",
    "refs": {
      "osm": "1172831107"
    },
    "type": "ruins"
  },
  {
    "id": "1083",
    "name": "ruins أثار",
    "wilaya_code": "44",
    "commune_code": null,
    "commune": null,
    "lat": 36.4081615,
    "lng": 2.1577725,
    "geo_precision": "exact",
    "geo_method": "osm",
    "source": "osm",
    "refs": {
      "osm": "1172831119"
    },
    "type": "ruins"
  },
  {
    "id": "1084",
    "name": "ruins أثار",
    "wilaya_code": "44",
    "commune_code": null,
    "commune": null,
    "lat": 36.3969755,
    "lng": 2.0923101,
    "geo_precision": "exact",
    "geo_method": "osm",
    "source": "osm",
    "refs": {
      "osm": "1172831132"
    },
    "type": "ruins"
  },
  {
    "id": "1085",
    "name": "ruins أثار",
    "wilaya_code": "44",
    "commune_code": null,
    "commune": null,
    "lat": 36.3967382,
    "lng": 2.0919171,
    "geo_precision": "exact",
    "geo_method": "osm",
    "source": "osm",
    "refs": {
      "osm": "1172831133"
    },
    "type": "ruins"
  },
  {
    "id": "1086",
    "name": "ruins أثار",
    "wilaya_code": "44",
    "commune_code": null,
    "commune": null,
    "lat": 36.3970849,
    "lng": 2.0917293,
    "geo_precision": "exact",
    "geo_method": "osm",
    "source": "osm",
    "refs": {
      "osm": "1172831134"
    },
    "type": "ruins"
  },
  {
    "id": "1087",
    "name": "Ruines de Siga",
    "wilaya_code": "46",
    "commune_code": null,
    "commune": null,
    "lat": 35.2654912,
    "lng": -1.4510168,
    "geo_precision": "exact",
    "geo_method": "osm",
    "source": "osm",
    "refs": {
      "osm": "6805729095"
    },
    "type": "ruins"
  },
  {
    "id": "1088",
    "name": "Place1",
    "wilaya_code": "47",
    "commune_code": null,
    "commune": null,
    "lat": 32.3840269,
    "lng": 4.6949945,
    "geo_precision": "exact",
    "geo_method": "osm",
    "source": "osm",
    "refs": {
      "osm": "13696061201"
    },
    "type": "ruins"
  },
  {
    "id": "1089",
    "name": "Ksar kawa",
    "name_fr": "Ksar kawa",
    "name_ar": "قصر كاوا",
    "wilaya_code": "48",
    "commune_code": null,
    "commune": null,
    "lat": 35.9313192,
    "lng": 1.2018097,
    "geo_precision": "exact",
    "geo_method": "osm",
    "source": "osm",
    "refs": {
      "osm": "4448783494"
    },
    "type": "ruins"
  },
  {
    "id": "109",
    "name": "Rusuccuru",
    "wilaya_code": "35",
    "commune_code": null,
    "commune": null,
    "lat": 36.91285,
    "lng": 3.90964,
    "geo_precision": "exact",
    "geo_method": "osm",
    "source": "osm",
    "type": "archaeological_site"
  },
  {
    "id": "1090",
    "name": "mur Fort othomant ras el kalaa",
    "wilaya_code": "48",
    "commune_code": null,
    "commune": null,
    "lat": 35.5815454,
    "lng": 0.3300112,
    "geo_precision": "exact",
    "geo_method": "osm",
    "source": "osm",
    "refs": {
      "osm": "1511460221"
    },
    "type": "ruins"
  },
  {
    "id": "1091",
    "name": "قصر الأميرة",
    "wilaya_code": "48",
    "commune_code": null,
    "commune": null,
    "lat": 35.5820126,
    "lng": 0.3302263,
    "geo_precision": "exact",
    "geo_method": "osm",
    "source": "osm",
    "refs": {
      "osm": "1511460206"
    },
    "type": "ruins"
  },
  {
    "id": "1092",
    "name": "زريبة سيدي الحاج بلقاسم ⵣⵔⵉⴱⴻⵜ ⵙⵉⴷⵉ ⵍⵃⴰⵊ ⴱⴻⵍⵇⴰⵙⵎ",
    "name_fr": "Zaouiet Sidi Hadj Belkacem",
    "name_ar": "زريبة سيدي الحاج بلقاسم",
    "wilaya_code": "49",
    "commune_code": null,
    "commune": null,
    "lat": 29.2371697,
    "lng": 0.2012349,
    "geo_precision": "exact",
    "geo_method": "osm",
    "source": "osm",
    "refs": {
      "osm": "7024740382"
    },
    "type": "ruins"
  },
  {
    "id": "1093",
    "name": "زريبة سيدي الحاج بلقاسم ⵣⵔⵉⴱⴻⵜ ⵙⵉⴷⵉ ⵍⵃⴰⵊ ⴱⴻⵍⵇⴰⵙⵎ",
    "name_fr": "Zaouiet Sidi Hadj Belkacem",
    "name_ar": "زريبة سيدي الحاج بلقاسم",
    "wilaya_code": "49",
    "commune_code": null,
    "commune": null,
    "lat": 29.2370404,
    "lng": 0.2013118,
    "geo_precision": "exact",
    "geo_method": "osm",
    "source": "osm",
    "refs": {
      "osm": "751434710"
    },
    "type": "ruins"
  },
  {
    "id": "1094",
    "name": "Poste Maurice Cortier",
    "wilaya_code": "50",
    "commune_code": null,
    "commune": null,
    "lat": 22.3183252,
    "lng": 1.1159638,
    "geo_precision": "exact",
    "geo_method": "osm",
    "source": "osm",
    "refs": {
      "osm": "1165418339"
    },
    "type": "ruins"
  },
  {
    "id": "1095",
    "name": "Fortin au disque",
    "wilaya_code": "51",
    "commune_code": null,
    "commune": null,
    "lat": 34.4878181,
    "lng": 5.210074,
    "geo_precision": "exact",
    "geo_method": "osm",
    "source": "osm",
    "refs": {
      "osm": "310814818"
    },
    "type": "ruins"
  },
  {
    "id": "1096",
    "name": "برج الدوسن",
    "wilaya_code": "51",
    "commune_code": null,
    "commune": null,
    "lat": 34.601928,
    "lng": 5.1072812,
    "geo_precision": "exact",
    "geo_method": "osm",
    "source": "osm",
    "refs": {
      "osm": "385662289"
    },
    "type": "ruins"
  },
  {
    "id": "1097",
    "name": "El ksiba - أطلال قصر القصيبة",
    "wilaya_code": "52",
    "commune_code": null,
    "commune": null,
    "lat": 30.120416,
    "lng": -2.1674876,
    "geo_precision": "exact",
    "geo_method": "osm",
    "source": "osm",
    "refs": {
      "osm": "9456604492"
    },
    "type": "ruins"
  },
  {
    "id": "1098",
    "name": "ksar Beni Abbes -   قصر بني عباس",
    "wilaya_code": "52",
    "commune_code": null,
    "commune": null,
    "lat": 30.123242,
    "lng": -2.17308,
    "geo_precision": "exact",
    "geo_method": "osm",
    "source": "osm",
    "refs": {
      "osm": "1025678948"
    },
    "type": "ruins"
  },
  {
    "id": "1099",
    "name": "El Moustakbal;محلات المستقب",
    "name_fr": "El Moustakbal",
    "name_ar": "محلات المستقبل",
    "wilaya_code": "54",
    "commune_code": null,
    "commune": null,
    "lat": 19.9536029,
    "lng": 2.9695045,
    "geo_precision": "exact",
    "geo_method": "osm",
    "source": "osm",
    "refs": {
      "osm": "13175295301"
    },
    "type": "ruins"
  },
  {
    "id": "11",
    "name": "Capitolium",
    "name_fr": "Capitole",
    "wilaya_code": "05",
    "commune_code": null,
    "commune": null,
    "lat": 35.4834949,
    "lng": 6.4666444,
    "geo_precision": "exact",
    "geo_method": "osm",
    "source": "osm",
    "refs": {
      "osm": "5434295573"
    },
    "type": "archaeological_site"
  },
  {
    "id": "110",
    "name": "Taksebt des Ouled Said",
    "wilaya_code": "35",
    "commune_code": null,
    "commune": null,
    "lat": 36.6562714,
    "lng": 3.7263928,
    "geo_precision": "exact",
    "geo_method": "osm",
    "source": "osm",
    "refs": {
      "osm": "1395521035"
    },
    "type": "archaeological_site"
  },
  {
    "id": "1100",
    "name": "العقيلة",
    "name_fr": "El Aguila",
    "name_ar": "العقيلة",
    "wilaya_code": "55",
    "commune_code": null,
    "commune": null,
    "lat": 32.6866304,
    "lng": 5.4755717,
    "geo_precision": "exact",
    "geo_method": "osm",
    "source": "osm",
    "refs": {
      "osm": "369621056"
    },
    "type": "ruins"
  },
  {
    "id": "1101",
    "name": "القصر ، قبة اللقاني",
    "name_fr": "Le palais, le dôme de Laqani",
    "name_ar": "القصر ، قبة اللقاني",
    "wilaya_code": "55",
    "commune_code": null,
    "commune": null,
    "lat": 32.7020538,
    "lng": 5.4287277,
    "geo_precision": "exact",
    "geo_method": "osm",
    "source": "osm",
    "refs": {
      "osm": "369603160"
    },
    "type": "ruins"
  },
  {
    "id": "1102",
    "name": "برج الحواس",
    "wilaya_code": "56",
    "commune_code": null,
    "commune": null,
    "lat": 24.8865957,
    "lng": 8.4294133,
    "geo_precision": "exact",
    "geo_method": "osm",
    "source": "osm",
    "refs": {
      "osm": "13351548801"
    },
    "type": "ruins"
  },
  {
    "id": "1103",
    "name": "مباني قديمة",
    "wilaya_code": "57",
    "commune_code": null,
    "commune": null,
    "lat": 34.2161906,
    "lng": 5.7635754,
    "geo_precision": "exact",
    "geo_method": "osm",
    "source": "osm",
    "refs": {
      "osm": "8429220050"
    },
    "type": "ruins"
  },
  {
    "id": "1104",
    "name": "مباني قديمة",
    "wilaya_code": "57",
    "commune_code": null,
    "commune": null,
    "lat": 34.216018,
    "lng": 5.7641976,
    "geo_precision": "exact",
    "geo_method": "osm",
    "source": "osm",
    "refs": {
      "osm": "8429220051"
    },
    "type": "ruins"
  },
  {
    "id": "1105",
    "name": "Apparent extent of walled ancient settlement at Henchir Bessariani",
    "wilaya_code": "62",
    "commune_code": null,
    "commune": null,
    "lat": 34.445419,
    "lng": 7.4927751,
    "geo_precision": "exact",
    "geo_method": "osm",
    "source": "osm",
    "refs": {
      "osm": "739855191"
    },
    "type": "ruins"
  },
  {
    "id": "1106",
    "name": "Camps Romain",
    "wilaya_code": "62",
    "commune_code": null,
    "commune": null,
    "lat": 34.6354478,
    "lng": 7.4122148,
    "geo_precision": "exact",
    "geo_method": "osm",
    "source": "osm",
    "refs": {
      "osm": "5315180603"
    },
    "type": "ruins"
  },
  {
    "id": "1107",
    "name": "Visible remains of roman fort at Henchir Bessariani",
    "wilaya_code": "62",
    "commune_code": null,
    "commune": null,
    "lat": 34.4449545,
    "lng": 7.4923728,
    "geo_precision": "exact",
    "geo_method": "osm",
    "source": "osm",
    "refs": {
      "osm": "739854261"
    },
    "type": "ruins"
  },
  {
    "id": "1108",
    "name": "Ouaskria",
    "wilaya_code": "64",
    "commune_code": null,
    "commune": null,
    "lat": 35.2027254,
    "lng": 2.3034359,
    "geo_precision": "exact",
    "geo_method": "osm",
    "source": "osm",
    "refs": {
      "osm": "3241984820"
    },
    "type": "ruins"
  },
  {
    "id": "1109",
    "name": "البواقة",
    "name_fr": "Château d'eau",
    "name_ar": "البواقة",
    "wilaya_code": "65",
    "commune_code": null,
    "commune": null,
    "lat": 35.4488587,
    "lng": 2.9039227,
    "geo_precision": "exact",
    "geo_method": "osm",
    "source": "osm",
    "refs": {
      "osm": "5075513537"
    },
    "type": "ruins"
  },
  {
    "id": "111",
    "name": "حصن الامير عبد القادر",
    "name_ar": "حصن الامير عبد القادر",
    "wilaya_code": "38",
    "commune_code": null,
    "commune": null,
    "lat": 35.8655227,
    "lng": 2.2807736,
    "geo_precision": "exact",
    "geo_method": "osm",
    "source": "osm",
    "refs": {
      "osm": "259354485"
    },
    "type": "archaeological_site"
  },
  {
    "id": "1110",
    "name": "Chateau Ziride d'Achir",
    "wilaya_code": "67",
    "commune_code": null,
    "commune": null,
    "lat": 35.9276643,
    "lng": 3.2935029,
    "geo_precision": "exact",
    "geo_method": "osm",
    "source": "osm",
    "refs": {
      "osm": "453662333"
    },
    "type": "ruins"
  },
  {
    "id": "1111",
    "name": "École de garçons du Vieux-Ténès, مدرسة الذكور",
    "name_fr": "École de garçons du Vieux-Ténès",
    "name_ar": "مدرسة الذكور",
    "wilaya_code": "02",
    "commune_code": null,
    "commune": null,
    "lat": 36.5002922,
    "lng": 1.3138962,
    "geo_precision": "exact",
    "geo_method": "osm",
    "source": "osm",
    "refs": {
      "osm": "13439646175"
    },
    "type": "school"
  },
  {
    "id": "1112",
    "name": "مفترق طرق",
    "wilaya_code": "64",
    "commune_code": null,
    "commune": null,
    "lat": 34.7043494,
    "lng": 2.4055941,
    "geo_precision": "exact",
    "geo_method": "osm",
    "source": "osm",
    "refs": {
      "osm": "12685692276"
    },
    "type": "technical_monument"
  },
  {
    "id": "1113",
    "name": "Cathedrale",
    "wilaya_code": "05",
    "commune_code": null,
    "commune": null,
    "lat": 35.4863974,
    "lng": 6.465826,
    "geo_precision": "exact",
    "geo_method": "osm",
    "source": "osm",
    "refs": {
      "osm": "5433761834"
    },
    "type": "temple"
  },
  {
    "id": "1114",
    "name": "Sidi Bouras, سيدي بوراس",
    "name_fr": "Sidi Bouras",
    "name_ar": "سيدي بوراس",
    "wilaya_code": "02",
    "commune_code": null,
    "commune": null,
    "lat": 36.5001808,
    "lng": 1.3136826,
    "geo_precision": "exact",
    "geo_method": "osm",
    "source": "osm",
    "refs": {
      "osm": "1465515671"
    },
    "type": "tomb"
  },
  {
    "id": "1115",
    "name": "Sidi Hakkoum",
    "wilaya_code": "03",
    "commune_code": null,
    "commune": null,
    "lat": 33.809786,
    "lng": 2.8926276,
    "geo_precision": "exact",
    "geo_method": "osm",
    "source": "osm",
    "refs": {
      "osm": "43763360"
    },
    "type": "tomb"
  },
  {
    "id": "1116",
    "name": "قبر بلقطيف",
    "wilaya_code": "03",
    "commune_code": null,
    "commune": null,
    "lat": 32.837358,
    "lng": 2.4708531,
    "geo_precision": "exact",
    "geo_method": "osm",
    "source": "osm",
    "refs": {
      "osm": "13721791801"
    },
    "type": "tomb"
  },
  {
    "id": "1117",
    "name": "Imma Tadrart",
    "name_ar": "يما ثاذرارث",
    "wilaya_code": "06",
    "commune_code": null,
    "commune": null,
    "lat": 36.6408304,
    "lng": 5.2322347,
    "geo_precision": "exact",
    "geo_method": "osm",
    "source": "osm",
    "refs": {
      "osm": "436647820"
    },
    "type": "tomb"
  },
  {
    "id": "1118",
    "name": "Mausolée Sidi Younes",
    "wilaya_code": "06",
    "commune_code": null,
    "commune": null,
    "lat": 36.5387269,
    "lng": 4.586552,
    "geo_precision": "exact",
    "geo_method": "osm",
    "source": "osm",
    "refs": {
      "osm": "5636072039"
    },
    "type": "tomb"
  },
  {
    "id": "1119",
    "name": "Mausolée de Sidi Aïssa",
    "name_fr": "Mausolée de Sidi Aïssa",
    "name_ar": "ضريح سيدي عيسى",
    "wilaya_code": "06",
    "commune_code": null,
    "commune": null,
    "lat": 36.7667519,
    "lng": 5.1040556,
    "geo_precision": "exact",
    "geo_method": "osm",
    "source": "osm",
    "refs": {
      "osm": "424799508"
    },
    "type": "tomb"
  },
  {
    "id": "112",
    "name": "Ksar Baghai",
    "wilaya_code": "40",
    "commune_code": null,
    "commune": null,
    "lat": 35.5355503,
    "lng": 7.1182448,
    "geo_precision": "exact",
    "geo_method": "osm",
    "source": "osm",
    "refs": {
      "osm": "265150241"
    },
    "type": "archaeological_site"
  },
  {
    "id": "1120",
    "name": "Mausolée de Yemma Timezrite",
    "wilaya_code": "06",
    "commune_code": null,
    "commune": null,
    "lat": 36.6074243,
    "lng": 4.7673448,
    "geo_precision": "exact",
    "geo_method": "osm",
    "source": "osm",
    "refs": {
      "osm": "4289707165"
    },
    "type": "tomb"
  },
  {
    "id": "1121",
    "name": "Mqam Sidi Younes",
    "wilaya_code": "06",
    "commune_code": null,
    "commune": null,
    "lat": 36.5383806,
    "lng": 4.586553,
    "geo_precision": "exact",
    "geo_method": "osm",
    "source": "osm",
    "refs": {
      "osm": "5636073674"
    },
    "type": "tomb"
  },
  {
    "id": "1122",
    "name": "Sidi Bouali",
    "name_fr": "Sidi Bouali",
    "name_ar": "سيدي بوعلي",
    "wilaya_code": "06",
    "commune_code": null,
    "commune": null,
    "lat": 36.7597434,
    "lng": 5.0912482,
    "geo_precision": "exact",
    "geo_method": "osm",
    "source": "osm",
    "refs": {
      "osm": "485194580"
    },
    "type": "tomb"
  },
  {
    "id": "1123",
    "name": "Qobat Sidi Abdellah",
    "wilaya_code": "09",
    "commune_code": null,
    "commune": null,
    "lat": 36.6436139,
    "lng": 2.8472391,
    "geo_precision": "exact",
    "geo_method": "osm",
    "source": "osm",
    "refs": {
      "osm": "1594818852"
    },
    "type": "tomb"
  },
  {
    "id": "1124",
    "name": "Tombeau de Sidi Ahmed El Kebir",
    "name_fr": "Tombeau de Sidi Ahmed El Kebir",
    "name_ar": "ضريح سيدي أحمد الكبير",
    "wilaya_code": "09",
    "commune_code": null,
    "commune": null,
    "lat": 36.4466521,
    "lng": 2.8397784,
    "geo_precision": "exact",
    "geo_method": "osm",
    "source": "osm",
    "refs": {
      "osm": "3811530464"
    },
    "type": "tomb"
  },
  {
    "id": "1125",
    "name": "Tombeau du marabout Moulay Hassan",
    "wilaya_code": "11",
    "commune_code": null,
    "commune": null,
    "lat": 24.7083794,
    "lng": 4.6534215,
    "geo_precision": "exact",
    "geo_method": "osm",
    "source": "osm",
    "refs": {
      "osm": "496884974"
    },
    "type": "tomb"
  },
  {
    "id": "1126",
    "name": "مرتتك",
    "name_fr": "Mertoutek",
    "name_ar": "مرتتك",
    "wilaya_code": "11",
    "commune_code": null,
    "commune": null,
    "lat": 24.2164814,
    "lng": 5.5669426,
    "geo_precision": "exact",
    "geo_method": "osm",
    "source": "osm",
    "refs": {
      "osm": "7703802637"
    },
    "type": "tomb"
  },
  {
    "id": "1127",
    "name": "Marabout",
    "wilaya_code": "13",
    "commune_code": null,
    "commune": null,
    "lat": 35.2143505,
    "lng": -1.6226389,
    "geo_precision": "exact",
    "geo_method": "osm",
    "source": "osm",
    "refs": {
      "osm": "3686941834"
    },
    "type": "tomb"
  },
  {
    "id": "1128",
    "name": "Mausolée de Princesse - ضريح الأميرة -ⵜⴰⵎⴹⴰⵍⵜ ⵏ ⵜⴰⴳⵍⴷⵓⵏⵜ",
    "name_fr": "Mausolée de Princesse",
    "wilaya_code": "13",
    "commune_code": null,
    "commune": null,
    "lat": 34.8863632,
    "lng": -1.2981441,
    "geo_precision": "exact",
    "geo_method": "osm",
    "source": "osm",
    "refs": {
      "osm": "5054966802"
    },
    "type": "tomb"
  },
  {
    "id": "1129",
    "name": "Mausolée de Sidi Yakoub - ضريح سيدي يعقوب -ⵜⴰⵎⴹⴰⵍⵜ ⵏ ⵙⵉⴷⵉ ⵢⴰⵄⵇⵓⴱ",
    "name_fr": "Mausolée de Sidi Yakoub",
    "wilaya_code": "13",
    "commune_code": null,
    "commune": null,
    "lat": 34.8863797,
    "lng": -1.2986886,
    "geo_precision": "exact",
    "geo_method": "osm",
    "source": "osm",
    "refs": {
      "osm": "5054966801"
    },
    "type": "tomb"
  },
  {
    "id": "113",
    "name": "حمام الصالحين ⵃⴻⵎⵎⴰⵎ ⵚⴰⵍⵃⵉⵏ",
    "name_fr": "Hammam Essalihine",
    "name_ar": "حمام الصالحين",
    "wilaya_code": "40",
    "commune_code": null,
    "commune": null,
    "lat": 35.4401595,
    "lng": 7.0846943,
    "geo_precision": "exact",
    "geo_method": "osm",
    "source": "osm",
    "refs": {
      "osm": "2662646762"
    },
    "type": "archaeological_site"
  },
  {
    "id": "1130",
    "name": "Tombe de Messali El-Hadj",
    "name_fr": "Tombe de Messali El Hadj",
    "wilaya_code": "13",
    "commune_code": null,
    "commune": null,
    "lat": 34.8791714,
    "lng": -1.3005375,
    "geo_precision": "exact",
    "geo_method": "osm",
    "source": "osm",
    "refs": {
      "osm": "10008484048"
    },
    "type": "tomb"
  },
  {
    "id": "1131",
    "name": "Tombeau de Sidi Boumediéne ضريح سيدي بومدين",
    "name_fr": "Tombeau de Sidi Boumediéne",
    "name_ar": "ضريح سيدي بومدين",
    "wilaya_code": "13",
    "commune_code": null,
    "commune": null,
    "lat": 34.8779521,
    "lng": -1.2897675,
    "geo_precision": "exact",
    "geo_method": "osm",
    "source": "osm",
    "refs": {
      "osm": "9997775417"
    },
    "type": "tomb"
  },
  {
    "id": "1132",
    "name": "ضريح لآلة ستي",
    "name_fr": "Tombeau Lalla Setti",
    "name_ar": "ضريح لآلة ستي",
    "wilaya_code": "13",
    "commune_code": null,
    "commune": null,
    "lat": 34.8671496,
    "lng": -1.3230064,
    "geo_precision": "exact",
    "geo_method": "osm",
    "source": "osm",
    "refs": {
      "osm": "1091869570"
    },
    "type": "tomb"
  },
  {
    "id": "1133",
    "name": "ضريح مولاي عبد القادر",
    "name_ar": "ضريح مولاي عبد القادر",
    "wilaya_code": "13",
    "commune_code": null,
    "commune": null,
    "lat": 34.8772458,
    "lng": -1.2925921,
    "geo_precision": "exact",
    "geo_method": "osm",
    "source": "osm",
    "refs": {
      "osm": "1091631807"
    },
    "type": "tomb"
  },
  {
    "id": "1134",
    "name": "مقام سيدنا يوشع",
    "name_fr": "Mausolée de Sidna Youchaa",
    "name_ar": "مقام سيدنا يوشع",
    "wilaya_code": "13",
    "commune_code": null,
    "commune": null,
    "lat": 35.1163877,
    "lng": -1.7805413,
    "geo_precision": "exact",
    "geo_method": "osm",
    "source": "osm",
    "refs": {
      "osm": "1524182618"
    },
    "type": "tomb"
  },
  {
    "id": "1135",
    "name": "Amṛaveḍ Muḥ",
    "wilaya_code": "15",
    "commune_code": null,
    "commune": null,
    "lat": 36.6078334,
    "lng": 4.107298,
    "geo_precision": "exact",
    "geo_method": "osm",
    "source": "osm",
    "refs": {
      "osm": "5023179068"
    },
    "type": "tomb"
  },
  {
    "id": "1136",
    "name": "Aẓẓekka n LWENAS MATUB",
    "wilaya_code": "15",
    "commune_code": null,
    "commune": null,
    "lat": 36.618268,
    "lng": 4.1199754,
    "geo_precision": "exact",
    "geo_method": "osm",
    "source": "osm",
    "refs": {
      "osm": "5023179166"
    },
    "type": "tomb"
  },
  {
    "id": "1137",
    "name": "Aẓẓekka n Umyaru Dda Racid Allic \"At Mussa\"",
    "wilaya_code": "15",
    "commune_code": null,
    "commune": null,
    "lat": 36.6077501,
    "lng": 4.1095578,
    "geo_precision": "exact",
    "geo_method": "osm",
    "source": "osm",
    "refs": {
      "osm": "5023200927"
    },
    "type": "tomb"
  },
  {
    "id": "1138",
    "name": "Jeddi Wejjriw Amɣaṛ",
    "wilaya_code": "15",
    "commune_code": null,
    "commune": null,
    "lat": 36.6080383,
    "lng": 4.1070607,
    "geo_precision": "exact",
    "geo_method": "osm",
    "source": "osm",
    "refs": {
      "osm": "5023179236"
    },
    "type": "tomb"
  },
  {
    "id": "1139",
    "name": "Tajjebant n Tizi Asker-Cimetière",
    "wilaya_code": "15",
    "commune_code": null,
    "commune": null,
    "lat": 36.6079313,
    "lng": 4.1096926,
    "geo_precision": "exact",
    "geo_method": "osm",
    "source": "osm",
    "refs": {
      "osm": "5023179186"
    },
    "type": "tomb"
  },
  {
    "id": "114",
    "name": "قصرالجازية - Mausolée de Cedias",
    "name_fr": "Mausolée de Cédias",
    "wilaya_code": "40",
    "commune_code": null,
    "commune": null,
    "lat": 35.3222656,
    "lng": 7.2349306,
    "geo_precision": "exact",
    "geo_method": "osm",
    "source": "osm",
    "refs": {
      "osm": "318626658"
    },
    "type": "archaeological_site"
  },
  {
    "id": "1140",
    "name": "Tajjebant n Tizi Asker-Cimetière",
    "wilaya_code": "15",
    "commune_code": null,
    "commune": null,
    "lat": 36.6084852,
    "lng": 4.1091444,
    "geo_precision": "exact",
    "geo_method": "osm",
    "source": "osm",
    "refs": {
      "osm": "5031202157"
    },
    "type": "tomb"
  },
  {
    "id": "1141",
    "name": "زاوية سيدي بهلول",
    "name_ar": "زاوية سيدي بهلول",
    "wilaya_code": "15",
    "commune_code": null,
    "commune": null,
    "lat": 36.7189883,
    "lng": 4.3756708,
    "geo_precision": "exact",
    "geo_method": "osm",
    "source": "osm",
    "refs": {
      "osm": "6654120889"
    },
    "type": "tomb"
  },
  {
    "id": "1142",
    "name": "Maqam Abd al-Rahman al-Tha'alibi",
    "wilaya_code": "16",
    "commune_code": null,
    "commune": null,
    "lat": 36.7882365,
    "lng": 3.0593638,
    "geo_precision": "exact",
    "geo_method": "osm",
    "source": "osm",
    "refs": {
      "osm": "11940681506"
    },
    "type": "tomb"
  },
  {
    "id": "1143",
    "name": "قبر شهيد",
    "name_ar": "قبر شهيد",
    "wilaya_code": "16",
    "commune_code": null,
    "commune": null,
    "lat": 36.7729796,
    "lng": 3.0270434,
    "geo_precision": "exact",
    "geo_method": "osm",
    "source": "osm",
    "refs": {
      "osm": "264441036"
    },
    "type": "tomb"
  },
  {
    "id": "1144",
    "name": "مقام سيدي عبدالرحمان",
    "wilaya_code": "16",
    "commune_code": null,
    "commune": null,
    "lat": 36.7882951,
    "lng": 3.059509,
    "geo_precision": "exact",
    "geo_method": "osm",
    "source": "osm",
    "refs": {
      "osm": "1287518931"
    },
    "type": "tomb"
  },
  {
    "id": "1145",
    "name": "Tombeau de Massinissa",
    "name_fr": "Tombeau de Massinissa",
    "name_ar": "ضريح ماسينيسا",
    "wilaya_code": "25",
    "commune_code": null,
    "commune": null,
    "lat": 36.2721943,
    "lng": 6.725097,
    "geo_precision": "exact",
    "geo_method": "osm",
    "source": "osm",
    "refs": {
      "osm": "2476104378"
    },
    "type": "tomb"
  },
  {
    "id": "1146",
    "name": "Mausolée Bey Bouchelaghem",
    "name_fr": "Mausolée Bey Bouchelaghem",
    "name_ar": "ضريح الباي بوشلاغم",
    "wilaya_code": "27",
    "commune_code": null,
    "commune": null,
    "lat": 35.9330997,
    "lng": 0.0947749,
    "geo_precision": "exact",
    "geo_method": "osm",
    "source": "osm",
    "refs": {
      "osm": "5621744588"
    },
    "type": "tomb"
  },
  {
    "id": "1147",
    "name": "Mausolée Sidi Abdallah",
    "wilaya_code": "27",
    "commune_code": null,
    "commune": null,
    "lat": 35.9323862,
    "lng": 0.0928581,
    "geo_precision": "exact",
    "geo_method": "osm",
    "source": "osm",
    "refs": {
      "osm": "503054185"
    },
    "type": "tomb"
  },
  {
    "id": "1148",
    "name": "Mausolée de Sidi Said",
    "wilaya_code": "27",
    "commune_code": null,
    "commune": null,
    "lat": 35.9307813,
    "lng": 0.0908143,
    "geo_precision": "exact",
    "geo_method": "osm",
    "source": "osm",
    "refs": {
      "osm": "498052533"
    },
    "type": "tomb"
  },
  {
    "id": "1149",
    "name": "Sidi Lakhdar Ben Khlouf",
    "name_fr": "Sidi Lakhdar Ben Khlouf",
    "name_ar": "سيدي لخضر بن خلوف",
    "wilaya_code": "27",
    "commune_code": null,
    "commune": null,
    "lat": 36.1438081,
    "lng": 0.4604624,
    "geo_precision": "exact",
    "geo_method": "osm",
    "source": "osm",
    "refs": {
      "osm": "367499544"
    },
    "type": "tomb"
  },
  {
    "id": "115",
    "name": "Ancient Roman theater in Khamissa",
    "wilaya_code": "41",
    "commune_code": null,
    "commune": null,
    "lat": 36.1937048,
    "lng": 7.6559214,
    "geo_precision": "exact",
    "geo_method": "osm",
    "source": "osm",
    "refs": {
      "osm": "1321739924"
    },
    "type": "archaeological_site"
  },
  {
    "id": "1150",
    "name": "Mausolée Sidi Daho",
    "name_ar": "ضريح سيدي دحو",
    "wilaya_code": "29",
    "commune_code": null,
    "commune": null,
    "lat": 35.4419689,
    "lng": 0.1696166,
    "geo_precision": "exact",
    "geo_method": "osm",
    "source": "osm",
    "refs": {
      "osm": "545794909"
    },
    "type": "tomb"
  },
  {
    "id": "1151",
    "name": "مقام الولي الصالح سيداحمد بن علي",
    "name_ar": "مقام الولي الصالح سيداحمد بن علي",
    "wilaya_code": "29",
    "commune_code": null,
    "commune": null,
    "lat": 35.3438416,
    "lng": 0.1972413,
    "geo_precision": "exact",
    "geo_method": "osm",
    "source": "osm",
    "refs": {
      "osm": "5608127821"
    },
    "type": "tomb"
  },
  {
    "id": "1152",
    "name": "مقام الولي الصالح سيدي عبد القادر الجيلاني",
    "name_ar": "مقام الولي الصالح سيدي عبد القادر الجيلاني",
    "wilaya_code": "29",
    "commune_code": null,
    "commune": null,
    "lat": 35.4166303,
    "lng": 0.3304278,
    "geo_precision": "exact",
    "geo_method": "osm",
    "source": "osm",
    "refs": {
      "osm": "5666568721"
    },
    "type": "tomb"
  },
  {
    "id": "1153",
    "name": "ضريح",
    "name_fr": "Mausolée",
    "name_ar": "ضريح",
    "wilaya_code": "30",
    "commune_code": null,
    "commune": null,
    "lat": 31.9645176,
    "lng": 5.3367438,
    "geo_precision": "exact",
    "geo_method": "osm",
    "source": "osm",
    "refs": {
      "osm": "3884401951"
    },
    "type": "tomb"
  },
  {
    "id": "1154",
    "name": "قبة سيدي برجال",
    "name_fr": "Dôme Sidi Berdjal",
    "name_ar": "قبة سيدي برجال",
    "wilaya_code": "30",
    "commune_code": null,
    "commune": null,
    "lat": 31.9640395,
    "lng": 5.2752262,
    "geo_precision": "exact",
    "geo_method": "osm",
    "source": "osm",
    "refs": {
      "osm": "592020798"
    },
    "type": "tomb"
  },
  {
    "id": "1155",
    "name": "مقام سيدي منصور",
    "name_fr": "Tombeau de Sidi Mansour",
    "wilaya_code": "31",
    "commune_code": null,
    "commune": null,
    "lat": 35.7946277,
    "lng": -0.0934596,
    "geo_precision": "exact",
    "geo_method": "osm",
    "source": "osm",
    "refs": {
      "osm": "4889861978"
    },
    "type": "tomb"
  },
  {
    "id": "1156",
    "name": "سيدي علي بن سعيد",
    "name_ar": "سيدي علي بن سعيد",
    "wilaya_code": "32",
    "commune_code": null,
    "commune": null,
    "lat": 33.3810979,
    "lng": 1.1953774,
    "geo_precision": "exact",
    "geo_method": "osm",
    "source": "osm",
    "refs": {
      "osm": "9997708624"
    },
    "type": "tomb"
  },
  {
    "id": "1157",
    "name": "Caveau punique",
    "name_fr": "Caveau Punique",
    "wilaya_code": "42",
    "commune_code": null,
    "commune": null,
    "lat": 36.5938013,
    "lng": 2.4508857,
    "geo_precision": "exact",
    "geo_method": "osm",
    "source": "osm",
    "refs": {
      "osm": "543583831"
    },
    "type": "tomb"
  },
  {
    "id": "1158",
    "name": "Mausolée Royal de Maurétanie الضريح الملكي الموريطاني",
    "name_fr": "Mausolée Royal de Maurétanie",
    "name_ar": "الضريح الملكي الموريطاني",
    "wilaya_code": "42",
    "commune_code": null,
    "commune": null,
    "lat": 36.574971,
    "lng": 2.5527945,
    "geo_precision": "exact",
    "geo_method": "osm",
    "source": "osm",
    "refs": {
      "osm": "243563008"
    },
    "type": "tomb"
  },
  {
    "id": "1159",
    "name": "Mausolée Sid-Ali Ferki",
    "name_fr": "Mausolée Sid-Ali Ferki",
    "name_ar": "ضريح سيدعلي فركي",
    "wilaya_code": "42",
    "commune_code": null,
    "commune": null,
    "lat": 36.6111532,
    "lng": 2.1880807,
    "geo_precision": "exact",
    "geo_method": "osm",
    "source": "osm",
    "refs": {
      "osm": "489554575"
    },
    "type": "tomb"
  },
  {
    "id": "116",
    "name": "Forum Novum",
    "wilaya_code": "41",
    "commune_code": null,
    "commune": null,
    "lat": 36.1919041,
    "lng": 7.6539647,
    "geo_precision": "exact",
    "geo_method": "osm",
    "source": "osm",
    "refs": {
      "osm": "1321756093"
    },
    "type": "archaeological_site"
  },
  {
    "id": "1160",
    "name": "Mausolée Sidi Brahem",
    "name_fr": "Mausolée Sidi Brahem",
    "name_ar": "ضريح سيدي براهم",
    "wilaya_code": "42",
    "commune_code": null,
    "commune": null,
    "lat": 36.6095388,
    "lng": 2.195965,
    "geo_precision": "exact",
    "geo_method": "osm",
    "source": "osm",
    "refs": {
      "osm": "448438834"
    },
    "type": "tomb"
  },
  {
    "id": "1161",
    "name": "Sidi Bou- Djemlin",
    "wilaya_code": "43",
    "commune_code": null,
    "commune": null,
    "lat": 36.2046961,
    "lng": 6.3340715,
    "geo_precision": "exact",
    "geo_method": "osm",
    "source": "osm",
    "refs": {
      "osm": "5252207662"
    },
    "type": "tomb"
  },
  {
    "id": "1162",
    "name": "Memorial of Martyr Bou Gueroumi نصب تذكاري الشهيد بوقرومي",
    "name_ar": "نصب تذكاري الشهيد بوقرومي",
    "wilaya_code": "44",
    "commune_code": null,
    "commune": null,
    "lat": 36.3997288,
    "lng": 2.2408622,
    "geo_precision": "exact",
    "geo_method": "osm",
    "source": "osm",
    "refs": {
      "osm": "10991629921"
    },
    "type": "tomb"
  },
  {
    "id": "1163",
    "name": "Sidi Abdeka",
    "wilaya_code": "44",
    "commune_code": null,
    "commune": null,
    "lat": 36.3090377,
    "lng": 2.1801362,
    "geo_precision": "exact",
    "geo_method": "osm",
    "source": "osm",
    "refs": {
      "osm": "308579205"
    },
    "type": "tomb"
  },
  {
    "id": "1164",
    "name": "Sidi Belgacem",
    "name_ar": "سيدي بلقاسم",
    "wilaya_code": "44",
    "commune_code": null,
    "commune": null,
    "lat": 36.3044649,
    "lng": 2.2279172,
    "geo_precision": "exact",
    "geo_method": "osm",
    "source": "osm",
    "refs": {
      "osm": "308418146"
    },
    "type": "tomb"
  },
  {
    "id": "1165",
    "name": "Mausolée Sidi Brahim",
    "name_fr": "Mausolée Sidi Brahim",
    "name_ar": "ضريح آمي ابراهيم",
    "wilaya_code": "47",
    "commune_code": null,
    "commune": null,
    "lat": 32.4736489,
    "lng": 3.7448504,
    "geo_precision": "exact",
    "geo_method": "osm",
    "source": "osm",
    "refs": {
      "osm": "4805793122"
    },
    "type": "tomb"
  },
  {
    "id": "1166",
    "name": "قبة سيدي بنور",
    "name_fr": "Mausolée Sidi Bennour",
    "wilaya_code": "47",
    "commune_code": null,
    "commune": null,
    "lat": 32.5860873,
    "lng": 3.3332173,
    "geo_precision": "exact",
    "geo_method": "osm",
    "source": "osm",
    "refs": {
      "osm": "10728365082"
    },
    "type": "tomb"
  },
  {
    "id": "1167",
    "name": "KANACHE el Hadj Adda",
    "wilaya_code": "48",
    "commune_code": null,
    "commune": null,
    "lat": 36.140254,
    "lng": 0.7850732,
    "geo_precision": "exact",
    "geo_method": "osm",
    "source": "osm",
    "refs": {
      "osm": "588427818"
    },
    "type": "tomb"
  },
  {
    "id": "1168",
    "name": "ضريح المرابط سيدي عمارة",
    "name_fr": "Tombeau du marabout Sidi Amara",
    "name_ar": "ضريح المرابط سيدي عمارة",
    "wilaya_code": "48",
    "commune_code": null,
    "commune": null,
    "lat": 35.8665556,
    "lng": 1.1207252,
    "geo_precision": "exact",
    "geo_method": "osm",
    "source": "osm",
    "refs": {
      "osm": "3352114631"
    },
    "type": "tomb"
  },
  {
    "id": "1169",
    "name": "قبر سيدي يحيى",
    "name_ar": "قبر سيدي يحيى",
    "wilaya_code": "48",
    "commune_code": null,
    "commune": null,
    "lat": 35.6905432,
    "lng": 0.6961898,
    "geo_precision": "exact",
    "geo_method": "osm",
    "source": "osm",
    "refs": {
      "osm": "799417138"
    },
    "type": "tomb"
  },
  {
    "id": "117",
    "name": "Madauros Theatre",
    "wilaya_code": "41",
    "commune_code": null,
    "commune": null,
    "lat": 36.0778831,
    "lng": 7.9014802,
    "geo_precision": "exact",
    "geo_method": "osm",
    "source": "osm",
    "refs": {
      "osm": "284087760"
    },
    "type": "archaeological_site"
  },
  {
    "id": "1170",
    "name": "مقام سيد الشيخ",
    "name_fr": "Makam Sidi Cheikh",
    "name_ar": "مقام سيد الشيخ",
    "wilaya_code": "49",
    "commune_code": null,
    "commune": null,
    "lat": 30.5296748,
    "lng": 0.5168735,
    "geo_precision": "exact",
    "geo_method": "osm",
    "source": "osm",
    "refs": {
      "osm": "3340341919"
    },
    "type": "tomb"
  },
  {
    "id": "1171",
    "name": "ضريح الحاج الشيخ",
    "wilaya_code": "53",
    "commune_code": null,
    "commune": null,
    "lat": 27.0793081,
    "lng": 1.807345,
    "geo_precision": "exact",
    "geo_method": "osm",
    "source": "osm",
    "refs": {
      "osm": "10586594426"
    },
    "type": "tomb"
  },
  {
    "id": "1172",
    "name": "Tomb of Charles de Foucauld",
    "wilaya_code": "58",
    "commune_code": null,
    "commune": null,
    "lat": 30.6148019,
    "lng": 2.8733355,
    "geo_precision": "exact",
    "geo_method": "osm",
    "source": "osm",
    "refs": {
      "osm": "640548439"
    },
    "type": "tomb"
  },
  {
    "id": "1173",
    "name": "ضريح الشيخ مولاي الطيب",
    "wilaya_code": "58",
    "commune_code": null,
    "commune": null,
    "lat": 30.5789544,
    "lng": 2.9005596,
    "geo_precision": "exact",
    "geo_method": "osm",
    "source": "osm",
    "refs": {
      "osm": "10110853273"
    },
    "type": "tomb"
  },
  {
    "id": "1174",
    "name": "ضريح سيدي الجيلالي",
    "name_ar": "ضريح سيدي الجيلالي",
    "wilaya_code": "63",
    "commune_code": null,
    "commune": null,
    "lat": 34.4628758,
    "lng": -1.5843247,
    "geo_precision": "exact",
    "geo_method": "osm",
    "source": "osm",
    "refs": {
      "osm": "1093158630"
    },
    "type": "tomb"
  },
  {
    "id": "1175",
    "name": "Ancienne mairie de Oued Athmania بلدية الوادي العثمانية العتيق",
    "name_fr": "Ancienne mairie de Oued Athmania",
    "name_ar": "بلدية الوادي العثمانية العتيق",
    "wilaya_code": "43",
    "commune_code": null,
    "commune": null,
    "lat": 36.2482216,
    "lng": 6.2892199,
    "geo_precision": "exact",
    "geo_method": "osm",
    "source": "osm",
    "refs": {
      "osm": "1452387674"
    },
    "type": "townhall"
  },
  {
    "id": "1176",
    "name": "monument to the dead of Batna",
    "name_fr": "monument aux morts de Batna",
    "name_ar": "نصب تذكاري لموتى باتنة",
    "wilaya_code": "05",
    "commune_code": null,
    "commune": null,
    "lat": 35.5588,
    "lng": 6.18466,
    "geo_precision": "exact",
    "geo_method": "osm",
    "source": "osm",
    "type": "war_memorial"
  },
  {
    "id": "1177",
    "name": "Monument aux morts de Relizane",
    "name_fr": "Monument aux morts de Relizane",
    "wilaya_code": "48",
    "commune_code": null,
    "commune": null,
    "lat": 35.7333333,
    "lng": 0.55,
    "geo_precision": "exact",
    "geo_method": "osm",
    "source": "osm",
    "type": "war_memorial"
  },
  {
    "id": "1178",
    "name": "Bir Chebana بير شبانة",
    "name_fr": "Bir Chebana",
    "name_ar": "بير شبانة",
    "wilaya_code": "16",
    "commune_code": null,
    "commune": null,
    "lat": 36.7864901,
    "lng": 3.0592597,
    "geo_precision": "exact",
    "geo_method": "osm",
    "source": "osm",
    "refs": {
      "osm": "11958896144"
    },
    "type": "water_tap"
  },
  {
    "id": "1179",
    "name": "Bir Sidi Abdallah بير سيدي عبدالله",
    "name_fr": "Bir Sidi Abdallah",
    "name_ar": "بير سيدي عبدالله",
    "wilaya_code": "16",
    "commune_code": null,
    "commune": null,
    "lat": 36.7846157,
    "lng": 3.0582549,
    "geo_precision": "exact",
    "geo_method": "osm",
    "source": "osm",
    "refs": {
      "osm": "12466951047"
    },
    "type": "water_tap"
  },
  {
    "id": "118",
    "name": "Thermae",
    "wilaya_code": "41",
    "commune_code": null,
    "commune": null,
    "lat": 36.1921346,
    "lng": 7.6535203,
    "geo_precision": "exact",
    "geo_method": "osm",
    "source": "osm",
    "refs": {
      "osm": "1321756094"
    },
    "type": "archaeological_site"
  },
  {
    "id": "1180",
    "name": "بير جباح",
    "name_fr": "Bir djebah",
    "name_ar": "بير جباح",
    "wilaya_code": "16",
    "commune_code": null,
    "commune": null,
    "lat": 36.7845596,
    "lng": 3.0569201,
    "geo_precision": "exact",
    "geo_method": "osm",
    "source": "osm",
    "refs": {
      "osm": "12466941693"
    },
    "type": "water_tap"
  },
  {
    "id": "1181",
    "name": "سيدي يوسف",
    "name_fr": "Sidi Youssef",
    "name_ar": "سيدي يوسف",
    "wilaya_code": "08",
    "commune_code": null,
    "commune": null,
    "lat": 32.1023495,
    "lng": -1.1757963,
    "geo_precision": "exact",
    "geo_method": "osm",
    "source": "osm",
    "refs": {
      "osm": "441526882"
    },
    "type": "wayside_shrine"
  },
  {
    "id": "1182",
    "name": "Sophia",
    "name_fr": "Sophia",
    "wilaya_code": "21",
    "commune_code": null,
    "commune": null,
    "lat": 36.9132562,
    "lng": 7.1423241,
    "geo_precision": "exact",
    "geo_method": "osm",
    "source": "osm",
    "refs": {
      "osm": "20315826"
    },
    "type": "wreck"
  },
  {
    "id": "1183",
    "name": "Sidi Mejdoub",
    "wilaya_code": "27",
    "commune_code": null,
    "commune": null,
    "lat": 35.9529538,
    "lng": 0.0875831,
    "geo_precision": "exact",
    "geo_method": "osm",
    "source": "osm",
    "refs": {
      "osm": "3959366930"
    },
    "type": "wreck"
  },
  {
    "id": "1184",
    "name": "(بقايا حطام سفينة سويدية ستوكهولم (شاطئ البابور",
    "wilaya_code": "42",
    "commune_code": null,
    "commune": null,
    "lat": 36.5604571,
    "lng": 1.7513374,
    "geo_precision": "exact",
    "geo_method": "osm",
    "source": "osm",
    "refs": {
      "osm": "11074558455"
    },
    "type": "wreck"
  },
  {
    "id": "119",
    "name": "Thubursicum Numidarum",
    "wilaya_code": "41",
    "commune_code": null,
    "commune": null,
    "lat": 36.1915906,
    "lng": 7.6564366,
    "geo_precision": "exact",
    "geo_method": "osm",
    "source": "osm",
    "refs": {
      "osm": "1321739442"
    },
    "type": "archaeological_site"
  },
  {
    "id": "12",
    "name": "Chasseurs baths",
    "wilaya_code": "05",
    "commune_code": null,
    "commune": null,
    "lat": 35.4798512,
    "lng": 6.2700657,
    "geo_precision": "exact",
    "geo_method": "osm",
    "source": "osm",
    "refs": {
      "osm": "1261252372"
    },
    "type": "archaeological_site"
  },
  {
    "id": "120",
    "name": "Amphithéatre romain",
    "name_fr": "Amphithéatre romain",
    "name_ar": "المدرج الروماني",
    "wilaya_code": "42",
    "commune_code": null,
    "commune": null,
    "lat": 36.6085973,
    "lng": 2.1988885,
    "geo_precision": "exact",
    "geo_method": "osm",
    "source": "osm",
    "refs": {
      "osm": "266409896"
    },
    "type": "archaeological_site"
  },
  {
    "id": "121",
    "name": "Aqueduc Maurétanien de Cherchell",
    "wilaya_code": "42",
    "commune_code": null,
    "commune": null,
    "lat": 36.5685254,
    "lng": 2.290128,
    "geo_precision": "exact",
    "geo_method": "osm",
    "source": "osm",
    "refs": {
      "osm": "370173875"
    },
    "type": "archaeological_site"
  },
  {
    "id": "122",
    "name": "Archaeological Museum of Cherchell",
    "name_fr": "Musée archéologique de Cherchell",
    "wilaya_code": "42",
    "commune_code": null,
    "commune": null,
    "lat": 36.5979931,
    "lng": 2.2014234,
    "geo_precision": "exact",
    "geo_method": "osm",
    "source": "osm",
    "refs": {
      "osm": "4832565326"
    },
    "type": "archaeological_site"
  },
  {
    "id": "123",
    "name": "Breshk",
    "wilaya_code": "42",
    "commune_code": null,
    "commune": null,
    "lat": 36.5687845,
    "lng": 1.8603077,
    "geo_precision": "exact",
    "geo_method": "osm",
    "source": "osm",
    "refs": {
      "osm": "1487738119"
    },
    "type": "archaeological_site"
  },
  {
    "id": "124",
    "name": "Ruines Romaines de Tipaza",
    "name_fr": "Ruines Romaines de Tipaza",
    "name_ar": "الآثار الرومانية تيبازة",
    "wilaya_code": "42",
    "commune_code": null,
    "commune": null,
    "lat": 36.5946299,
    "lng": 2.4422403,
    "geo_precision": "exact",
    "geo_method": "osm",
    "source": "osm",
    "refs": {
      "osm": "171552738"
    },
    "type": "archaeological_site"
  },
  {
    "id": "125",
    "name": "Tipasa eastern archaeological zone",
    "name_fr": "parc archéologique de Tipasa est",
    "wilaya_code": "42",
    "commune_code": null,
    "commune": null,
    "lat": 36.5929,
    "lng": 2.4546,
    "geo_precision": "exact",
    "geo_method": "osm",
    "source": "osm",
    "type": "archaeological_site"
  },
  {
    "id": "126",
    "name": "Tipasa western archaeological zone",
    "name_fr": "parc archéologique de Tipasa ouest",
    "wilaya_code": "42",
    "commune_code": null,
    "commune": null,
    "lat": 36.594,
    "lng": 2.4434,
    "geo_precision": "exact",
    "geo_method": "osm",
    "source": "osm",
    "type": "archaeological_site"
  },
  {
    "id": "127",
    "name": "aqueduct of Cherchell",
    "name_fr": "aqueduc de Cherchell",
    "wilaya_code": "42",
    "commune_code": null,
    "commune": null,
    "lat": 36.6069444,
    "lng": 2.1966667,
    "geo_precision": "exact",
    "geo_method": "osm",
    "source": "osm",
    "type": "archaeological_site"
  },
  {
    "id": "128",
    "name": "El-Ksar",
    "wilaya_code": "43",
    "commune_code": null,
    "commune": null,
    "lat": 36.2603926,
    "lng": 5.5706896,
    "geo_precision": "exact",
    "geo_method": "osm",
    "source": "osm",
    "refs": {
      "osm": "1154161722"
    },
    "type": "archaeological_site"
  },
  {
    "id": "129",
    "name": "Mausoleum of Quintus Lollius Urbicus",
    "name_fr": "mausolée de Quintus Lollius Urbicus",
    "name_ar": "ضريح لوليوس أربيكيوس",
    "wilaya_code": "43",
    "commune_code": null,
    "commune": null,
    "lat": 36.489792,
    "lng": 6.483428,
    "geo_precision": "exact",
    "geo_method": "osm",
    "source": "osm",
    "type": "archaeological_site"
  },
  {
    "id": "13",
    "name": "Eastern Market of Timgad",
    "name_fr": "Marché de l'Est",
    "name_ar": "سوق تيمقاد الشرقي",
    "wilaya_code": "05",
    "commune_code": null,
    "commune": null,
    "lat": 35.485103,
    "lng": 6.4696197,
    "geo_precision": "exact",
    "geo_method": "osm",
    "source": "osm",
    "type": "archaeological_site"
  },
  {
    "id": "130",
    "name": "Mechta el-Arbi",
    "wilaya_code": "43",
    "commune_code": null,
    "commune": null,
    "lat": 36.099,
    "lng": 6.131,
    "geo_precision": "exact",
    "geo_method": "osm",
    "source": "osm",
    "type": "archaeological_site"
  },
  {
    "id": "131",
    "name": "Milevum",
    "name_fr": "Milev (Numidie)",
    "name_ar": "ميليفوم",
    "wilaya_code": "43",
    "commune_code": null,
    "commune": null,
    "lat": 36.4512765,
    "lng": 6.267698,
    "geo_precision": "exact",
    "geo_method": "osm",
    "source": "osm",
    "type": "archaeological_site"
  },
  {
    "id": "132",
    "name": "Quintus Lollius Urbicus Mausoleum",
    "name_fr": "Mausolée de Quintus Lollius Urbicus",
    "wilaya_code": "43",
    "commune_code": null,
    "commune": null,
    "lat": 36.4897736,
    "lng": 6.4834582,
    "geo_precision": "exact",
    "geo_method": "osm",
    "source": "osm",
    "refs": {
      "osm": "1268274982"
    },
    "type": "archaeological_site"
  },
  {
    "id": "133",
    "name": "Ruines Romaines Tiddis",
    "name_ar": "الآثار الرومانية تيديس",
    "wilaya_code": "43",
    "commune_code": null,
    "commune": null,
    "lat": 36.4623723,
    "lng": 6.4823717,
    "geo_precision": "exact",
    "geo_method": "osm",
    "source": "osm",
    "refs": {
      "osm": "3650432490"
    },
    "type": "archaeological_site"
  },
  {
    "id": "134",
    "name": "Site archéologique romain",
    "wilaya_code": "43",
    "commune_code": null,
    "commune": null,
    "lat": 36.4774998,
    "lng": 5.9971469,
    "geo_precision": "exact",
    "geo_method": "osm",
    "source": "osm",
    "refs": {
      "osm": "5422432767"
    },
    "type": "archaeological_site"
  },
  {
    "id": "135",
    "name": "Tazrut",
    "wilaya_code": "43",
    "commune_code": null,
    "commune": null,
    "lat": 36.2912948,
    "lng": 6.1050539,
    "geo_precision": "exact",
    "geo_method": "osm",
    "source": "osm",
    "refs": {
      "osm": "1491571097"
    },
    "type": "archaeological_site"
  },
  {
    "id": "136",
    "name": "Gargara (Aïn Defla)",
    "name_fr": "Gargara (Aïn Defla)",
    "name_ar": "آثار قرقرة",
    "wilaya_code": "44",
    "commune_code": null,
    "commune": null,
    "lat": 36.3049,
    "lng": 1.8471,
    "geo_precision": "exact",
    "geo_method": "osm",
    "source": "osm",
    "type": "archaeological_site"
  },
  {
    "id": "137",
    "name": "دار الشانبيط",
    "name_ar": "دار الشانبيط",
    "wilaya_code": "44",
    "commune_code": null,
    "commune": null,
    "lat": 36.3444683,
    "lng": 2.2669695,
    "geo_precision": "exact",
    "geo_method": "osm",
    "source": "osm",
    "refs": {
      "osm": "10931591600"
    },
    "type": "archaeological_site"
  },
  {
    "id": "138",
    "name": "Gravures Rupestres",
    "wilaya_code": "45",
    "commune_code": null,
    "commune": null,
    "lat": 32.7801707,
    "lng": -0.4107575,
    "geo_precision": "exact",
    "geo_method": "osm",
    "source": "osm",
    "refs": {
      "osm": "395980901"
    },
    "type": "archaeological_site"
  },
  {
    "id": "139",
    "name": "Albulae",
    "name_fr": "Albulae",
    "name_ar": "ألبولاي",
    "wilaya_code": "46",
    "commune_code": null,
    "commune": null,
    "lat": 35.294322,
    "lng": -1.140089,
    "geo_precision": "exact",
    "geo_method": "osm",
    "source": "osm",
    "type": "archaeological_site"
  },
  {
    "id": "14",
    "name": "Fort Byzantin",
    "wilaya_code": "05",
    "commune_code": null,
    "commune": null,
    "lat": 35.4794837,
    "lng": 6.4680411,
    "geo_precision": "exact",
    "geo_method": "osm",
    "source": "osm",
    "refs": {
      "osm": "11680106"
    },
    "type": "archaeological_site"
  },
  {
    "id": "140",
    "name": "Regiae",
    "name_fr": "Regiae",
    "name_ar": "ريجياي",
    "wilaya_code": "46",
    "commune_code": null,
    "commune": null,
    "lat": 35.45228,
    "lng": -0.618882,
    "geo_precision": "exact",
    "geo_method": "osm",
    "source": "osm",
    "type": "archaeological_site"
  },
  {
    "id": "141",
    "name": "Siga",
    "name_fr": "Siga",
    "name_ar": "سيقا",
    "wilaya_code": "46",
    "commune_code": null,
    "commune": null,
    "lat": 35.2664527,
    "lng": -1.4528777,
    "geo_precision": "exact",
    "geo_method": "osm",
    "source": "osm",
    "refs": {
      "osm": "2719759752"
    },
    "type": "archaeological_site"
  },
  {
    "id": "142",
    "name": "M'zab",
    "name_fr": "Mzab",
    "name_ar": "مزاب",
    "wilaya_code": "47",
    "commune_code": null,
    "commune": null,
    "lat": 32.4872222,
    "lng": 3.6813889,
    "geo_precision": "exact",
    "geo_method": "osm",
    "source": "osm",
    "type": "archaeological_site"
  },
  {
    "id": "143",
    "name": "Ksar el Kaoua",
    "wilaya_code": "48",
    "commune_code": null,
    "commune": null,
    "lat": 35.9190226,
    "lng": 1.2002424,
    "geo_precision": "exact",
    "geo_method": "osm",
    "source": "osm",
    "refs": {
      "osm": "1244100281"
    },
    "type": "archaeological_site"
  },
  {
    "id": "144",
    "name": "Ksar el Kaoua",
    "name_fr": "Ksar el Kaoua",
    "name_ar": "قصر كاوة",
    "wilaya_code": "48",
    "commune_code": null,
    "commune": null,
    "lat": 35.86667,
    "lng": 1.11667,
    "geo_precision": "exact",
    "geo_method": "osm",
    "source": "osm",
    "type": "archaeological_site"
  },
  {
    "id": "145",
    "name": "Ksar Draa",
    "name_fr": "Ksar Draa",
    "wilaya_code": "49",
    "commune_code": null,
    "commune": null,
    "lat": 29.5347801,
    "lng": 0.1832851,
    "geo_precision": "exact",
    "geo_method": "osm",
    "source": "osm",
    "refs": {
      "osm": "15441899"
    },
    "type": "archaeological_site"
  },
  {
    "id": "146",
    "name": "‎Tamimimoon Old Town",
    "name_fr": "‎Tamimimoon Old Town",
    "wilaya_code": "49",
    "commune_code": null,
    "commune": null,
    "lat": 29.2881765,
    "lng": 0.2413861,
    "geo_precision": "exact",
    "geo_method": "osm",
    "source": "osm",
    "refs": {
      "osm": "1276224921"
    },
    "type": "archaeological_site"
  },
  {
    "id": "147",
    "name": "Abri de In Temailt",
    "name_fr": "Abri de In Temailt",
    "wilaya_code": "56",
    "commune_code": null,
    "commune": null,
    "lat": 25.4295273,
    "lng": 7.4483919,
    "geo_precision": "exact",
    "geo_method": "osm",
    "source": "osm",
    "refs": {
      "osm": "9724483080"
    },
    "type": "archaeological_site"
  },
  {
    "id": "148",
    "name": "Abri de Ouairassen",
    "name_fr": "Abri de Ouairassen",
    "wilaya_code": "56",
    "commune_code": null,
    "commune": null,
    "lat": 25.4187845,
    "lng": 7.4679961,
    "geo_precision": "exact",
    "geo_method": "osm",
    "source": "osm",
    "refs": {
      "osm": "9724555693"
    },
    "type": "archaeological_site"
  },
  {
    "id": "149",
    "name": "Abri de Tigat Nalies (Three dancing women)",
    "name_fr": "Abri de Tigat Nalies",
    "wilaya_code": "56",
    "commune_code": null,
    "commune": null,
    "lat": 25.4354665,
    "lng": 7.5011398,
    "geo_precision": "exact",
    "geo_method": "osm",
    "source": "osm",
    "refs": {
      "osm": "7104280022"
    },
    "type": "archaeological_site"
  },
  {
    "id": "15",
    "name": "Forum",
    "wilaya_code": "05",
    "commune_code": null,
    "commune": null,
    "lat": 35.4848096,
    "lng": 6.4688325,
    "geo_precision": "exact",
    "geo_method": "osm",
    "source": "osm",
    "refs": {
      "osm": "7948650860"
    },
    "type": "archaeological_site"
  },
  {
    "id": "150",
    "name": "Abri de Tikadiouine",
    "wilaya_code": "56",
    "commune_code": null,
    "commune": null,
    "lat": 25.3419847,
    "lng": 8.0482866,
    "geo_precision": "exact",
    "geo_method": "osm",
    "source": "osm",
    "refs": {
      "osm": "9758089117"
    },
    "type": "archaeological_site"
  },
  {
    "id": "151",
    "name": "Akaham ouan Elbered",
    "wilaya_code": "56",
    "commune_code": null,
    "commune": null,
    "lat": 23.9820524,
    "lng": 10.9267505,
    "geo_precision": "exact",
    "geo_method": "osm",
    "source": "osm",
    "refs": {
      "osm": "316496850"
    },
    "type": "archaeological_site"
  },
  {
    "id": "152",
    "name": "Archeological Site",
    "wilaya_code": "56",
    "commune_code": null,
    "commune": null,
    "lat": 24.238574,
    "lng": 8.265454,
    "geo_precision": "exact",
    "geo_method": "osm",
    "source": "osm",
    "refs": {
      "osm": "827625216"
    },
    "type": "archaeological_site"
  },
  {
    "id": "153",
    "name": "Elephant petroglyph",
    "wilaya_code": "56",
    "commune_code": null,
    "commune": null,
    "lat": 24.0657945,
    "lng": 10.88279,
    "geo_precision": "exact",
    "geo_method": "osm",
    "source": "osm",
    "refs": {
      "osm": "7852977880"
    },
    "type": "archaeological_site"
  },
  {
    "id": "154",
    "name": "Elephant petroglyphs",
    "wilaya_code": "56",
    "commune_code": null,
    "commune": null,
    "lat": 24.0598779,
    "lng": 10.8330732,
    "geo_precision": "exact",
    "geo_method": "osm",
    "source": "osm",
    "refs": {
      "osm": "7072439585"
    },
    "type": "archaeological_site"
  },
  {
    "id": "155",
    "name": "Fish petroglyphs",
    "wilaya_code": "56",
    "commune_code": null,
    "commune": null,
    "lat": 24.0660215,
    "lng": 10.8831037,
    "geo_precision": "exact",
    "geo_method": "osm",
    "source": "osm",
    "refs": {
      "osm": "316501703"
    },
    "type": "archaeological_site"
  },
  {
    "id": "156",
    "name": "Giraffe petroglyphs of Tisseteka",
    "wilaya_code": "56",
    "commune_code": null,
    "commune": null,
    "lat": 24.0731266,
    "lng": 10.8234439,
    "geo_precision": "exact",
    "geo_method": "osm",
    "source": "osm",
    "refs": {
      "osm": "7104354883"
    },
    "type": "archaeological_site"
  },
  {
    "id": "157",
    "name": "Ikadnouchere rock paintings",
    "wilaya_code": "56",
    "commune_code": null,
    "commune": null,
    "lat": 25.3078556,
    "lng": 7.9622595,
    "geo_precision": "exact",
    "geo_method": "osm",
    "source": "osm",
    "refs": {
      "osm": "2552961759"
    },
    "type": "archaeological_site"
  },
  {
    "id": "158",
    "name": "Important Archeological Site",
    "wilaya_code": "56",
    "commune_code": null,
    "commune": null,
    "lat": 24.5109766,
    "lng": 8.4648236,
    "geo_precision": "exact",
    "geo_method": "osm",
    "source": "osm",
    "refs": {
      "osm": "827589876"
    },
    "type": "archaeological_site"
  },
  {
    "id": "159",
    "name": "Important Archeological Site",
    "wilaya_code": "56",
    "commune_code": null,
    "commune": null,
    "lat": 24.3761333,
    "lng": 7.9190277,
    "geo_precision": "exact",
    "geo_method": "osm",
    "source": "osm",
    "refs": {
      "osm": "827706867"
    },
    "type": "archaeological_site"
  },
  {
    "id": "16",
    "name": "Forum",
    "wilaya_code": "05",
    "commune_code": null,
    "commune": null,
    "lat": 35.4785866,
    "lng": 6.2694314,
    "geo_precision": "exact",
    "geo_method": "osm",
    "source": "osm",
    "refs": {
      "osm": "1261252370"
    },
    "type": "archaeological_site"
  },
  {
    "id": "160",
    "name": "Important archeological site",
    "wilaya_code": "56",
    "commune_code": null,
    "commune": null,
    "lat": 24.8126998,
    "lng": 8.6181268,
    "geo_precision": "exact",
    "geo_method": "osm",
    "source": "osm",
    "refs": {
      "osm": "818886215"
    },
    "type": "archaeological_site"
  },
  {
    "id": "161",
    "name": "In Tanadouft",
    "wilaya_code": "56",
    "commune_code": null,
    "commune": null,
    "lat": 25.3486162,
    "lng": 8.020466,
    "geo_precision": "exact",
    "geo_method": "osm",
    "source": "osm",
    "refs": {
      "osm": "7072462684"
    },
    "type": "archaeological_site"
  },
  {
    "id": "162",
    "name": "Ksar of Aghram",
    "wilaya_code": "56",
    "commune_code": null,
    "commune": null,
    "lat": 25.4251789,
    "lng": 8.4304252,
    "geo_precision": "exact",
    "geo_method": "osm",
    "source": "osm",
    "refs": {
      "osm": "768736202"
    },
    "type": "archaeological_site"
  },
  {
    "id": "163",
    "name": "Ouan Atan Felsmalereien",
    "wilaya_code": "56",
    "commune_code": null,
    "commune": null,
    "lat": 24.2695267,
    "lng": 10.8518936,
    "geo_precision": "exact",
    "geo_method": "osm",
    "source": "osm",
    "refs": {
      "osm": "316499810"
    },
    "type": "archaeological_site"
  },
  {
    "id": "164",
    "name": "Ouan Ekli petroglyphs",
    "wilaya_code": "56",
    "commune_code": null,
    "commune": null,
    "lat": 24.0648806,
    "lng": 10.84968,
    "geo_precision": "exact",
    "geo_method": "osm",
    "source": "osm",
    "refs": {
      "osm": "316501704"
    },
    "type": "archaeological_site"
  },
  {
    "id": "165",
    "name": "Ouan Iska",
    "wilaya_code": "56",
    "commune_code": null,
    "commune": null,
    "lat": 24.0661109,
    "lng": 10.9548148,
    "geo_precision": "exact",
    "geo_method": "osm",
    "source": "osm",
    "refs": {
      "osm": "7072156228"
    },
    "type": "archaeological_site"
  },
  {
    "id": "166",
    "name": "Ouan Takanessit Felsmalereien",
    "wilaya_code": "56",
    "commune_code": null,
    "commune": null,
    "lat": 24.2347282,
    "lng": 10.8838871,
    "geo_precision": "exact",
    "geo_method": "osm",
    "source": "osm",
    "refs": {
      "osm": "316499807"
    },
    "type": "archaeological_site"
  },
  {
    "id": "167",
    "name": "Ouan Zaouatan",
    "wilaya_code": "56",
    "commune_code": null,
    "commune": null,
    "lat": 24.0773348,
    "lng": 10.9357146,
    "geo_precision": "exact",
    "geo_method": "osm",
    "source": "osm",
    "refs": {
      "osm": "316499803"
    },
    "type": "archaeological_site"
  },
  {
    "id": "168",
    "name": "Oued Sirik",
    "wilaya_code": "56",
    "commune_code": null,
    "commune": null,
    "lat": 24.2196956,
    "lng": 10.8443718,
    "geo_precision": "exact",
    "geo_method": "osm",
    "source": "osm",
    "refs": {
      "osm": "7072298901"
    },
    "type": "archaeological_site"
  },
  {
    "id": "169",
    "name": "Place de Jean Claude",
    "wilaya_code": "56",
    "commune_code": null,
    "commune": null,
    "lat": 24.0580161,
    "lng": 10.9626679,
    "geo_precision": "exact",
    "geo_method": "osm",
    "source": "osm",
    "refs": {
      "osm": "1230779162"
    },
    "type": "archaeological_site"
  },
  {
    "id": "17",
    "name": "Forum of Timgad",
    "name_fr": "Forum de Timgad",
    "name_ar": "فوروم تيمقاد",
    "wilaya_code": "05",
    "commune_code": null,
    "commune": null,
    "lat": 35.485052,
    "lng": 6.468737,
    "geo_precision": "exact",
    "geo_method": "osm",
    "source": "osm",
    "type": "archaeological_site"
  },
  {
    "id": "170",
    "name": "Rock Paintings",
    "wilaya_code": "56",
    "commune_code": null,
    "commune": null,
    "lat": 24.5656798,
    "lng": 9.3425441,
    "geo_precision": "exact",
    "geo_method": "osm",
    "source": "osm",
    "refs": {
      "osm": "4529064932"
    },
    "type": "archaeological_site"
  },
  {
    "id": "171",
    "name": "Rock paintings",
    "wilaya_code": "56",
    "commune_code": null,
    "commune": null,
    "lat": 25.3861674,
    "lng": 7.7487147,
    "geo_precision": "exact",
    "geo_method": "osm",
    "source": "osm",
    "refs": {
      "osm": "7074472024"
    },
    "type": "archaeological_site"
  },
  {
    "id": "172",
    "name": "Rock paintings",
    "wilaya_code": "56",
    "commune_code": null,
    "commune": null,
    "lat": 25.3919834,
    "lng": 7.7873743,
    "geo_precision": "exact",
    "geo_method": "osm",
    "source": "osm",
    "refs": {
      "osm": "7074493223"
    },
    "type": "archaeological_site"
  },
  {
    "id": "173",
    "name": "Séfar",
    "name_fr": "Séfar",
    "name_ar": "مدينة سفار",
    "wilaya_code": "56",
    "commune_code": null,
    "commune": null,
    "lat": 24.687,
    "lng": 9.651,
    "geo_precision": "exact",
    "geo_method": "osm",
    "source": "osm",
    "type": "archaeological_site"
  },
  {
    "id": "174",
    "name": "Tadrast",
    "wilaya_code": "56",
    "commune_code": null,
    "commune": null,
    "lat": 25.433303,
    "lng": 8.2969781,
    "geo_precision": "exact",
    "geo_method": "osm",
    "source": "osm",
    "refs": {
      "osm": "7074477607"
    },
    "type": "archaeological_site"
  },
  {
    "id": "175",
    "name": "Tan Toudeft",
    "wilaya_code": "56",
    "commune_code": null,
    "commune": null,
    "lat": 25.4221816,
    "lng": 8.2203599,
    "geo_precision": "exact",
    "geo_method": "osm",
    "source": "osm",
    "refs": {
      "osm": "7072546142"
    },
    "type": "archaeological_site"
  },
  {
    "id": "176",
    "name": "Tassili Cultural Park",
    "name_fr": "Parc culturel du Tassili",
    "name_ar": "الحظيرة الثقافية طاسيلي ناجر",
    "wilaya_code": "56",
    "commune_code": null,
    "commune": null,
    "lat": 24.974,
    "lng": 9.012,
    "geo_precision": "exact",
    "geo_method": "osm",
    "source": "osm",
    "type": "archaeological_site"
  },
  {
    "id": "177",
    "name": "Tedar rock paintings",
    "wilaya_code": "56",
    "commune_code": null,
    "commune": null,
    "lat": 25.3649917,
    "lng": 7.9752925,
    "geo_precision": "exact",
    "geo_method": "osm",
    "source": "osm",
    "refs": {
      "osm": "2552961765"
    },
    "type": "archaeological_site"
  },
  {
    "id": "178",
    "name": "Tiaraneen",
    "wilaya_code": "56",
    "commune_code": null,
    "commune": null,
    "lat": 25.4349644,
    "lng": 8.247451,
    "geo_precision": "exact",
    "geo_method": "osm",
    "source": "osm",
    "refs": {
      "osm": "7093129743"
    },
    "type": "archaeological_site"
  },
  {
    "id": "179",
    "name": "Tin Akahem (Felsmalereien)",
    "wilaya_code": "56",
    "commune_code": null,
    "commune": null,
    "lat": 23.8523635,
    "lng": 10.3749837,
    "geo_precision": "exact",
    "geo_method": "osm",
    "source": "osm",
    "refs": {
      "osm": "316496845"
    },
    "type": "archaeological_site"
  },
  {
    "id": "18",
    "name": "Ghoufi",
    "name_fr": "Canyon du Ghoufi",
    "name_ar": "غوفي",
    "wilaya_code": "05",
    "commune_code": null,
    "commune": null,
    "lat": 35.049153,
    "lng": 6.16725,
    "geo_precision": "exact",
    "geo_method": "osm",
    "source": "osm",
    "type": "archaeological_site"
  },
  {
    "id": "180",
    "name": "Tin Amarasouzi",
    "wilaya_code": "56",
    "commune_code": null,
    "commune": null,
    "lat": 25.421658,
    "lng": 8.298143,
    "geo_precision": "exact",
    "geo_method": "osm",
    "source": "osm",
    "refs": {
      "osm": "7074472272"
    },
    "type": "archaeological_site"
  },
  {
    "id": "181",
    "name": "Tin Taborok paintings",
    "wilaya_code": "56",
    "commune_code": null,
    "commune": null,
    "lat": 24.0731742,
    "lng": 10.9056769,
    "geo_precision": "exact",
    "geo_method": "osm",
    "source": "osm",
    "refs": {
      "osm": "7072156380"
    },
    "type": "archaeological_site"
  },
  {
    "id": "182",
    "name": "Tin Taghirt",
    "wilaya_code": "56",
    "commune_code": null,
    "commune": null,
    "lat": 25.1486739,
    "lng": 8.5058441,
    "geo_precision": "exact",
    "geo_method": "osm",
    "source": "osm",
    "refs": {
      "osm": "2571925549"
    },
    "type": "archaeological_site"
  },
  {
    "id": "183",
    "name": "Tin Taghirt",
    "wilaya_code": "56",
    "commune_code": null,
    "commune": null,
    "lat": 25.1486444,
    "lng": 8.5059639,
    "geo_precision": "exact",
    "geo_method": "osm",
    "source": "osm",
    "type": "archaeological_site"
  },
  {
    "id": "184",
    "name": "important archeological site",
    "wilaya_code": "56",
    "commune_code": null,
    "commune": null,
    "lat": 24.8278481,
    "lng": 8.3336356,
    "geo_precision": "exact",
    "geo_method": "osm",
    "source": "osm",
    "refs": {
      "osm": "818755324"
    },
    "type": "archaeological_site"
  },
  {
    "id": "185",
    "name": "important archeological site",
    "wilaya_code": "56",
    "commune_code": null,
    "commune": null,
    "lat": 24.7034527,
    "lng": 8.6228043,
    "geo_precision": "exact",
    "geo_method": "osm",
    "source": "osm",
    "refs": {
      "osm": "818756093"
    },
    "type": "archaeological_site"
  },
  {
    "id": "186",
    "name": "important archeological site",
    "wilaya_code": "56",
    "commune_code": null,
    "commune": null,
    "lat": 24.8105552,
    "lng": 8.330931,
    "geo_precision": "exact",
    "geo_method": "osm",
    "source": "osm",
    "refs": {
      "osm": "818757191"
    },
    "type": "archaeological_site"
  },
  {
    "id": "187",
    "name": "neolithic painting",
    "wilaya_code": "56",
    "commune_code": null,
    "commune": null,
    "lat": 24.0335748,
    "lng": 10.9543028,
    "geo_precision": "exact",
    "geo_method": "osm",
    "source": "osm",
    "refs": {
      "osm": "1230776910"
    },
    "type": "archaeological_site"
  },
  {
    "id": "188",
    "name": "neolithic painting",
    "wilaya_code": "56",
    "commune_code": null,
    "commune": null,
    "lat": 24.0369228,
    "lng": 10.9512017,
    "geo_precision": "exact",
    "geo_method": "osm",
    "source": "osm",
    "refs": {
      "osm": "1230777564"
    },
    "type": "archaeological_site"
  },
  {
    "id": "189",
    "name": "neolithic petroglyph",
    "wilaya_code": "56",
    "commune_code": null,
    "commune": null,
    "lat": 24.0347795,
    "lng": 11.0122967,
    "geo_precision": "exact",
    "geo_method": "osm",
    "source": "osm",
    "refs": {
      "osm": "7864958910"
    },
    "type": "archaeological_site"
  },
  {
    "id": "19",
    "name": "Grand Thermes du sud",
    "wilaya_code": "05",
    "commune_code": null,
    "commune": null,
    "lat": 35.4830416,
    "lng": 6.468364,
    "geo_precision": "exact",
    "geo_method": "osm",
    "source": "osm",
    "refs": {
      "osm": "1104422614"
    },
    "type": "archaeological_site"
  },
  {
    "id": "190",
    "name": "neolithic petroglyphs",
    "wilaya_code": "56",
    "commune_code": null,
    "commune": null,
    "lat": 24.0323857,
    "lng": 11.0125621,
    "geo_precision": "exact",
    "geo_method": "osm",
    "source": "osm",
    "refs": {
      "osm": "7072193486"
    },
    "type": "archaeological_site"
  },
  {
    "id": "191",
    "name": "neolithic petroglyphs",
    "wilaya_code": "56",
    "commune_code": null,
    "commune": null,
    "lat": 24.0372728,
    "lng": 10.9513831,
    "geo_precision": "exact",
    "geo_method": "osm",
    "source": "osm",
    "refs": {
      "osm": "7072320599"
    },
    "type": "archaeological_site"
  },
  {
    "id": "192",
    "name": "neolithic petroglyphs",
    "wilaya_code": "56",
    "commune_code": null,
    "commune": null,
    "lat": 24.0429303,
    "lng": 11.0212092,
    "geo_precision": "exact",
    "geo_method": "osm",
    "source": "osm",
    "refs": {
      "osm": "7072419646"
    },
    "type": "archaeological_site"
  },
  {
    "id": "193",
    "name": "neolothic petroglyph",
    "wilaya_code": "56",
    "commune_code": null,
    "commune": null,
    "lat": 24.0582223,
    "lng": 10.9624513,
    "geo_precision": "exact",
    "geo_method": "osm",
    "source": "osm",
    "refs": {
      "osm": "7846823935"
    },
    "type": "archaeological_site"
  },
  {
    "id": "194",
    "name": "rock paintings",
    "wilaya_code": "56",
    "commune_code": null,
    "commune": null,
    "lat": 24.0545452,
    "lng": 10.7661662,
    "geo_precision": "exact",
    "geo_method": "osm",
    "source": "osm",
    "refs": {
      "osm": "316501709"
    },
    "type": "archaeological_site"
  },