[
  {
    "name": "Ancienne piste d'aviation",
    "type": "aircraft",
    "wilaya_code": "01",
    "lat": 26.4062703,
    "lng": 0.0192765,
    "source": "OpenStreetMap",
    "osm_id": 4318916905,
    "id": 1
  },
  {
    "name": "قصر كتاب",
    "name_ar": "قصر كتاب",
    "name_fr": "Ksar Kteb",
    "type": "archaeological_site",
    "wilaya_code": "01",
    "lat": 27.218676,
    "lng": -0.189249,
    "source": "OpenStreetMap",
    "osm_id": 332254300,
    "id": 2
  },
  {
    "name": "Arsenaria",
    "name_fr": "Arsenaria",
    "type": "archaeological_site",
    "wikidata": "Q125375915",
    "wilaya_code": "02",
    "lat": 36.3310278,
    "lng": 0.8528333,
    "source": "Wikidata",
    "id": 3
  },
  {
    "name": "Former French Army military camp المعسكر العسكري السابق للجيش الفرنسي",
    "name_ar": "المعسكر العسكري السابق للجيش الفرنسي",
    "type": "archaeological_site",
    "wilaya_code": "02",
    "lat": 36.4713574,
    "lng": 1.2494142,
    "source": "OpenStreetMap",
    "osm_id": 339657931,
    "id": 4
  },
  {
    "name": "French Army observation post مركز مراقبة للجيش الفرنسي",
    "name_ar": "مركز مراقبة للجيش الفرنسي",
    "type": "archaeological_site",
    "wilaya_code": "02",
    "lat": 36.4853829,
    "lng": 1.2838242,
    "source": "OpenStreetMap",
    "osm_id": 1495651530,
    "id": 5
  },
  {
    "name": "French Army observation post مركز مراقبة للجيش الفرنسي",
    "name_ar": "مركز مراقبة للجيش الفرنسي",
    "type": "archaeological_site",
    "wilaya_code": "02",
    "lat": 36.4852148,
    "lng": 1.2778745,
    "source": "OpenStreetMap",
    "osm_id": 1495651534,
    "id": 6
  },
  {
    "name": "The Dome el goba القبة",
    "name_ar": "القبة",
    "type": "archaeological_site",
    "wilaya_code": "02",
    "lat": 36.4863444,
    "lng": 1.2761913,
    "source": "OpenStreetMap",
    "osm_id": 1495651535,
    "id": 7
  },
  {
    "name": "Amphithéâtre المدرج",
    "name_ar": "المدرج",
    "name_fr": "Amphithéâtre",
    "type": "archaeological_site",
    "wikidata": "Q28969516",
    "wilaya_code": "05",
    "lat": 35.4892143,
    "lng": 6.2598365,
    "source": "OpenStreetMap",
    "osm_id": 266444698,
    "id": 8
  },
  {
    "name": "Arc de Trajan",
    "type": "archaeological_site",
    "wilaya_code": "05",
    "lat": 35.4850379,
    "lng": 6.4671671,
    "source": "OpenStreetMap",
    "osm_id": 5434161242,
    "id": 9
  },
  {
    "name": "Byzantine Fort in Timgad",
    "name_ar": "القلعة البيزنطية في تيمقاد",
    "name_fr": "Fort byzantin de Timgad",
    "type": "archaeological_site",
    "heritage_status": "part of UNESCO World Heritage Site",
    "wikidata": "Q87745203",
    "wilaya_code": "05",
    "lat": 35.479736,
    "lng": 6.46852,
    "source": "Wikidata",
    "id": 10
  },
  {
    "name": "Capitolium",
    "name_fr": "Capitole",
    "type": "archaeological_site",
    "wikidata": "Q108449034",
    "wilaya_code": "05",
    "lat": 35.4834949,
    "lng": 6.4666444,
    "source": "OpenStreetMap",
    "osm_id": 5434295573,
    "id": 11
  },
  {
    "name": "Chasseurs baths",
    "type": "archaeological_site",
    "wilaya_code": "05",
    "lat": 35.4798512,
    "lng": 6.2700657,
    "source": "OpenStreetMap",
    "osm_id": 1261252372,
    "id": 12
  },
  {
    "name": "Eastern Market of Timgad",
    "name_ar": "سوق تيمقاد الشرقي",
    "name_fr": "Marché de l'Est",
    "type": "archaeological_site",
    "heritage_status": "part of UNESCO World Heritage Site",
    "wikidata": "Q108449547",
    "wilaya_code": "05",
    "lat": 35.485103,
    "lng": 6.4696197,
    "source": "Wikidata",
    "id": 13
  },
  {
    "name": "Fort Byzantin",
    "type": "archaeological_site",
    "wilaya_code": "05",
    "lat": 35.4794837,
    "lng": 6.4680411,
    "source": "OpenStreetMap",
    "osm_id": 11680106,
    "id": 14
  },
  {
    "name": "Forum",
    "type": "archaeological_site",
    "wilaya_code": "05",
    "lat": 35.4848096,
    "lng": 6.4688325,
    "source": "OpenStreetMap",
    "osm_id": 7948650860,
    "id": 15
  },
  {
    "name": "Forum",
    "type": "archaeological_site",
    "wilaya_code": "05",
    "lat": 35.4785866,
    "lng": 6.2694314,
    "source": "OpenStreetMap",
    "osm_id": 1261252370,
    "id": 16
  },
  {
    "name": "Forum of Timgad",
    "name_ar": "فوروم تيمقاد",
    "name_fr": "Forum de Timgad",
    "type": "archaeological_site",
    "heritage_status": "part of UNESCO World Heritage Site",
    "wikidata": "Q87745332",
    "wilaya_code": "05",
    "lat": 35.485052,
    "lng": 6.468737,
    "source": "Wikidata",
    "id": 17
  },
  {
    "name": "Ghoufi",
    "name_ar": "غوفي",
    "name_fr": "Canyon du Ghoufi",
    "type": "archaeological_site",
    "wikidata": "Q960102",
    "wilaya_code": "05",
    "lat": 35.049153,
    "lng": 6.16725,
    "source": "Wikidata",
    "id": 18
  },
  {
    "name": "Grand Thermes du sud",
    "type": "archaeological_site",
    "wilaya_code": "05",
    "lat": 35.4830416,
    "lng": 6.468364,
    "source": "OpenStreetMap",
    "osm_id": 1104422614,
    "id": 19
  },
  {
    "name": "Grand north baths of Timgad",
    "type": "archaeological_site",
    "wikidata": "Q94995286",
    "wilaya_code": "05",
    "lat": 35.48744,
    "lng": 6.46773,
    "source": "Wikidata",
    "id": 20
  },
  {
    "name": "Great North Baths",
    "name_fr": "Grands Thermes du Nord",
    "type": "archaeological_site",
    "wilaya_code": "05",
    "lat": 35.4873892,
    "lng": 6.4677386,
    "source": "OpenStreetMap",
    "osm_id": 911542227,
    "id": 21
  },
  {
    "name": "Lambaesis",
    "type": "archaeological_site",
    "wikidata": "Q23846130",
    "wilaya_code": "05",
    "lat": 35.48928,
    "lng": 6.25987,
    "source": "Wikidata",
    "id": 22
  },
  {
    "name": "Lambaesis آثار رومانية تازولت",
    "name_ar": "آثار رومانية تازولت",
    "type": "archaeological_site",
    "wikipedia": "ar:لامبايزيس",
    "wikidata": "Q1309744",
    "wilaya_code": "05",
    "lat": 35.4893542,
    "lng": 6.2544112,
    "source": "OpenStreetMap",
    "osm_id": 266446235,
    "id": 23
  },
  {
    "name": "Market of Sertius",
    "name_fr": "Marchè de Sertius",
    "type": "archaeological_site",
    "wilaya_code": "05",
    "lat": 35.4846177,
    "lng": 6.4667722,
    "source": "OpenStreetMap",
    "osm_id": 5433752626,
    "id": 24
  },
  {
    "name": "Market of Sertius",
    "name_ar": "سوق سيرتيوس",
    "name_fr": "Marché de Sertius",
    "type": "archaeological_site",
    "heritage_status": "part of UNESCO World Heritage Site",
    "wikidata": "Q140070128",
    "wilaya_code": "05",
    "lat": 35.4847222,
    "lng": 6.4666667,
    "source": "Wikidata",
    "id": 25
  },
  {
    "name": "Medracen",
    "name_ar": "إيمدغاسن",
    "type": "archaeological_site",
    "wikipedia": "fr:Medracen",
    "wikidata": "Q1538575",
    "wilaya_code": "05",
    "lat": 35.7070701,
    "lng": 6.4346439,
    "source": "OpenStreetMap",
    "osm_id": 266446803,
    "id": 26
  },
  {
    "name": "Medracen",
    "type": "archaeological_site",
    "wilaya_code": "05",
    "lat": 35.707267,
    "lng": 6.4348192,
    "source": "OpenStreetMap",
    "osm_id": 266446815,
    "id": 27
  },
  {
    "name": "Pequeña Terma norte",
    "type": "archaeological_site",
    "wilaya_code": "05",
    "lat": 35.4865595,
    "lng": 6.468836,
    "source": "OpenStreetMap",
    "osm_id": 1104422262,
    "id": 28
  },
  {
    "name": "Roman arch",
    "type": "archaeological_site",
    "wilaya_code": "05",
    "lat": 35.4795662,
    "lng": 6.2718491,
    "source": "OpenStreetMap",
    "osm_id": 1261247163,
    "id": 29
  },
  {
    "name": "Ruines Romaines de Timgad",
    "name_ar": "الآثار الرومانية تيمقاد",
    "name_fr": "Ruines Romaines de Timgad",
    "type": "archaeological_site",
    "heritage": "1",
    "wikipedia": "fr:Timgad",
    "wikidata": "Q459629",
    "wilaya_code": "05",
    "lat": 35.4837052,
    "lng": 6.4670134,
    "source": "OpenStreetMap",
    "osm_id": 331768105,
    "id": 30
  },
  {
    "name": "Ruines romaines de Diana Veteranorum",
    "type": "archaeological_site",
    "wikipedia": "en:Diana Veteranorum",
    "wikidata": "Q1573776",
    "wilaya_code": "05",
    "lat": 35.7797772,
    "lng": 6.0746127,
    "source": "OpenStreetMap",
    "osm_id": 188544755,
    "id": 31
  },
  {
    "name": "Ruins of an ancient village",
    "type": "archaeological_site",
    "wilaya_code": "05",
    "lat": 35.0553308,
    "lng": 6.1715447,
    "source": "OpenStreetMap",
    "osm_id": 13760817401,
    "id": 32
  },
  {
    "name": "Terma este",
    "type": "archaeological_site",
    "wilaya_code": "05",
    "lat": 35.4855246,
    "lng": 6.4703077,
    "source": "OpenStreetMap",
    "osm_id": 1104422391,
    "id": 33
  },
  {
    "name": "Theatre",
    "name_fr": "Téâtre",
    "type": "archaeological_site",
    "wikidata": "Q19717113",
    "wilaya_code": "05",
    "lat": 35.4841709,
    "lng": 6.4688551,
    "source": "OpenStreetMap",
    "osm_id": 7948637499,
    "id": 34
  },
  {
    "name": "Triumphal Arch of Lambaesis",
    "type": "archaeological_site",
    "wilaya_code": "05",
    "lat": 35.4912551,
    "lng": 6.2586398,
    "source": "OpenStreetMap",
    "osm_id": 1261226926,
    "id": 35
  },
  {
    "name": "Triumphal arch",
    "name_fr": "Porte du Faubourg Ouest",
    "type": "archaeological_site",
    "wilaya_code": "05",
    "lat": 35.4864562,
    "lng": 6.4639555,
    "source": "OpenStreetMap",
    "osm_id": 5434165275,
    "id": 36
  },
  {
    "name": "temple",
    "type": "archaeological_site",
    "wilaya_code": "05",
    "lat": 35.4787194,
    "lng": 6.2700386,
    "source": "OpenStreetMap",
    "osm_id": 1261252371,
    "id": 37
  },
  {
    "name": "Muslubium",
    "name_fr": "Muslubium",
    "type": "archaeological_site",
    "wikidata": "Q134438303",
    "wilaya_code": "06",
    "lat": 36.636739,
    "lng": 5.246097,
    "source": "Wikidata",
    "id": 38
  },
  {
    "name": "Saldae",
    "name_ar": "صالداي",
    "name_fr": "Saldae",
    "type": "archaeological_site",
    "wikidata": "Q1557873",
    "wilaya_code": "06",
    "lat": 36.75,
    "lng": 5.066667,
    "source": "Wikidata",
    "id": 39
  },
  {
    "name": "Tiklat",
    "name_ar": "تخلاث",
    "type": "archaeological_site",
    "wikipedia": "fr:Tubusuptu",
    "wikidata": "Q3541821",
    "wilaya_code": "06",
    "lat": 36.6557824,
    "lng": 4.8384377,
    "source": "OpenStreetMap",
    "osm_id": 4592906446,
    "id": 40
  },
  {
    "name": "Gemellae",
    "type": "archaeological_site",
    "wikipedia": "en:Gemellae",
    "wikidata": "Q3759336",
    "wilaya_code": "07",
    "lat": 34.6365778,
    "lng": 5.5228759,
    "source": "OpenStreetMap",
    "osm_id": 265150071,
    "id": 41
  },
  {
    "name": "سيدي قاسم",
    "type": "archaeological_site",
    "wilaya_code": "07",
    "lat": 34.6524,
    "lng": 5.4720345,
    "source": "OpenStreetMap",
    "osm_id": 950160742,
    "id": 42
  },
  {
    "name": "Gravures rupestre",
    "type": "archaeological_site",
    "wilaya_code": "08",
    "lat": 30.8033876,
    "lng": -2.0569638,
    "source": "OpenStreetMap",
    "osm_id": 393869213,
    "id": 43
  },
  {
    "name": "Important Archeological Site",
    "type": "archaeological_site",
    "wilaya_code": "11",
    "lat": 24.6662077,
    "lng": 6.7393974,
    "source": "OpenStreetMap",
    "osm_id": 827672870,
    "id": 44
  },
  {
    "name": "Tebessa Basilica",
    "name_fr": "basilique Sainte-Crispine",
    "type": "archaeological_site",
    "wikidata": "Q60746446",
    "wilaya_code": "12",
    "lat": 35.4091033,
    "lng": 8.1269163,
    "source": "Wikidata",
    "id": 45
  },
  {
    "name": "Theveste",
    "name_ar": "تيفست",
    "name_fr": "Theveste",
    "type": "archaeological_site",
    "wikidata": "Q12220954",
    "wilaya_code": "12",
    "lat": 35.4,
    "lng": 8.1166667,
    "source": "Wikidata",
    "id": 46
  },
  {
    "name": "كاتدرائية تبسة",
    "name_ar": "كاتدرائية تبسة",
    "name_fr": "Basilique de Theveste",
    "type": "archaeological_site",
    "wilaya_code": "12",
    "lat": 35.4091898,
    "lng": 8.1269042,
    "source": "OpenStreetMap",
    "osm_id": 209282323,
    "id": 47
  },
  {
    "name": "معبد منيرفا",
    "name_ar": "معبد منيرفا",
    "name_fr": "Temple de Minerve",
    "type": "archaeological_site",
    "wilaya_code": "12",
    "lat": 35.4046516,
    "lng": 8.1224865,
    "source": "OpenStreetMap",
    "osm_id": 262617548,
    "id": 48
  },
  {
    "name": "Altava",
    "name_ar": "ألطافا",
    "name_fr": "Altava",
    "type": "archaeological_site",
    "wikidata": "Q434703",
    "wilaya_code": "13",
    "lat": 34.8863889,
    "lng": -1.0247778,
    "source": "Wikidata",
    "id": 49
  },
  {
    "name": "Bab Rouah باب الرواح ⴱⴰⴱ ⵔⵡⴰⵃ",
    "name_ar": "باب الرواح",
    "name_fr": "Bab Rouah",
    "type": "archaeological_site",
    "wilaya_code": "13",
    "lat": 34.8902299,
    "lng": -1.3024715,
    "source": "OpenStreetMap",
    "osm_id": 5054964414,
    "id": 50
  },
  {
    "name": "Mausolée de Sidi Abdellah lbaal",
    "name_ar": "ضريح سيد عبد الله البعل",
    "name_fr": "Mausolée de Sidi Abdellah lbaal",
    "type": "archaeological_site",
    "wilaya_code": "13",
    "lat": 34.8754274,
    "lng": -1.2830427,
    "source": "OpenStreetMap",
    "osm_id": 5054976164,
    "id": 51
  },
  {
    "name": "Minaret d'Agadir صومعة أكادير ⵜⴰⴳⵔⵎⴰⵙ ⵏ ⴰⴳⴰⴷⵉⵔ",
    "name_ar": "صومعة أكادير",
    "name_fr": "Minaret d'Agadir",
    "type": "archaeological_site",
    "wilaya_code": "13",
    "lat": 34.8894378,
    "lng": -1.3001143,
    "source": "OpenStreetMap",
    "osm_id": 5047155902,
    "id": 52
  },
  {
    "name": "Ruines de Hammam Ghoula أثار حمام الغولة ⴰⵙⴻⴷⵍⵉ ⵃⴰⵎⴰⵎ ⵖⵓⵍⴰ",
    "name_ar": "أثار حمام الغولة",
    "name_fr": "Ruines de Hammam Ghoula",
    "type": "archaeological_site",
    "wilaya_code": "13",
    "lat": 34.8894519,
    "lng": -1.2995943,
    "source": "OpenStreetMap",
    "osm_id": 5047073073,
    "id": 53
  },
  {
    "name": "Ruines de la mosquée de Mansourah -ⴰⵙⴻⴷⵍⵉ ⵏ ⵜⴰⵎⵣⴳⵉⴷⴰ ⵏ ⵎⴰⵏⵚⵓⵕⴰ",
    "name_ar": "أثار مسجد المنصورة",
    "name_fr": "Ruines de la mosquée de Mansourah",
    "type": "archaeological_site",
    "wikipedia": "en:Mansourah Mosque",
    "wikidata": "Q12242783",
    "wilaya_code": "13",
    "lat": 34.8708131,
    "lng": -1.3385844,
    "source": "OpenStreetMap",
    "osm_id": 90639349,
    "id": 54
  },
  {
    "name": "Tour de Ghemiss برج غميس ⴰⵙⵉⵔⵓ ⵏ ⴰⵖⵎⵉⵙ",
    "name_ar": "برج غميس",
    "name_fr": "Tour de Ghemiss",
    "type": "archaeological_site",
    "wilaya_code": "13",
    "lat": 34.8904295,
    "lng": -1.2989941,
    "source": "OpenStreetMap",
    "osm_id": 5043960145,
    "id": 55
  },
  {
    "name": "ancienne mosquée Idriside d'Agadir المسجد الإدريسي العتيق لأكادير ⵜⴰⵎⵣⴳⵉⴷⴰ ⵜⵉⴷⵔⵉⵙⵉⵜ ⵜⴰⵇⴱⵓⵔⵜ ⵏ ⴰⴳⴰⴷⵉⵔ",
    "name_ar": "المسجد الإدريسي العتيق لأكادير",
    "name_fr": "ancienne mosquée Idriside d'Agadir",
    "type": "archaeological_site",
    "wilaya_code": "13",
    "lat": 34.8891696,
    "lng": -1.3000779,
    "source": "OpenStreetMap",
    "osm_id": 517804092,
    "id": 56
  },
  {
    "name": "أثار حمام الغولة",
    "name_ar": "أثار حمام الغولة",
    "name_fr": "Ruines de Hammam Ghoula",
    "type": "archaeological_site",
    "wilaya_code": "13",
    "lat": 34.889569,
    "lng": -1.2995676,
    "source": "OpenStreetMap",
    "osm_id": 517115321,
    "id": 57
  },
  {
    "name": "Columnata",
    "type": "archaeological_site",
    "wilaya_code": "14",
    "lat": 35.4585262,
    "lng": 1.5283408,
    "source": "OpenStreetMap",
    "osm_id": 4788656623,
    "id": 58
  },
  {
    "name": "Pyramide de Lejdar",
    "type": "archaeological_site",
    "wikipedia": "fr:Djeddar",
    "wikidata": "Q3032861",
    "wilaya_code": "14",
    "lat": 35.1130363,
    "lng": 1.2126857,
    "source": "OpenStreetMap",
    "osm_id": 929762754,
    "id": 59
  },
  {
    "name": "Pyramide de Lejdar",
    "type": "archaeological_site",
    "wilaya_code": "14",
    "lat": 35.1097182,
    "lng": 1.2071493,
    "source": "OpenStreetMap",
    "osm_id": 3503394424,
    "id": 60
  },
  {
    "name": "Sidi Boubakeur",
    "type": "archaeological_site",
    "wilaya_code": "14",
    "lat": 35.4506556,
    "lng": 1.4711601,
    "source": "OpenStreetMap",
    "osm_id": 4792258886,
    "id": 61
  },
  {
    "name": "Abri sous roche Ifri N’Dellal",
    "name_fr": "Abri sous roche Ifri N’Dellal",
    "type": "archaeological_site",
    "wikidata": "Q129760370",
    "wilaya_code": "15",
    "lat": 36.677114,
    "lng": 4.424161,
    "source": "Wikidata",
    "id": 62
  },
  {
    "name": "Semaa",
    "type": "archaeological_site",
    "wilaya_code": "15",
    "lat": 36.8975716,
    "lng": 4.156127,
    "source": "OpenStreetMap",
    "osm_id": 2277162245,
    "id": 63
  },
  {
    "name": "Tisira Amara",
    "type": "archaeological_site",
    "wilaya_code": "15",
    "lat": 36.902724,
    "lng": 4.170465,
    "source": "OpenStreetMap",
    "osm_id": 2277878324,
    "id": 64
  },
  {
    "name": "Dra Zeg et Ter",
    "type": "archaeological_site",
    "wilaya_code": "16",
    "lat": 36.7132877,
    "lng": 3.6978978,
    "source": "OpenStreetMap",
    "osm_id": 1410759469,
    "id": 65
  },
  {
    "name": "Rusguniae",
    "name_fr": "Rusguniae",
    "type": "archaeological_site",
    "heritage_status": "Cultural heritage monuments in Algeria",
    "wikidata": "Q125421752",
    "wilaya_code": "16",
    "lat": 36.799094,
    "lng": 3.237893,
    "source": "Wikidata",
    "id": 66
  },
  {
    "name": "الموقع الأثري لبقايا مسجد السيدة",
    "name_ar": "الموقع الأثري لبقايا مسجد السيدة",
    "name_fr": "Le site archéologique des vestiges de la \"Mosquée El Sayyida\"",
    "type": "archaeological_site",
    "wilaya_code": "16",
    "lat": 36.7851413,
    "lng": 3.0623352,
    "source": "OpenStreetMap",
    "osm_id": 12133859819,
    "id": 67
  },
  {
    "name": "مدينة الجزائر العتيقة \"إيكوسيم\"",
    "name_ar": "مدينة الجزائر العتيقة \"إيكوسيم\"",
    "type": "archaeological_site",
    "wilaya_code": "16",
    "lat": 36.7847679,
    "lng": 3.0617809,
    "source": "OpenStreetMap",
    "osm_id": 1291554593,
    "id": 68
  },
  {
    "name": "Igilgili",
    "name_ar": "إيجلجيلي",
    "name_fr": "Igilgili",
    "type": "archaeological_site",
    "wikidata": "Q1657150",
    "wilaya_code": "18",
    "lat": 36.8220833,
    "lng": 5.7664444,
    "source": "Wikidata",
    "id": 69
  },
  {
    "name": "Ain Boucherit",
    "name_ar": "عين بوشريط",
    "name_fr": "Aïn Boucherit",
    "type": "archaeological_site",
    "wikidata": "Q60851742",
    "wilaya_code": "19",
    "lat": 36.200833,
    "lng": 5.650278,
    "source": "Wikidata",
    "id": 70
  },
  {
    "name": "Ain El Ahnech",
    "name_ar": "عين لحنش",
    "name_fr": "Aïn El Ahnech",
    "type": "archaeological_site",
    "wikidata": "Q2876290",
    "wilaya_code": "19",
    "lat": 36.2038889,
    "lng": 5.6527778,
    "source": "Wikidata",
    "id": 71
  },
  {
    "name": "Djémila",
    "name_ar": "جميلة",
    "name_fr": "Djemila",
    "type": "archaeological_site",
    "heritage": "1",
    "wikipedia": "fr:Djemila",
    "wikidata": "Q457362",
    "wilaya_code": "19",
    "lat": 36.3208997,
    "lng": 5.7354314,
    "source": "OpenStreetMap",
    "osm_id": 257564804,
    "id": 72
  },
  {
    "name": "Garden of the Small Baths at Cuicul",
    "type": "archaeological_site",
    "wilaya_code": "19",
    "lat": 36.3185249,
    "lng": 5.736305,
    "source": "OpenStreetMap",
    "osm_id": 13355786467,
    "id": 73
  },
  {
    "name": "Ikjan",
    "type": "archaeological_site",
    "wilaya_code": "19",
    "lat": 36.4702118,
    "lng": 5.6566571,
    "source": "OpenStreetMap",
    "osm_id": 1487735429,
    "id": 74
  },
  {
    "name": "Ruines romaines; الآثار الرومانية",
    "name_ar": "الآثار الرومانية",
    "name_fr": "Ruines romaines",
    "type": "archaeological_site",
    "wilaya_code": "19",
    "lat": 36.1920685,
    "lng": 5.4043067,
    "source": "OpenStreetMap",
    "osm_id": 51826611,
    "id": 75
  },
  {
    "name": "Annaba Theater",
    "type": "archaeological_site",
    "wilaya_code": "23",
    "lat": 36.8814029,
    "lng": 7.7467203,
    "source": "OpenStreetMap",
    "osm_id": 2947767583,
    "id": 76
  },
  {
    "name": "Forum of Hippo Regius",
    "type": "archaeological_site",
    "wilaya_code": "23",
    "lat": 36.8815553,
    "lng": 7.7481336,
    "source": "OpenStreetMap",
    "osm_id": 1386288786,
    "id": 77
  },
  {
    "name": "Great Church of Hippo Regius",
    "type": "archaeological_site",
    "wilaya_code": "23",
    "lat": 36.8830521,
    "lng": 7.7508834,
    "source": "OpenStreetMap",
    "osm_id": 1386288785,
    "id": 78
  },
  {
    "name": "Hafsid Castle",
    "name_ar": "القلعة الحفصية",
    "type": "archaeological_site",
    "wikidata": "Q101095903",
    "wilaya_code": "23",
    "lat": 36.906619,
    "lng": 7.765657,
    "source": "Wikidata",
    "id": 79
  },
  {
    "name": "Hippo Regius",
    "name_ar": "هيبون",
    "name_fr": "Hippone",
    "type": "archaeological_site",
    "wikidata": "Q858024",
    "wilaya_code": "23",
    "lat": 36.883651,
    "lng": 7.755129,
    "source": "Wikidata",
    "id": 80
  },
  {
    "name": "Hippo Regius, Thermae",
    "type": "archaeological_site",
    "wilaya_code": "23",
    "lat": 36.8847524,
    "lng": 7.7501711,
    "source": "OpenStreetMap",
    "osm_id": 1386285330,
    "id": 81
  },
  {
    "name": "Macellum of Hippo Regius",
    "type": "archaeological_site",
    "wilaya_code": "23",
    "lat": 36.8827361,
    "lng": 7.7497019,
    "source": "OpenStreetMap",
    "osm_id": 1386288788,
    "id": 82
  },
  {
    "name": "Site archéologique d’Hippone (Annaba)",
    "type": "archaeological_site",
    "wilaya_code": "23",
    "lat": 36.8824366,
    "lng": 7.7501362,
    "source": "OpenStreetMap",
    "osm_id": 341070034,
    "id": 83
  },
  {
    "name": "Southern Baths",
    "type": "archaeological_site",
    "wilaya_code": "23",
    "lat": 36.8807164,
    "lng": 7.7509349,
    "source": "OpenStreetMap",
    "osm_id": 12834593661,
    "id": 84
  },
  {
    "name": "Villa of Procurator",
    "type": "archaeological_site",
    "wilaya_code": "23",
    "lat": 36.8808439,
    "lng": 7.7492491,
    "source": "OpenStreetMap",
    "osm_id": 12834593660,
    "id": 85
  },
  {
    "name": "Roman fort",
    "type": "archaeological_site",
    "wilaya_code": "24",
    "lat": 36.4126397,
    "lng": 7.087929,
    "source": "OpenStreetMap",
    "osm_id": 1228354863,
    "id": 86
  },
  {
    "name": "Thibilis",
    "name_ar": "تبيليس",
    "name_fr": "Thibilis",
    "type": "archaeological_site",
    "wikidata": "Q2420610",
    "wilaya_code": "24",
    "lat": 36.3833333,
    "lng": 7.25,
    "source": "Wikidata",
    "id": 87
  },
  {
    "name": "Théatre Romain",
    "type": "archaeological_site",
    "wikipedia": "it:Teatro romano di Guelma",
    "wikidata": "Q101116126",
    "wilaya_code": "24",
    "lat": 36.4672154,
    "lng": 7.4301906,
    "source": "OpenStreetMap",
    "osm_id": 356635599,
    "id": 88
  },
  {
    "name": "vestiges de Roknia",
    "name_fr": "vestiges de Roknia",
    "type": "archaeological_site",
    "wikidata": "Q3556388",
    "wilaya_code": "24",
    "lat": 36.55,
    "lng": 7.23333,
    "source": "Wikidata",
    "id": 89
  },
  {
    "name": "Cirta",
    "name_ar": "سيرتا",
    "name_fr": "Cirta",
    "type": "archaeological_site",
    "wikidata": "Q1093156",
    "wilaya_code": "25",
    "lat": 36.368115,
    "lng": 6.613303,
    "source": "Wikidata",
    "id": 90
  },
  {
    "name": "Rapidum",
    "name_ar": "رابيدوم",
    "name_fr": "Rapidum",
    "type": "archaeological_site",
    "wikidata": "Q109626723",
    "wilaya_code": "26",
    "lat": 36.1333306,
    "lng": 3.4333306,
    "source": "Wikidata",
    "id": 91
  },
  {
    "name": "Quiza Cenitana",
    "name_ar": "كويزا كسينيتانا",
    "name_fr": "Quiza Xenitana",
    "type": "archaeological_site",
    "wikidata": "Q7272713",
    "wilaya_code": "27",
    "lat": 36.0299,
    "lng": 0.2416,
    "source": "Wikidata",
    "id": 92
  },
  {
    "name": "Chateau du Phare",
    "name_fr": "قصر المنار",
    "type": "archaeological_site",
    "wilaya_code": "28",
    "lat": 35.8232749,
    "lng": 4.7989179,
    "source": "OpenStreetMap",
    "osm_id": 1379249581,
    "id": 93
  },
  {
    "name": "Mosquée de l'Emir",
    "name_ar": "مسجد الامير",
    "type": "archaeological_site",
    "wilaya_code": "28",
    "lat": 35.823669,
    "lng": 4.7985614,
    "source": "OpenStreetMap",
    "osm_id": 1379249582,
    "id": 94
  },
  {
    "name": "Qalaa Beni Hammad",
    "name_ar": "قلعة بني حماد",
    "type": "archaeological_site",
    "wilaya_code": "28",
    "lat": 35.8224833,
    "lng": 4.7942963,
    "source": "OpenStreetMap",
    "osm_id": 1379249575,
    "id": 95
  },
  {
    "name": "Tighennif",
    "name_ar": "تغنيف",
    "name_fr": "Tighennif",
    "type": "archaeological_site",
    "wikidata": "Q7801608",
    "wilaya_code": "29",
    "lat": 35.4152778,
    "lng": 0.3213889,
    "source": "Wikidata",
    "id": 96
  },
  {
    "name": "Portus Magnus",
    "type": "archaeological_site",
    "wilaya_code": "31",
    "lat": 35.8049927,
    "lng": -0.2592493,
    "source": "OpenStreetMap",
    "osm_id": 9233991201,
    "id": 97
  },
  {
    "name": "Portus Magnus, Algeria",
    "name_ar": "بورتيس ماغنيس",
    "name_fr": "Portus Magnus (Algérie)",
    "type": "archaeological_site",
    "wikidata": "Q11934573",
    "wilaya_code": "31",
    "lat": 35.804714,
    "lng": -0.260028,
    "source": "Wikidata",
    "id": 98
  },
  {
    "name": "Tassili n'Ajjer",
    "name_ar": "طاسيلي ناجر",
    "name_fr": "Tassili n'Ajjer",
    "type": "archaeological_site",
    "heritage_status": "World Heritage Site",
    "wikidata": "Q190048",
    "wilaya_code": "33",
    "lat": 25.6666667,
    "lng": 9.0,
    "source": "Wikidata",
    "id": 99
  },
  {
    "name": "Benian ntaa Soumâa Citadel",
    "type": "archaeological_site",
    "wilaya_code": "35",
    "lat": 36.7014594,
    "lng": 3.550191,
    "source": "OpenStreetMap",
    "osm_id": 1384102734,
    "id": 100
  },
  {
    "name": "Castellum Tulei",
    "type": "archaeological_site",
    "wilaya_code": "35",
    "lat": 36.778793,
    "lng": 3.7976035,
    "source": "OpenStreetMap",
    "osm_id": 1410759471,
    "id": 101
  },
  {
    "name": "Chateau Romain",
    "name_ar": "قصر رومي",
    "type": "archaeological_site",
    "wilaya_code": "35",
    "lat": 36.6632058,
    "lng": 3.6557993,
    "source": "OpenStreetMap",
    "osm_id": 1379129665,
    "id": 102
  },
  {
    "name": "Dra Azib Boujet",
    "type": "archaeological_site",
    "wilaya_code": "35",
    "lat": 36.7746074,
    "lng": 3.7303635,
    "source": "OpenStreetMap",
    "osm_id": 1410759470,
    "id": 103
  },
  {
    "name": "El Jamaa Ihaddaden",
    "type": "archaeological_site",
    "wilaya_code": "35",
    "lat": 36.6806997,
    "lng": 3.8142227,
    "source": "OpenStreetMap",
    "osm_id": 1383065133,
    "id": 104
  },
  {
    "name": "Haouch el Oudjani",
    "type": "archaeological_site",
    "wilaya_code": "35",
    "lat": 36.8589721,
    "lng": 3.8307342,
    "source": "OpenStreetMap",
    "osm_id": 1410759474,
    "id": 105
  },
  {
    "name": "Kobr Roumia",
    "type": "archaeological_site",
    "wilaya_code": "35",
    "lat": 36.8144935,
    "lng": 3.8165788,
    "source": "OpenStreetMap",
    "osm_id": 1410759472,
    "id": 106
  },
  {
    "name": "Marsa al Dejjaj مرسى الدجاج",
    "name_ar": "مرسى الدجاج",
    "type": "archaeological_site",
    "wilaya_code": "35",
    "lat": 36.7995335,
    "lng": 3.5661432,
    "source": "OpenStreetMap",
    "osm_id": 1376564101,
    "id": 107
  },
  {
    "name": "Marsa al-Djaje",
    "name_ar": "مرسى الدجاج",
    "name_fr": "Marsa al-Djaje",
    "type": "archaeological_site",
    "heritage_status": "Cultural heritage monuments in Algeria",
    "wikidata": "Q125496468",
    "wilaya_code": "35",
    "lat": 36.8002658,
    "lng": 3.5651722,
    "source": "Wikidata",
    "id": 108
  },
  {
    "name": "Rusuccuru",
    "type": "archaeological_site",
    "wikidata": "Q15843385",
    "wilaya_code": "35",
    "lat": 36.91285,
    "lng": 3.90964,
    "source": "Wikidata",
    "id": 109
  },
  {
    "name": "Taksebt des Ouled Said",
    "type": "archaeological_site",
    "wilaya_code": "35",
    "lat": 36.6562714,
    "lng": 3.7263928,
    "source": "OpenStreetMap",
    "osm_id": 1395521035,
    "id": 110
  },
  {
    "name": "حصن الامير عبد القادر",
    "name_ar": "حصن الامير عبد القادر",
    "type": "archaeological_site",
    "wilaya_code": "38",
    "lat": 35.8655227,
    "lng": 2.2807736,
    "source": "OpenStreetMap",
    "osm_id": 259354485,
    "id": 111
  },
  {
    "name": "Ksar Baghai",
    "type": "archaeological_site",
    "wilaya_code": "40",
    "lat": 35.5355503,
    "lng": 7.1182448,
    "source": "OpenStreetMap",
    "osm_id": 265150241,
    "id": 112
  },
  {
    "name": "حمام الصالحين ⵃⴻⵎⵎⴰⵎ ⵚⴰⵍⵃⵉⵏ",
    "name_ar": "حمام الصالحين",
    "name_fr": "Hammam Essalihine",
    "type": "archaeological_site",
    "wikipedia": "fr:Hammam Essalihine",
    "wikidata": "Q2058233",
    "wilaya_code": "40",
    "lat": 35.4401595,
    "lng": 7.0846943,
    "source": "OpenStreetMap",
    "osm_id": 2662646762,
    "id": 113
  },
  {
    "name": "قصرالجازية - Mausolée de Cedias",
    "name_fr": "Mausolée de Cédias",
    "type": "archaeological_site",
    "wikipedia": "ar:قصر الجازية",
    "wikidata": "Q12232982",
    "wilaya_code": "40",
    "lat": 35.3222656,
    "lng": 7.2349306,
    "source": "OpenStreetMap",
    "osm_id": 318626658,
    "id": 114
  },
  {
    "name": "Ancient Roman theater in Khamissa",
    "type": "archaeological_site",
    "wikidata": "Q2429753",
    "wilaya_code": "41",
    "lat": 36.1937048,
    "lng": 7.6559214,
    "source": "OpenStreetMap",
    "osm_id": 1321739924,
    "id": 115
  },
  {
    "name": "Forum Novum",
    "type": "archaeological_site",
    "wilaya_code": "41",
    "lat": 36.1919041,
    "lng": 7.6539647,
    "source": "OpenStreetMap",
    "osm_id": 1321756093,
    "id": 116
  },
  {
    "name": "Madauros Theatre",
    "type": "archaeological_site",
    "wikidata": "Q62050969",
    "wilaya_code": "41",
    "lat": 36.0778831,
    "lng": 7.9014802,
    "source": "OpenStreetMap",
    "osm_id": 284087760,
    "id": 117
  },
  {
    "name": "Thermae",
    "type": "archaeological_site",
    "wilaya_code": "41",
    "lat": 36.1921346,
    "lng": 7.6535203,
    "source": "OpenStreetMap",
    "osm_id": 1321756094,
    "id": 118
  },
  {
    "name": "Thubursicum Numidarum",
    "type": "archaeological_site",
    "wikipedia": "ar:ثيبيرسيكوم",
    "wikidata": "Q3426859",
    "wilaya_code": "41",
    "lat": 36.1915906,
    "lng": 7.6564366,
    "source": "OpenStreetMap",
    "osm_id": 1321739442,
    "id": 119
  },
  {
    "name": "Amphithéatre romain",
    "name_ar": "المدرج الروماني",
    "name_fr": "Amphithéatre romain",
    "type": "archaeological_site",
    "wikidata": "Q28969515",
    "wilaya_code": "42",
    "lat": 36.6085973,
    "lng": 2.1988885,
    "source": "OpenStreetMap",
    "osm_id": 266409896,
    "id": 120
  },
  {
    "name": "Aqueduc Maurétanien de Cherchell",
    "type": "archaeological_site",
    "wilaya_code": "42",
    "lat": 36.5685254,
    "lng": 2.290128,
    "source": "OpenStreetMap",
    "osm_id": 370173875,
    "id": 121
  },
  {
    "name": "Archaeological Museum of Cherchell",
    "name_fr": "Musée archéologique de Cherchell",
    "type": "archaeological_site",
    "wikipedia": "en:Archaeological Museum of Cherchell",
    "wikidata": "Q4785393",
    "wilaya_code": "42",
    "lat": 36.5979931,
    "lng": 2.2014234,
    "source": "OpenStreetMap",
    "osm_id": 4832565326,
    "id": 122
  },
  {
    "name": "Breshk",
    "type": "archaeological_site",
    "wilaya_code": "42",
    "lat": 36.5687845,
    "lng": 1.8603077,
    "source": "OpenStreetMap",
    "osm_id": 1487738119,
    "id": 123
  },
  {
    "name": "Ruines Romaines de Tipaza",
    "name_ar": "الآثار الرومانية تيبازة",
    "name_fr": "Ruines Romaines de Tipaza",
    "type": "archaeological_site",
    "heritage": "1",
    "wikipedia": "fr:Tipasa de Maurétanie",
    "wikidata": "Q3529269",
    "wilaya_code": "42",
    "lat": 36.5946299,
    "lng": 2.4422403,
    "source": "OpenStreetMap",
    "osm_id": 171552738,
    "id": 124
  },
  {
    "name": "Tipasa eastern archaeological zone",
    "name_fr": "parc archéologique de Tipasa est",
    "type": "archaeological_site",
    "heritage_status": "part of UNESCO World Heritage Site",
    "wikidata": "Q65643680",
    "wilaya_code": "42",
    "lat": 36.5929,
    "lng": 2.4546,
    "source": "Wikidata",
    "id": 125
  },
  {
    "name": "Tipasa western archaeological zone",
    "name_fr": "parc archéologique de Tipasa ouest",
    "type": "archaeological_site",
    "heritage_status": "part of UNESCO World Heritage Site",
    "wikidata": "Q65643679",
    "wilaya_code": "42",
    "lat": 36.594,
    "lng": 2.4434,
    "source": "Wikidata",
    "id": 126
  },
  {
    "name": "aqueduct of Cherchell",
    "name_fr": "aqueduc de Cherchell",
    "type": "archaeological_site",
    "wikidata": "Q21028732",
    "wilaya_code": "42",
    "lat": 36.6069444,
    "lng": 2.1966667,
    "source": "Wikidata",
    "id": 127
  },
  {
    "name": "El-Ksar",
    "type": "archaeological_site",
    "wilaya_code": "43",
    "lat": 36.2603926,
    "lng": 5.5706896,
    "source": "OpenStreetMap",
    "osm_id": 1154161722,
    "id": 128
  },
  {
    "name": "Mausoleum of Quintus Lollius Urbicus",
    "name_ar": "ضريح لوليوس أربيكيوس",
    "name_fr": "mausolée de Quintus Lollius Urbicus",
    "type": "archaeological_site",
    "wikidata": "Q84710269",
    "wilaya_code": "43",
    "lat": 36.489792,
    "lng": 6.483428,
    "source": "Wikidata",
    "id": 129
  },
  {
    "name": "Mechta el-Arbi",
    "type": "archaeological_site",
    "wikidata": "Q132402139",
    "wilaya_code": "43",
    "lat": 36.099,
    "lng": 6.131,
    "source": "Wikidata",
    "id": 130
  },
  {
    "name": "Milevum",
    "name_ar": "ميليفوم",
    "name_fr": "Milev (Numidie)",
    "type": "archaeological_site",
    "wikidata": "Q28195180",
    "wilaya_code": "43",
    "lat": 36.4512765,
    "lng": 6.267698,
    "source": "Wikidata",
    "id": 131
  },
  {
    "name": "Quintus Lollius Urbicus Mausoleum",
    "name_fr": "Mausolée de Quintus Lollius Urbicus",
    "type": "archaeological_site",
    "wikipedia": "ar:ضريح لوليوس أربيكيوس",
    "wikidata": "Q86725228",
    "wilaya_code": "43",
    "lat": 36.4897736,
    "lng": 6.4834582,
    "source": "OpenStreetMap",
    "osm_id": 1268274982,
    "id": 132
  },
  {
    "name": "Ruines Romaines Tiddis",
    "name_ar": "الآثار الرومانية تيديس",
    "type": "archaeological_site",
    "wikipedia": "en:Tiddis",
    "wikidata": "Q1396850",
    "wilaya_code": "43",
    "lat": 36.4623723,
    "lng": 6.4823717,
    "source": "OpenStreetMap",
    "osm_id": 3650432490,
    "id": 133
  },
  {
    "name": "Site archéologique romain",
    "type": "archaeological_site",
    "wilaya_code": "43",
    "lat": 36.4774998,
    "lng": 5.9971469,
    "source": "OpenStreetMap",
    "osm_id": 5422432767,
    "id": 134
  },
  {
    "name": "Tazrut",
    "type": "archaeological_site",
    "wilaya_code": "43",
    "lat": 36.2912948,
    "lng": 6.1050539,
    "source": "OpenStreetMap",
    "osm_id": 1491571097,
    "id": 135
  },
  {
    "name": "Gargara (Aïn Defla)",
    "name_ar": "آثار قرقرة",
    "name_fr": "Gargara (Aïn Defla)",
    "type": "archaeological_site",
    "wikidata": "Q131348582",
    "wilaya_code": "44",
    "lat": 36.3049,
    "lng": 1.8471,
    "source": "Wikidata",
    "id": 136
  },
  {
    "name": "دار الشانبيط",
    "name_ar": "دار الشانبيط",
    "type": "archaeological_site",
    "wilaya_code": "44",
    "lat": 36.3444683,
    "lng": 2.2669695,
    "source": "OpenStreetMap",
    "osm_id": 10931591600,
    "id": 137
  },
  {
    "name": "Gravures Rupestres",
    "type": "archaeological_site",
    "wilaya_code": "45",
    "lat": 32.7801707,
    "lng": -0.4107575,
    "source": "OpenStreetMap",
    "osm_id": 395980901,
    "id": 138
  },
  {
    "name": "Albulae",
    "name_ar": "ألبولاي",
    "name_fr": "Albulae",
    "type": "archaeological_site",
    "wikidata": "Q2831972",
    "wilaya_code": "46",
    "lat": 35.294322,
    "lng": -1.140089,
    "source": "Wikidata",
    "id": 139
  },
  {
    "name": "Regiae",
    "name_ar": "ريجياي",
    "name_fr": "Regiae",
    "type": "archaeological_site",
    "wikidata": "Q3423451",
    "wilaya_code": "46",
    "lat": 35.45228,
    "lng": -0.618882,
    "source": "Wikidata",
    "id": 140
  },
  {
    "name": "Siga",
    "name_ar": "سيقا",
    "name_fr": "Siga",
    "type": "archaeological_site",
    "wikipedia": "ar:سيقا",
    "wikidata": "Q3483498",
    "wilaya_code": "46",
    "lat": 35.2664527,
    "lng": -1.4528777,
    "source": "OpenStreetMap",
    "osm_id": 2719759752,
    "id": 141
  },
  {
    "name": "M'zab",
    "name_ar": "مزاب",
    "name_fr": "Mzab",
    "type": "archaeological_site",
    "heritage_status": "World Heritage Site",
    "wikidata": "Q724484",
    "wilaya_code": "47",
    "lat": 32.4872222,
    "lng": 3.6813889,
    "source": "Wikidata",
    "id": 142
  },
  {
    "name": "Ksar el Kaoua",
    "type": "archaeological_site",
    "wikipedia": "fr:Ksar el Kaoua",
    "wikidata": "Q20726070",
    "wilaya_code": "48",
    "lat": 35.9190226,
    "lng": 1.2002424,
    "source": "OpenStreetMap",
    "osm_id": 1244100281,
    "id": 143
  },
  {
    "name": "Ksar el Kaoua",
    "name_ar": "قصر كاوة",
    "name_fr": "Ksar el Kaoua",
    "type": "archaeological_site",
    "heritage_status": "Cultural heritage monuments in Algeria",
    "wikidata": "Q109258706",
    "wilaya_code": "48",
    "lat": 35.86667,
    "lng": 1.11667,
    "source": "Wikidata",
    "id": 144
  },
  {
    "name": "Ksar Draa",
    "name_fr": "Ksar Draa",
    "type": "archaeological_site",
    "wikipedia": "en:Ksar Draa",
    "wikidata": "Q136723083",
    "wilaya_code": "49",
    "lat": 29.5347801,
    "lng": 0.1832851,
    "source": "OpenStreetMap",
    "osm_id": 15441899,
    "id": 145
  },
  {
    "name": "‎Tamimimoon Old Town",
    "name_fr": "‎Tamimimoon Old Town",
    "type": "archaeological_site",
    "wilaya_code": "49",
    "lat": 29.2881765,
    "lng": 0.2413861,
    "source": "OpenStreetMap",
    "osm_id": 1276224921,
    "id": 146
  },
  {
    "name": "Abri de In Temailt",
    "name_fr": "Abri de In Temailt",
    "type": "archaeological_site",
    "wilaya_code": "56",
    "lat": 25.4295273,
    "lng": 7.4483919,
    "source": "OpenStreetMap",
    "osm_id": 9724483080,
    "id": 147
  },
  {
    "name": "Abri de Ouairassen",
    "name_fr": "Abri de Ouairassen",
    "type": "archaeological_site",
    "wilaya_code": "56",
    "lat": 25.4187845,
    "lng": 7.4679961,
    "source": "OpenStreetMap",
    "osm_id": 9724555693,
    "id": 148
  },
  {
    "name": "Abri de Tigat Nalies (Three dancing women)",
    "name_fr": "Abri de Tigat Nalies",
    "type": "archaeological_site",
    "wilaya_code": "56",
    "lat": 25.4354665,
    "lng": 7.5011398,
    "source": "OpenStreetMap",
    "osm_id": 7104280022,
    "id": 149
  },
  {
    "name": "Abri de Tikadiouine",
    "type": "archaeological_site",
    "wilaya_code": "56",
    "lat": 25.3419847,
    "lng": 8.0482866,
    "source": "OpenStreetMap",
    "osm_id": 9758089117,
    "id": 150
  },
  {
    "name": "Akaham ouan Elbered",
    "type": "archaeological_site",
    "wilaya_code": "56",
    "lat": 23.9820524,
    "lng": 10.9267505,
    "source": "OpenStreetMap",
    "osm_id": 316496850,
    "id": 151
  },
  {
    "name": "Archeological Site",
    "type": "archaeological_site",
    "wilaya_code": "56",
    "lat": 24.238574,
    "lng": 8.265454,
    "source": "OpenStreetMap",
    "osm_id": 827625216,
    "id": 152
  },
  {
    "name": "Elephant petroglyph",
    "type": "archaeological_site",
    "wilaya_code": "56",
    "lat": 24.0657945,
    "lng": 10.88279,
    "source": "OpenStreetMap",
    "osm_id": 7852977880,
    "id": 153
  },
  {
    "name": "Elephant petroglyphs",
    "type": "archaeological_site",
    "wilaya_code": "56",
    "lat": 24.0598779,
    "lng": 10.8330732,
    "source": "OpenStreetMap",
    "osm_id": 7072439585,
    "id": 154
  },
  {
    "name": "Fish petroglyphs",
    "type": "archaeological_site",
    "wilaya_code": "56",
    "lat": 24.0660215,
    "lng": 10.8831037,
    "source": "OpenStreetMap",
    "osm_id": 316501703,
    "id": 155
  },
  {
    "name": "Giraffe petroglyphs of Tisseteka",
    "type": "archaeological_site",
    "wilaya_code": "56",
    "lat": 24.0731266,
    "lng": 10.8234439,
    "source": "OpenStreetMap",
    "osm_id": 7104354883,
    "id": 156
  },
  {
    "name": "Ikadnouchere rock paintings",
    "type": "archaeological_site",
    "wilaya_code": "56",
    "lat": 25.3078556,
    "lng": 7.9622595,
    "source": "OpenStreetMap",
    "osm_id": 2552961759,
    "id": 157
  },
  {
    "name": "Important Archeological Site",
    "type": "archaeological_site",
    "wilaya_code": "56",
    "lat": 24.5109766,
    "lng": 8.4648236,
    "source": "OpenStreetMap",
    "osm_id": 827589876,
    "id": 158
  },
  {
    "name": "Important Archeological Site",
    "type": "archaeological_site",
    "wilaya_code": "56",
    "lat": 24.3761333,
    "lng": 7.9190277,
    "source": "OpenStreetMap",
    "osm_id": 827706867,
    "id": 159
  },
  {
    "name": "Important archeological site",
    "type": "archaeological_site",
    "wilaya_code": "56",
    "lat": 24.8126998,
    "lng": 8.6181268,
    "source": "OpenStreetMap",
    "osm_id": 818886215,
    "id": 160
  },
  {
    "name": "In Tanadouft",
    "type": "archaeological_site",
    "wilaya_code": "56",
    "lat": 25.3486162,
    "lng": 8.020466,
    "source": "OpenStreetMap",
    "osm_id": 7072462684,
    "id": 161
  },
  {
    "name": "Ksar of Aghram",
    "type": "archaeological_site",
    "wilaya_code": "56",
    "lat": 25.4251789,
    "lng": 8.4304252,
    "source": "OpenStreetMap",
    "osm_id": 768736202,
    "id": 162
  },
  {
    "name": "Ouan Atan Felsmalereien",
    "type": "archaeological_site",
    "wilaya_code": "56",
    "lat": 24.2695267,
    "lng": 10.8518936,
    "source": "OpenStreetMap",
    "osm_id": 316499810,
    "id": 163
  },
  {
    "name": "Ouan Ekli petroglyphs",
    "type": "archaeological_site",
    "wilaya_code": "56",
    "lat": 24.0648806,
    "lng": 10.84968,
    "source": "OpenStreetMap",
    "osm_id": 316501704,
    "id": 164
  },
  {
    "name": "Ouan Iska",
    "type": "archaeological_site",
    "wilaya_code": "56",
    "lat": 24.0661109,
    "lng": 10.9548148,
    "source": "OpenStreetMap",
    "osm_id": 7072156228,
    "id": 165
  },
  {
    "name": "Ouan Takanessit Felsmalereien",
    "type": "archaeological_site",
    "wilaya_code": "56",
    "lat": 24.2347282,
    "lng": 10.8838871,
    "source": "OpenStreetMap",
    "osm_id": 316499807,
    "id": 166
  },
  {
    "name": "Ouan Zaouatan",
    "type": "archaeological_site",
    "wilaya_code": "56",
    "lat": 24.0773348,
    "lng": 10.9357146,
    "source": "OpenStreetMap",
    "osm_id": 316499803,
    "id": 167
  },
  {
    "name": "Oued Sirik",
    "type": "archaeological_site",
    "wilaya_code": "56",
    "lat": 24.2196956,
    "lng": 10.8443718,
    "source": "OpenStreetMap",
    "osm_id": 7072298901,
    "id": 168
  },
  {
    "name": "Place de Jean Claude",
    "type": "archaeological_site",
    "wilaya_code": "56",
    "lat": 24.0580161,
    "lng": 10.9626679,
    "source": "OpenStreetMap",
    "osm_id": 1230779162,
    "id": 169
  },
  {
    "name": "Rock Paintings",
    "type": "archaeological_site",
    "wilaya_code": "56",
    "lat": 24.5656798,
    "lng": 9.3425441,
    "source": "OpenStreetMap",
    "osm_id": 4529064932,
    "id": 170
  },
  {
    "name": "Rock paintings",
    "type": "archaeological_site",
    "wilaya_code": "56",
    "lat": 25.3861674,
    "lng": 7.7487147,
    "source": "OpenStreetMap",
    "osm_id": 7074472024,
    "id": 171
  },
  {
    "name": "Rock paintings",
    "type": "archaeological_site",
    "wilaya_code": "56",
    "lat": 25.3919834,
    "lng": 7.7873743,
    "source": "OpenStreetMap",
    "osm_id": 7074493223,
    "id": 172
  },
  {
    "name": "Séfar",
    "name_ar": "مدينة سفار",
    "name_fr": "Séfar",
    "type": "archaeological_site",
    "wikidata": "Q22689835",
    "wilaya_code": "56",
    "lat": 24.687,
    "lng": 9.651,
    "source": "Wikidata",
    "id": 173
  },
  {
    "name": "Tadrast",
    "type": "archaeological_site",
    "wilaya_code": "56",
    "lat": 25.433303,
    "lng": 8.2969781,
    "source": "OpenStreetMap",
    "osm_id": 7074477607,
    "id": 174
  },
  {
    "name": "Tan Toudeft",
    "type": "archaeological_site",
    "wilaya_code": "56",
    "lat": 25.4221816,
    "lng": 8.2203599,
    "source": "OpenStreetMap",
    "osm_id": 7072546142,
    "id": 175
  },
  {
    "name": "Tassili Cultural Park",
    "name_ar": "الحظيرة الثقافية طاسيلي ناجر",
    "name_fr": "Parc culturel du Tassili",
    "type": "archaeological_site",
    "heritage_status": "Cultural heritage monuments in Algeria",
    "wikidata": "Q14629434",
    "wilaya_code": "56",
    "lat": 24.974,
    "lng": 9.012,
    "source": "Wikidata",
    "id": 176
  },
  {
    "name": "Tedar rock paintings",
    "type": "archaeological_site",
    "wilaya_code": "56",
    "lat": 25.3649917,
    "lng": 7.9752925,
    "source": "OpenStreetMap",
    "osm_id": 2552961765,
    "id": 177
  },
  {
    "name": "Tiaraneen",
    "type": "archaeological_site",
    "wilaya_code": "56",
    "lat": 25.4349644,
    "lng": 8.247451,
    "source": "OpenStreetMap",
    "osm_id": 7093129743,
    "id": 178
  },
  {
    "name": "Tin Akahem (Felsmalereien)",
    "type": "archaeological_site",
    "wilaya_code": "56",
    "lat": 23.8523635,
    "lng": 10.3749837,
    "source": "OpenStreetMap",
    "osm_id": 316496845,
    "id": 179
  },
  {
    "name": "Tin Amarasouzi",
    "type": "archaeological_site",
    "wilaya_code": "56",
    "lat": 25.421658,
    "lng": 8.298143,
    "source": "OpenStreetMap",
    "osm_id": 7074472272,
    "id": 180
  },
  {
    "name": "Tin Taborok paintings",
    "type": "archaeological_site",
    "wilaya_code": "56",
    "lat": 24.0731742,
    "lng": 10.9056769,
    "source": "OpenStreetMap",
    "osm_id": 7072156380,
    "id": 181
  },
  {
    "name": "Tin Taghirt",
    "type": "archaeological_site",
    "wilaya_code": "56",
    "lat": 25.1486739,
    "lng": 8.5058441,
    "source": "OpenStreetMap",
    "osm_id": 2571925549,
    "id": 182
  },
  {
    "name": "Tin Taghirt",
    "type": "archaeological_site",
    "wikidata": "Q131825711",
    "wilaya_code": "56",
    "lat": 25.1486444,
    "lng": 8.5059639,
    "source": "Wikidata",
    "id": 183
  },
  {
    "name": "important archeological site",
    "type": "archaeological_site",
    "wilaya_code": "56",
    "lat": 24.8278481,
    "lng": 8.3336356,
    "source": "OpenStreetMap",
    "osm_id": 818755324,
    "id": 184
  },
  {
    "name": "important archeological site",
    "type": "archaeological_site",
    "wilaya_code": "56",
    "lat": 24.7034527,
    "lng": 8.6228043,
    "source": "OpenStreetMap",
    "osm_id": 818756093,
    "id": 185
  },
  {
    "name": "important archeological site",
    "type": "archaeological_site",
    "wilaya_code": "56",
    "lat": 24.8105552,
    "lng": 8.330931,
    "source": "OpenStreetMap",
    "osm_id": 818757191,
    "id": 186
  },
  {
    "name": "neolithic painting",
    "type": "archaeological_site",
    "wilaya_code": "56",
    "lat": 24.0335748,
    "lng": 10.9543028,
    "source": "OpenStreetMap",
    "osm_id": 1230776910,
    "id": 187
  },
  {
    "name": "neolithic painting",
    "type": "archaeological_site",
    "wilaya_code": "56",
    "lat": 24.0369228,
    "lng": 10.9512017,
    "source": "OpenStreetMap",
    "osm_id": 1230777564,
    "id": 188
  },
  {
    "name": "neolithic petroglyph",
    "type": "archaeological_site",
    "wilaya_code": "56",
    "lat": 24.0347795,
    "lng": 11.0122967,
    "source": "OpenStreetMap",
    "osm_id": 7864958910,
    "id": 189
  },
  {
    "name": "neolithic petroglyphs",
    "type": "archaeological_site",
    "wilaya_code": "56",
    "lat": 24.0323857,
    "lng": 11.0125621,
    "source": "OpenStreetMap",
    "osm_id": 7072193486,
    "id": 190
  },
  {
    "name": "neolithic petroglyphs",
    "type": "archaeological_site",
    "wilaya_code": "56",
    "lat": 24.0372728,
    "lng": 10.9513831,
    "source": "OpenStreetMap",
    "osm_id": 7072320599,
    "id": 191
  },
  {
    "name": "neolithic petroglyphs",
    "type": "archaeological_site",
    "wilaya_code": "56",
    "lat": 24.0429303,
    "lng": 11.0212092,
    "source": "OpenStreetMap",
    "osm_id": 7072419646,
    "id": 192
  },
  {
    "name": "neolothic petroglyph",
    "type": "archaeological_site",
    "wilaya_code": "56",
    "lat": 24.0582223,
    "lng": 10.9624513,
    "source": "OpenStreetMap",
    "osm_id": 7846823935,
    "id": 193
  },
  {
    "name": "rock paintings",
    "type": "archaeological_site",
    "wilaya_code": "56",
    "lat": 24.0545452,
    "lng": 10.7661662,
    "source": "OpenStreetMap",
    "osm_id": 316501709,
    "id": 194
  },
  {
    "name": "إسالامن",
    "name_ar": "إسالامن",
    "type": "archaeological_site",
    "wilaya_code": "56",
    "lat": 25.3878162,
    "lng": 8.3528996,
    "source": "OpenStreetMap",
    "osm_id": 7074480719,
    "id": 195
  },
  {
    "name": "البقرة البكاء",
    "name_ar": "البقرة البكاء",
    "name_fr": "La vache qui pleure",
    "type": "archaeological_site",
    "wilaya_code": "56",
    "lat": 24.380277,
    "lng": 9.4323492,
    "source": "OpenStreetMap",
    "osm_id": 316496842,
    "id": 196
  },
  {
    "name": "اللوحات الصخرية بوادي أبو هديان",
    "name_ar": "اللوحات الصخرية بوادي أبو هديان",
    "name_fr": "Peintures rupestres vallée Bouhadian",
    "type": "archaeological_site",
    "wilaya_code": "56",
    "lat": 24.200283,
    "lng": 10.876935,
    "source": "OpenStreetMap",
    "osm_id": 316499806,
    "id": 197
  },
  {
    "name": "اللوحات الصخرية طاسيلي ناجر",
    "name_ar": "اللوحات الصخرية طاسيلي ناجر",
    "name_fr": "Peintures rupestres Tassili N' Ajjer",
    "type": "archaeological_site",
    "wilaya_code": "56",
    "lat": 25.0286191,
    "lng": 8.5567661,
    "source": "OpenStreetMap",
    "osm_id": 4407133091,
    "id": 198
  },
  {
    "name": "النقوش الصخرية بوان تيكال",
    "name_ar": "النقوش الصخرية بوان تيكال",
    "name_fr": "Pétroglyphes de Oued Tikal",
    "type": "archaeological_site",
    "wilaya_code": "56",
    "lat": 24.1336841,
    "lng": 10.9314218,
    "source": "OpenStreetMap",
    "osm_id": 316499804,
    "id": 199
  },
  {
    "name": "تاناوت ⵜⴰⵏⴰⵡⵜ",
    "name_ar": "تاناوت",
    "name_fr": "Tanaout",
    "type": "archaeological_site",
    "wilaya_code": "56",
    "lat": 24.0577576,
    "lng": 10.1602672,
    "source": "OpenStreetMap",
    "osm_id": 7074429278,
    "id": 200
  },
  {
    "name": "تين أرسو ⵜⵉⵏ ⴰⵔⴻⵙⵓ",
    "name_ar": "تين أرسو",
    "name_fr": "Tin Aressou",
    "type": "archaeological_site",
    "wilaya_code": "56",
    "lat": 24.023561,
    "lng": 10.2502173,
    "source": "OpenStreetMap",
    "osm_id": 7072482699,
    "id": 201
  },
  {
    "name": "تين امالي ⵜⵉⵏ ⴰⵎⴰⵍⵉ",
    "name_ar": "تين امالي",
    "name_fr": "Tin Amali",
    "type": "archaeological_site",
    "wilaya_code": "56",
    "lat": 24.4172898,
    "lng": 9.526155,
    "source": "OpenStreetMap",
    "osm_id": 4936229849,
    "id": 202
  },
  {
    "name": "قبر شمسي",
    "name_ar": "قبر شمسي",
    "name_fr": "Tombe solaire",
    "type": "archaeological_site",
    "wilaya_code": "56",
    "lat": 24.835834,
    "lng": 9.0520792,
    "source": "OpenStreetMap",
    "osm_id": 4529064838,
    "id": 203
  },
  {
    "name": "قبر شمسي",
    "name_ar": "قبر شمسي",
    "name_fr": "Tombe solaire",
    "type": "archaeological_site",
    "wilaya_code": "56",
    "lat": 24.8043194,
    "lng": 9.3124586,
    "source": "OpenStreetMap",
    "osm_id": 11655976887,
    "id": 204
  },
  {
    "name": "قبر شمسي",
    "name_ar": "قبر شمسي",
    "name_fr": "Tombe solaire",
    "type": "archaeological_site",
    "wilaya_code": "56",
    "lat": 24.793481,
    "lng": 9.2791792,
    "source": "OpenStreetMap",
    "osm_id": 11655976888,
    "id": 205
  },
  {
    "name": "قبر شمسي",
    "name_ar": "قبر شمسي",
    "name_fr": "Tombe solaire",
    "type": "archaeological_site",
    "wilaya_code": "56",
    "lat": 24.734868,
    "lng": 9.3014225,
    "source": "OpenStreetMap",
    "osm_id": 11655976889,
    "id": 206
  },
  {
    "name": "قبر شمسي",
    "name_ar": "قبر شمسي",
    "name_fr": "Tombe solaire",
    "type": "archaeological_site",
    "wilaya_code": "56",
    "lat": 24.728342,
    "lng": 9.2853223,
    "source": "OpenStreetMap",
    "osm_id": 11655976890,
    "id": 207
  },
  {
    "name": "قبر شمسي",
    "name_ar": "قبر شمسي",
    "name_fr": "Tombe solaire",
    "type": "archaeological_site",
    "wilaya_code": "56",
    "lat": 24.7288825,
    "lng": 9.3809756,
    "source": "OpenStreetMap",
    "osm_id": 11655976891,
    "id": 208
  },
  {
    "name": "قبر شمسي",
    "name_ar": "قبر شمسي",
    "name_fr": "Tombe solaire",
    "type": "archaeological_site",
    "wilaya_code": "56",
    "lat": 24.7516137,
    "lng": 9.32633,
    "source": "OpenStreetMap",
    "osm_id": 11655976893,
    "id": 209
  },
  {
    "name": "قبر شمسي",
    "name_ar": "قبر شمسي",
    "name_fr": "Tombe solaire",
    "type": "archaeological_site",
    "wilaya_code": "56",
    "lat": 24.7515233,
    "lng": 9.2929189,
    "source": "OpenStreetMap",
    "osm_id": 11655976894,
    "id": 210
  },
  {
    "name": "قبر شمسي",
    "name_ar": "قبر شمسي",
    "name_fr": "Tombe solaire",
    "type": "archaeological_site",
    "wilaya_code": "56",
    "lat": 24.7563646,
    "lng": 9.2745275,
    "source": "OpenStreetMap",
    "osm_id": 11655976895,
    "id": 211
  },
  {
    "name": "قبر شمسي",
    "name_ar": "قبر شمسي",
    "name_fr": "Tombe solaire",
    "type": "archaeological_site",
    "wilaya_code": "56",
    "lat": 24.7538336,
    "lng": 9.2959172,
    "source": "OpenStreetMap",
    "osm_id": 11655976896,
    "id": 212
  },
  {
    "name": "قبر شمسي",
    "name_ar": "قبر شمسي",
    "name_fr": "Tombe solaire",
    "type": "archaeological_site",
    "wilaya_code": "56",
    "lat": 24.7537879,
    "lng": 9.3004548,
    "source": "OpenStreetMap",
    "osm_id": 11655976897,
    "id": 213
  },
  {
    "name": "قبر شمسي",
    "name_ar": "قبر شمسي",
    "name_fr": "Tombe solaire",
    "type": "archaeological_site",
    "wilaya_code": "56",
    "lat": 24.7512065,
    "lng": 9.3001945,
    "source": "OpenStreetMap",
    "osm_id": 11655976898,
    "id": 214
  },
  {
    "name": "قبر شمسي",
    "name_ar": "قبر شمسي",
    "name_fr": "Tombe solaire",
    "type": "archaeological_site",
    "wilaya_code": "56",
    "lat": 24.7494389,
    "lng": 9.3000022,
    "source": "OpenStreetMap",
    "osm_id": 11655976899,
    "id": 215
  },
  {
    "name": "قبر شمسي",
    "name_ar": "قبر شمسي",
    "name_fr": "Tombe solaire",
    "type": "archaeological_site",
    "wilaya_code": "56",
    "lat": 24.7494598,
    "lng": 9.3049632,
    "source": "OpenStreetMap",
    "osm_id": 11655976900,
    "id": 216
  },
  {
    "name": "قبر شمسي",
    "name_ar": "قبر شمسي",
    "name_fr": "Tombe solaire",
    "type": "archaeological_site",
    "wilaya_code": "56",
    "lat": 24.7476837,
    "lng": 9.3102461,
    "source": "OpenStreetMap",
    "osm_id": 11655976901,
    "id": 217
  },
  {
    "name": "قبر شمسي",
    "name_ar": "قبر شمسي",
    "name_fr": "Tombe solaire",
    "type": "archaeological_site",
    "wilaya_code": "56",
    "lat": 24.7353922,
    "lng": 9.3003677,
    "source": "OpenStreetMap",
    "osm_id": 11655976904,
    "id": 218
  },
  {
    "name": "قبر شمسي",
    "name_ar": "قبر شمسي",
    "name_fr": "Tombe solaire",
    "type": "archaeological_site",
    "wilaya_code": "56",
    "lat": 24.7355689,
    "lng": 9.3000846,
    "source": "OpenStreetMap",
    "osm_id": 11655976905,
    "id": 219
  },
  {
    "name": "قبر شمسي",
    "name_ar": "قبر شمسي",
    "name_fr": "Tombe solaire",
    "type": "archaeological_site",
    "wilaya_code": "56",
    "lat": 24.7357369,
    "lng": 9.3067752,
    "source": "OpenStreetMap",
    "osm_id": 11655976907,
    "id": 220
  },
  {
    "name": "قبر شمسي",
    "name_ar": "قبر شمسي",
    "name_fr": "Tombe solaire",
    "type": "archaeological_site",
    "wilaya_code": "56",
    "lat": 24.735859,
    "lng": 9.304782,
    "source": "OpenStreetMap",
    "osm_id": 11655976908,
    "id": 221
  },
  {
    "name": "قبر شمسي",
    "name_ar": "قبر شمسي",
    "name_fr": "Tombe solaire",
    "type": "archaeological_site",
    "wilaya_code": "56",
    "lat": 24.7354883,
    "lng": 9.3035306,
    "source": "OpenStreetMap",
    "osm_id": 11655976909,
    "id": 222
  },
  {
    "name": "قبر شمسي",
    "name_ar": "قبر شمسي",
    "name_fr": "Tombe solaire",
    "type": "archaeological_site",
    "wilaya_code": "56",
    "lat": 24.7351293,
    "lng": 9.294456,
    "source": "OpenStreetMap",
    "osm_id": 11655976910,
    "id": 223
  },
  {
    "name": "قبر شمسي",
    "name_ar": "قبر شمسي",
    "name_fr": "Tombe solaire",
    "type": "archaeological_site",
    "wilaya_code": "56",
    "lat": 24.7351054,
    "lng": 9.2946833,
    "source": "OpenStreetMap",
    "osm_id": 11655976911,
    "id": 224
  },
  {
    "name": "قبر شمسي",
    "name_ar": "قبر شمسي",
    "name_fr": "Tombe solaire",
    "type": "archaeological_site",
    "wilaya_code": "56",
    "lat": 24.7352073,
    "lng": 9.2946444,
    "source": "OpenStreetMap",
    "osm_id": 11655976912,
    "id": 225
  },
  {
    "name": "قبر شمسي",
    "name_ar": "قبر شمسي",
    "name_fr": "Tombe solaire",
    "type": "archaeological_site",
    "wilaya_code": "56",
    "lat": 24.73431,
    "lng": 9.2910956,
    "source": "OpenStreetMap",
    "osm_id": 11655976913,
    "id": 226
  },
  {
    "name": "قبر شمسي",
    "name_ar": "قبر شمسي",
    "name_fr": "Tombe solaire",
    "type": "archaeological_site",
    "wilaya_code": "56",
    "lat": 24.7334752,
    "lng": 9.2912431,
    "source": "OpenStreetMap",
    "osm_id": 11655976914,
    "id": 227
  },
  {
    "name": "قبر شمسي",
    "name_ar": "قبر شمسي",
    "name_fr": "Tombe solaire",
    "type": "archaeological_site",
    "wilaya_code": "56",
    "lat": 24.735899,
    "lng": 9.2896543,
    "source": "OpenStreetMap",
    "osm_id": 11655976916,
    "id": 228
  },
  {
    "name": "قبر شمسي",
    "name_ar": "قبر شمسي",
    "name_fr": "Tombe solaire",
    "type": "archaeological_site",
    "wilaya_code": "56",
    "lat": 24.7359671,
    "lng": 9.282167,
    "source": "OpenStreetMap",
    "osm_id": 11655976917,
    "id": 229
  },
  {
    "name": "قبر شمسي",
    "name_ar": "قبر شمسي",
    "name_fr": "Tombe solaire",
    "type": "archaeological_site",
    "wilaya_code": "56",
    "lat": 24.7515805,
    "lng": 9.2929197,
    "source": "OpenStreetMap",
    "osm_id": 11656177113,
    "id": 230
  },
  {
    "name": "قبر شمسي",
    "name_ar": "قبر شمسي",
    "name_fr": "Tombe solaire",
    "type": "archaeological_site",
    "wilaya_code": "56",
    "lat": 24.8000846,
    "lng": 9.282385,
    "source": "OpenStreetMap",
    "osm_id": 11656177114,
    "id": 231
  },
  {
    "name": "قبر شمسي",
    "name_ar": "قبر شمسي",
    "name_fr": "Tombe solaire",
    "type": "archaeological_site",
    "wilaya_code": "56",
    "lat": 24.7993535,
    "lng": 9.2834097,
    "source": "OpenStreetMap",
    "osm_id": 11656177115,
    "id": 232
  },
  {
    "name": "قبر شمسي",
    "name_ar": "قبر شمسي",
    "name_fr": "Tombe solaire",
    "type": "archaeological_site",
    "wilaya_code": "56",
    "lat": 24.7971032,
    "lng": 9.3023071,
    "source": "OpenStreetMap",
    "osm_id": 11656177116,
    "id": 233
  },
  {
    "name": "قبر شمسي",
    "name_ar": "قبر شمسي",
    "name_fr": "Tombe solaire",
    "type": "archaeological_site",
    "wilaya_code": "56",
    "lat": 24.7950007,
    "lng": 9.3082014,
    "source": "OpenStreetMap",
    "osm_id": 11656177117,
    "id": 234
  },
  {
    "name": "قبر شمسي",
    "name_ar": "قبر شمسي",
    "name_fr": "Tombe solaire",
    "type": "archaeological_site",
    "wilaya_code": "56",
    "lat": 24.7576888,
    "lng": 9.3097895,
    "source": "OpenStreetMap",
    "osm_id": 11656177118,
    "id": 235
  },
  {
    "name": "قبر شمسي",
    "name_ar": "قبر شمسي",
    "name_fr": "Tombe solaire",
    "type": "archaeological_site",
    "wilaya_code": "56",
    "lat": 24.7570671,
    "lng": 9.3109434,
    "source": "OpenStreetMap",
    "osm_id": 11656177119,
    "id": 236
  },
  {
    "name": "قبر شمسي",
    "name_ar": "قبر شمسي",
    "name_fr": "Tombe solaire",
    "type": "archaeological_site",
    "wilaya_code": "56",
    "lat": 24.7570497,
    "lng": 9.3163725,
    "source": "OpenStreetMap",
    "osm_id": 11656177120,
    "id": 237
  },
  {
    "name": "قبر شمسي",
    "name_ar": "قبر شمسي",
    "name_fr": "Tombe solaire",
    "type": "archaeological_site",
    "wilaya_code": "56",
    "lat": 24.7374287,
    "lng": 9.3282227,
    "source": "OpenStreetMap",
    "osm_id": 11656177121,
    "id": 238
  },
  {
    "name": "قبر شمسي",
    "name_ar": "قبر شمسي",
    "name_fr": "Tombe solaire",
    "type": "archaeological_site",
    "wilaya_code": "56",
    "lat": 24.737269,
    "lng": 9.3125437,
    "source": "OpenStreetMap",
    "osm_id": 11656177122,
    "id": 239
  },
  {
    "name": "قبر شمسي",
    "name_ar": "قبر شمسي",
    "name_fr": "Tombe solaire",
    "type": "archaeological_site",
    "wilaya_code": "56",
    "lat": 24.7370734,
    "lng": 9.3119644,
    "source": "OpenStreetMap",
    "osm_id": 11656177123,
    "id": 240
  },
  {
    "name": "قبر شمسي",
    "name_ar": "قبر شمسي",
    "name_fr": "Tombe solaire",
    "type": "archaeological_site",
    "wilaya_code": "56",
    "lat": 24.7369168,
    "lng": 9.3102313,
    "source": "OpenStreetMap",
    "osm_id": 11656177124,
    "id": 241
  },
  {
    "name": "قبر شمسي",
    "name_ar": "قبر شمسي",
    "name_fr": "Tombe solaire",
    "type": "archaeological_site",
    "wilaya_code": "56",
    "lat": 24.7362254,
    "lng": 9.2982526,
    "source": "OpenStreetMap",
    "osm_id": 11656177128,
    "id": 242
  },
  {
    "name": "قبر شمسي",
    "name_ar": "قبر شمسي",
    "name_fr": "Tombe solaire",
    "type": "archaeological_site",
    "wilaya_code": "56",
    "lat": 24.7361776,
    "lng": 9.2979654,
    "source": "OpenStreetMap",
    "osm_id": 11656177129,
    "id": 243
  },
  {
    "name": "قبر شمسي",
    "name_ar": "قبر شمسي",
    "name_fr": "Tombe solaire",
    "type": "archaeological_site",
    "wilaya_code": "56",
    "lat": 24.7338524,
    "lng": 9.2913877,
    "source": "OpenStreetMap",
    "osm_id": 11656177134,
    "id": 244
  },
  {
    "name": "قبر شمسي",
    "name_ar": "قبر شمسي",
    "name_fr": "Tombe solaire",
    "type": "archaeological_site",
    "wilaya_code": "56",
    "lat": 24.7359316,
    "lng": 9.2825374,
    "source": "OpenStreetMap",
    "osm_id": 11656177137,
    "id": 245
  },
  {
    "name": "Roman bridge in El Kantara",
    "name_ar": "جسر القنطرة الروماني",
    "name_fr": "pont romain d'El Kantara",
    "type": "archaeological_site",
    "wikidata": "Q101243536",
    "wilaya_code": "61",
    "lat": 35.233555,
    "lng": 5.701555,
    "source": "Wikidata",
    "id": 246
  },
  {
    "name": "Oued Djebbana",
    "type": "archaeological_site",
    "wikidata": "Q131928123",
    "wilaya_code": "62",
    "lat": 34.73,
    "lng": 8.051,
    "source": "Wikidata",
    "id": 247
  },
  {
    "name": "Ruines d'Achir",
    "name_ar": "اطلال المدينة الاثرية آشير",
    "type": "archaeological_site",
    "wikipedia": "fr:Achir",
    "wikidata": "Q2401317",
    "wilaya_code": "67",
    "lat": 35.9450356,
    "lng": 3.2848055,
    "source": "OpenStreetMap",
    "osm_id": 385862082,
    "id": 248
  },
  {
    "name": "Ausum",
    "type": "archaeological_site",
    "wilaya_code": "68",
    "lat": 34.8613753,
    "lng": 4.9245416,
    "source": "OpenStreetMap",
    "osm_id": 1338155675,
    "id": 249
  },
  {
    "name": "رحى فيريرو",
    "name_ar": "رحى فيريرو",
    "name_fr": "Moulin Ferrero",
    "type": "archaeological_site",
    "wilaya_code": "68",
    "lat": 35.1920423,
    "lng": 4.1653317,
    "source": "OpenStreetMap",
    "osm_id": 3207837890,
    "id": 250
  },
  {
    "name": "قيادة القوات البحرية",
    "name_ar": "قيادة القوات البحرية",
    "name_fr": "Commandement des Forces Navales",
    "type": "area",
    "wilaya_code": "16",
    "lat": 36.7842127,
    "lng": 3.069175,
    "source": "OpenStreetMap",
    "osm_id": 155362197,
    "id": 251
  },
  {
    "name": "Caserne Bab Lakouas",
    "name_ar": "ثكنة باب الأقواس",
    "name_fr": "Caserne Bab Lakouas",
    "type": "barracks",
    "wilaya_code": "26",
    "lat": 36.2616984,
    "lng": 2.748355,
    "source": "OpenStreetMap",
    "osm_id": 190374019,
    "id": 252
  },
  {
    "name": "حمامات قيصر الرومانية",
    "name_ar": "حمامات قيصر الرومانية",
    "name_fr": "Thermes romains de César",
    "type": "bath",
    "wilaya_code": "25",
    "lat": 36.3663834,
    "lng": 6.6158479,
    "source": "OpenStreetMap",
    "osm_id": 13680444051,
    "id": 253
  },
  {
    "name": "Battle site of the Battle of Oued Chelif (1015)",
    "name_ar": "موقع المعركة واد شليف (1015)",
    "type": "battle_site",
    "wilaya_code": "67",
    "lat": 35.6433139,
    "lng": 2.3178677,
    "source": "OpenStreetMap",
    "osm_id": 1513382475,
    "id": 254
  },
  {
    "name": "حصار الأغواط",
    "name_ar": "حصار الأغواط",
    "name_fr": "Siège de Laghouat",
    "type": "battlefield",
    "wikipedia": "ar:حصار الأغواط",
    "wikidata": "Q16931833",
    "wilaya_code": "03",
    "lat": 33.8054435,
    "lng": 2.8788191,
    "source": "OpenStreetMap",
    "osm_id": 12471849708,
    "id": 255
  },
  {
    "name": "نصب تذكاري لإندلاع ثورة أول نوفمبر",
    "name_ar": "نصب تذكاري لإندلاع ثورة أول نوفمبر",
    "type": "battlefield",
    "wikipedia": "fr:Guerre d'Algérie",
    "wilaya_code": "05",
    "lat": 35.1546118,
    "lng": 6.2450322,
    "source": "OpenStreetMap",
    "osm_id": 474802378,
    "id": 256
  },
  {
    "name": "Bataille de Staoueli معركة سطاوالي",
    "name_ar": "معركة سطاوالي",
    "name_fr": "Bataille de Staoueli",
    "type": "battlefield",
    "wikipedia": "ar:معركة سطاوالي (1830)",
    "wikidata": "Q2890049",
    "wilaya_code": "16",
    "lat": 36.7579768,
    "lng": 2.881601,
    "source": "OpenStreetMap",
    "osm_id": 12471558534,
    "id": 257
  },
  {
    "name": "حصار قلعة برج مولاي الحسن",
    "name_ar": "حصار قلعة برج مولاي الحسن",
    "name_fr": "Siège de la forteresse de Bordj Moulay Hassan",
    "type": "battlefield",
    "wilaya_code": "16",
    "lat": 36.7738159,
    "lng": 3.0448054,
    "source": "OpenStreetMap",
    "osm_id": 12471601073,
    "id": 258
  },
  {
    "name": "Les 04 chemins",
    "type": "boundary_stone",
    "wilaya_code": "15",
    "lat": 36.7023441,
    "lng": 4.5331584,
    "source": "OpenStreetMap",
    "osm_id": 2837834352,
    "id": 259
  },
  {
    "name": "pk 178/49",
    "type": "boundary_stone",
    "wilaya_code": "30",
    "lat": 31.9364984,
    "lng": 5.4176932,
    "source": "OpenStreetMap",
    "osm_id": 5305560977,
    "id": 260
  },
  {
    "name": "قناة عين الزبوجة",
    "name_ar": "قناة عين الزبوجة",
    "name_fr": "Aqueduc Ain Zeboudja",
    "type": "bridge",
    "wilaya_code": "16",
    "lat": 36.7559196,
    "lng": 3.0311632,
    "source": "OpenStreetMap",
    "osm_id": 278903680,
    "id": 261
  },
  {
    "name": "El Kantara",
    "type": "bridge",
    "heritage": "yes",
    "wilaya_code": "61",
    "lat": 35.2335682,
    "lng": 5.701588,
    "source": "OpenStreetMap",
    "osm_id": 475450594,
    "id": 262
  },
  {
    "name": "الجامع ميقور",
    "name_ar": "الجامع ميقور",
    "name_fr": "El Jama3 Migour",
    "type": "building",
    "wilaya_code": "06",
    "lat": 36.6062598,
    "lng": 4.6440125,
    "source": "OpenStreetMap",
    "osm_id": 261518724,
    "id": 263
  },
  {
    "name": "Château Boukandoura قلعة بوقندورة",
    "name_ar": "قلعة بوقندورة",
    "name_fr": "Château Boukandoura",
    "type": "building",
    "wilaya_code": "09",
    "lat": 36.5978227,
    "lng": 3.162279,
    "source": "OpenStreetMap",
    "osm_id": 1160663208,
    "id": 264
  },
  {
    "name": "البريد المركزي الجزائر",
    "name_ar": "البريد المركزي الجزائر",
    "name_fr": "La Grande Poste d'Alger",
    "type": "building",
    "wikipedia": "fr:Grande Poste d'Alger",
    "wikidata": "Q3115007",
    "wilaya_code": "16",
    "lat": 36.773079,
    "lng": 3.0595769,
    "source": "OpenStreetMap",
    "osm_id": 415866,
    "id": 265
  },
  {
    "name": "مستشفى بودانس القديم",
    "name_ar": "مستشفى بودانس القديم",
    "name_fr": "Ancien hôpital Baudens",
    "type": "building",
    "wilaya_code": "31",
    "lat": 35.7056835,
    "lng": -0.6537832,
    "source": "OpenStreetMap",
    "osm_id": 369151778,
    "id": 266
  },
  {
    "name": "Gendarmerie de Oued Athmania درك وادي العثمانية",
    "name_ar": "درك وادي العثمانية",
    "name_fr": "Gendarmerie de Oued Athmania",
    "type": "building",
    "wilaya_code": "43",
    "lat": 36.2480698,
    "lng": 6.2887441,
    "source": "OpenStreetMap",
    "osm_id": 1329600495,
    "id": 267
  },
  {
    "name": "Centre de concentration 2 ème Bureau",
    "name_ar": "مركز التعديب المكتب 2",
    "name_fr": "Centre de concentration 2 ème Bureau",
    "type": "building",
    "wilaya_code": "46",
    "lat": 35.3044774,
    "lng": -1.1825911,
    "source": "OpenStreetMap",
    "osm_id": 5305283021,
    "id": 268
  },
  {
    "name": "Kasba",
    "type": "castle",
    "wilaya_code": "01",
    "lat": 26.9634847,
    "lng": 1.0824514,
    "source": "OpenStreetMap",
    "osm_id": 298367390,
    "id": 269
  },
  {
    "name": "Ksar",
    "type": "castle",
    "wilaya_code": "01",
    "lat": 27.8301491,
    "lng": -0.270722,
    "source": "OpenStreetMap",
    "osm_id": 1363070571,
    "id": 270
  },
  {
    "name": "Ksar",
    "type": "castle",
    "wilaya_code": "01",
    "lat": 27.8728849,
    "lng": -0.3417701,
    "source": "OpenStreetMap",
    "osm_id": 1363082816,
    "id": 271
  },
  {
    "name": "Ksar",
    "type": "castle",
    "wilaya_code": "01",
    "lat": 27.336779,
    "lng": -0.2342137,
    "source": "OpenStreetMap",
    "osm_id": 1364293354,
    "id": 272
  },
  {
    "name": "Ksar",
    "type": "castle",
    "wilaya_code": "01",
    "lat": 27.4502424,
    "lng": -0.2643222,
    "source": "OpenStreetMap",
    "osm_id": 1365073274,
    "id": 273
  },
  {
    "name": "Ksar",
    "type": "castle",
    "wilaya_code": "01",
    "lat": 27.1564356,
    "lng": -0.1374983,
    "source": "OpenStreetMap",
    "osm_id": 1428568380,
    "id": 274
  },
  {
    "name": "Ksar",
    "type": "castle",
    "wilaya_code": "01",
    "lat": 27.156911,
    "lng": -0.1359329,
    "source": "OpenStreetMap",
    "osm_id": 1428568383,
    "id": 275
  },
  {
    "name": "Ksar",
    "type": "castle",
    "wilaya_code": "01",
    "lat": 27.1435553,
    "lng": -0.1376885,
    "source": "OpenStreetMap",
    "osm_id": 1428568394,
    "id": 276
  },
  {
    "name": "Ksar القصر",
    "name_ar": "القصر",
    "name_fr": "Ksar",
    "type": "castle",
    "wilaya_code": "01",
    "lat": 27.2718879,
    "lng": -0.2066214,
    "source": "OpenStreetMap",
    "osm_id": 1361579926,
    "id": 277
  },
  {
    "name": "Ksar القصر",
    "name_ar": "القصر",
    "name_fr": "Ksar",
    "type": "castle",
    "wilaya_code": "01",
    "lat": 27.2640264,
    "lng": -0.2076234,
    "source": "OpenStreetMap",
    "osm_id": 1361579932,
    "id": 278
  },
  {
    "name": "Ksar القصر",
    "name_ar": "القصر",
    "name_fr": "Ksar",
    "type": "castle",
    "wilaya_code": "01",
    "lat": 27.2562743,
    "lng": -0.2096369,
    "source": "OpenStreetMap",
    "osm_id": 1361579933,
    "id": 279
  },
  {
    "name": "Ksar القصر",
    "name_ar": "القصر",
    "name_fr": "Ksar",
    "type": "castle",
    "wilaya_code": "01",
    "lat": 27.6501053,
    "lng": -0.2048939,
    "source": "OpenStreetMap",
    "osm_id": 1364194176,
    "id": 280
  },
  {
    "name": "بالحاج",
    "name_ar": "بالحاج",
    "name_fr": "Belhadj",
    "type": "castle",
    "wilaya_code": "01",
    "lat": 27.7445097,
    "lng": -0.2719666,
    "source": "OpenStreetMap",
    "osm_id": 4798706321,
    "id": 281
  },
  {
    "name": "أولاد عدة",
    "name_ar": "أولاد عدة",
    "type": "castle",
    "wilaya_code": "02",
    "lat": 36.1900309,
    "lng": 0.9302819,
    "source": "OpenStreetMap",
    "osm_id": 7778783686,
    "id": 282
  },
  {
    "name": "أولاد عين الناس",
    "name_ar": "أولاد عين الناس",
    "type": "castle",
    "wilaya_code": "02",
    "lat": 36.1570842,
    "lng": 0.9428761,
    "source": "OpenStreetMap",
    "osm_id": 7778783887,
    "id": 283
  },
  {
    "name": "البيايض",
    "name_ar": "البيايض",
    "type": "castle",
    "wilaya_code": "02",
    "lat": 36.1750361,
    "lng": 1.0104464,
    "source": "OpenStreetMap",
    "osm_id": 7778783985,
    "id": 284
  },
  {
    "name": "السهايلية",
    "name_ar": "السهايلية",
    "type": "castle",
    "wilaya_code": "02",
    "lat": 36.1674177,
    "lng": 0.9258083,
    "source": "OpenStreetMap",
    "osm_id": 7778783885,
    "id": 285
  },
  {
    "name": "سخاريف",
    "name_ar": "سخاريف",
    "name_fr": "Skharif",
    "type": "castle",
    "wilaya_code": "02",
    "lat": 36.1017066,
    "lng": 0.9483852,
    "source": "OpenStreetMap",
    "osm_id": 7778783886,
    "id": 286
  },
  {
    "name": "عين العزلة",
    "name_ar": "عين العزلة",
    "type": "castle",
    "wilaya_code": "02",
    "lat": 36.2206095,
    "lng": 0.9549582,
    "source": "OpenStreetMap",
    "osm_id": 7472265185,
    "id": 287
  },
  {
    "name": "Fort Bouscaren",
    "type": "castle",
    "wilaya_code": "03",
    "lat": 33.8034368,
    "lng": 2.8802413,
    "source": "OpenStreetMap",
    "osm_id": 42693121,
    "id": 288
  },
  {
    "name": "Ksar",
    "name_ar": "قصر عين ماضي",
    "type": "castle",
    "wilaya_code": "03",
    "lat": 33.7938532,
    "lng": 2.300943,
    "source": "OpenStreetMap",
    "osm_id": 405891354,
    "id": 289
  },
  {
    "name": "Palais de Kourdane",
    "name_ar": "قصر كوردان",
    "name_fr": "palais de Kourdane",
    "type": "castle",
    "wikidata": "Q3360974",
    "wilaya_code": "03",
    "lat": 33.8497,
    "lng": 2.34049,
    "source": "Wikidata",
    "id": 290
  },
  {
    "name": "راس بنادم",
    "type": "castle",
    "wilaya_code": "03",
    "lat": 32.9993535,
    "lng": 2.8605599,
    "source": "OpenStreetMap",
    "osm_id": 12705996101,
    "id": 291
  },
  {
    "name": "Château",
    "name_ar": "القبة",
    "name_fr": "Château",
    "type": "castle",
    "wilaya_code": "04",
    "lat": 35.8787548,
    "lng": 7.116255,
    "source": "OpenStreetMap",
    "osm_id": 310446941,
    "id": 292
  },
  {
    "name": "اقلفن",
    "name_ar": "اقلفن",
    "type": "castle",
    "wilaya_code": "05",
    "lat": 35.0742671,
    "lng": 6.0222573,
    "source": "OpenStreetMap",
    "osm_id": 5020286272,
    "id": 293
  },
  {
    "name": "الجدة جوهرة بن منصور",
    "name_ar": "الجدة جوهرة بن منصور",
    "name_fr": "Nana djohra benmansour",
    "type": "castle",
    "wilaya_code": "05",
    "lat": 35.6697723,
    "lng": 5.6490469,
    "source": "OpenStreetMap",
    "osm_id": 5080748822,
    "id": 294
  },
  {
    "name": "حدود أملاك لخضر بن علي علاوة",
    "name_ar": "حدود أملاك لخضر بن علي علاوة",
    "name_fr": "Fin de la propriété de Lakhdar Ben Ali Allaoua",
    "type": "castle",
    "wilaya_code": "05",
    "lat": 35.1276534,
    "lng": 6.4367762,
    "source": "OpenStreetMap",
    "osm_id": 6710739885,
    "id": 295
  },
  {
    "name": "رأس السراء كيمل تكوت",
    "name_ar": "رأس السراء كيمل تكوت",
    "type": "castle",
    "wilaya_code": "05",
    "lat": 35.0799265,
    "lng": 6.4018848,
    "source": "OpenStreetMap",
    "osm_id": 6668792989,
    "id": 296
  },
  {
    "name": "قاعة حفلات الزفاف طبنة",
    "name_ar": "قاعة حفلات الزفاف طبنة",
    "type": "castle",
    "wilaya_code": "05",
    "lat": 35.582181,
    "lng": 6.1944315,
    "source": "OpenStreetMap",
    "osm_id": 5844039385,
    "id": 297
  },
  {
    "name": "قلعة ايقلفن",
    "name_ar": "قلعة ايقلفن",
    "type": "castle",
    "wilaya_code": "05",
    "lat": 35.0791259,
    "lng": 6.0174061,
    "source": "OpenStreetMap",
    "osm_id": 552216176,
    "id": 298
  },
  {
    "name": "قلعة بالول",
    "name_ar": "قلعة بالول",
    "type": "castle",
    "wilaya_code": "05",
    "lat": 35.0923068,
    "lng": 6.064984,
    "source": "OpenStreetMap",
    "osm_id": 552216174,
    "id": 299
  },
  {
    "name": "هازمال",
    "name_ar": "هازمال",
    "type": "castle",
    "wilaya_code": "05",
    "lat": 35.097301,
    "lng": 6.0518114,
    "source": "OpenStreetMap",
    "osm_id": 5020349494,
    "id": 300
  },
  {
    "name": "هاليليث",
    "name_ar": "هاليليث",
    "type": "castle",
    "wilaya_code": "05",
    "lat": 35.0747157,
    "lng": 5.9942827,
    "source": "OpenStreetMap",
    "osm_id": 5331940624,
    "id": 301
  },
  {
    "name": "هيطرومكث",
    "name_ar": "هيطرومكث",
    "type": "castle",
    "wilaya_code": "05",
    "lat": 35.0848993,
    "lng": 6.0281814,
    "source": "OpenStreetMap",
    "osm_id": 5020286273,
    "id": 302
  },
  {
    "name": "Bordj Moussa",
    "name_ar": "برج موسى",
    "name_fr": "Bordj Moussa",
    "type": "castle",
    "wikidata": "Q124425851",
    "wilaya_code": "06",
    "lat": 36.7551096,
    "lng": 5.0836546,
    "source": "OpenStreetMap",
    "osm_id": 338116028,
    "id": 303
  },
  {
    "name": "Fort Lemercier",
    "name_ar": "حصن يما قورايا",
    "name_fr": "Fort Lemercier",
    "type": "castle",
    "wikipedia": "ar:حصن يما قورايا",
    "wikidata": "Q17354602",
    "wilaya_code": "06",
    "lat": 36.7663501,
    "lng": 5.0682968,
    "source": "OpenStreetMap",
    "osm_id": 5089539019,
    "id": 304
  },
  {
    "name": "La comtesse",
    "type": "castle",
    "wilaya_code": "06",
    "lat": 36.6449015,
    "lng": 5.2091517,
    "source": "OpenStreetMap",
    "osm_id": 4578229792,
    "id": 305
  },
  {
    "name": "Yemma Gouraya",
    "name_ar": "يما قورايا",
    "name_fr": "Yemma Gouraya",
    "type": "castle",
    "wikipedia": "fr:Yemma Gouraya",
    "wikidata": "Q3572154",
    "wilaya_code": "06",
    "lat": 36.7707745,
    "lng": 5.0812886,
    "source": "OpenStreetMap",
    "osm_id": 309222600,
    "id": 306
  },
  {
    "name": "Ramzi",
    "name_fr": "Ramzi",
    "type": "castle",
    "wilaya_code": "07",
    "lat": 34.6911358,
    "lng": 6.5061664,
    "source": "OpenStreetMap",
    "osm_id": 7134194885,
    "id": 307
  },
  {
    "name": "بوووزال",
    "name_ar": "بوووزال",
    "type": "castle",
    "wilaya_code": "07",
    "lat": 35.0291707,
    "lng": 6.0069169,
    "source": "OpenStreetMap",
    "osm_id": 5020349624,
    "id": 308
  },
  {
    "name": "فدعنان",
    "name_ar": "فدعنان",
    "type": "castle",
    "wilaya_code": "07",
    "lat": 35.0222299,
    "lng": 6.0150922,
    "source": "OpenStreetMap",
    "osm_id": 5020349625,
    "id": 309
  },
  {
    "name": "هاقرنين",
    "name_ar": "هاقرنين",
    "type": "castle",
    "wilaya_code": "07",
    "lat": 35.0410566,
    "lng": 5.9803866,
    "source": "OpenStreetMap",
    "osm_id": 5331940625,
    "id": 310
  },
  {
    "name": "هاقليحث",
    "name_ar": "هاقليحث",
    "type": "castle",
    "wilaya_code": "07",
    "lat": 35.0186459,
    "lng": 6.0427734,
    "source": "OpenStreetMap",
    "osm_id": 4697184797,
    "id": 311
  },
  {
    "name": "Bordj Flye Sainte Marie",
    "type": "castle",
    "wikipedia": "fr:Bordj Flye Sainte Marie",
    "wikidata": "Q2910763",
    "wilaya_code": "08",
    "lat": 27.319878,
    "lng": -2.9839002,
    "source": "OpenStreetMap",
    "osm_id": 504811761,
    "id": 312
  },
  {
    "name": "Bordj Arak",
    "type": "castle",
    "wilaya_code": "11",
    "lat": 25.2926518,
    "lng": 3.7481752,
    "source": "OpenStreetMap",
    "osm_id": 562083262,
    "id": 313
  },
  {
    "name": "مكان",
    "type": "castle",
    "wilaya_code": "11",
    "lat": 22.9793908,
    "lng": 6.0106289,
    "source": "OpenStreetMap",
    "osm_id": 8825725719,
    "id": 314
  },
  {
    "name": "النجم الثاقب تبسة",
    "name_ar": "النجم الثاقب تبسة",
    "name_fr": "L'étoile filante Tebessa",
    "type": "castle",
    "wilaya_code": "12",
    "lat": 35.4033789,
    "lng": 8.1217254,
    "source": "OpenStreetMap",
    "osm_id": 4582086790,
    "id": 315
  },
  {
    "name": "النسر الذهبي",
    "name_ar": "النسر الذهبي",
    "name_fr": "L'Aigle d'Or",
    "type": "castle",
    "wilaya_code": "12",
    "lat": 35.4012833,
    "lng": 8.1173771,
    "source": "OpenStreetMap",
    "osm_id": 4274571091,
    "id": 316
  },
  {
    "name": "باب كاركلا تبسة",
    "name_ar": "باب كاركلا تبسة",
    "name_fr": "Porte CARACALLA Tebessa",
    "type": "castle",
    "wikipedia": "ar:قوس كاراكالا (تبسة)",
    "wikidata": "Q3621773",
    "wilaya_code": "12",
    "lat": 35.4046685,
    "lng": 8.1230636,
    "source": "OpenStreetMap",
    "osm_id": 2682856138,
    "id": 317
  },
  {
    "name": "Belkessakis",
    "name_fr": "Belkessakis",
    "type": "castle",
    "wilaya_code": "13",
    "lat": 35.0455863,
    "lng": -1.3808166,
    "source": "OpenStreetMap",
    "osm_id": 5787745157,
    "id": 318
  },
  {
    "name": "Medersa KHALDOUNIA -المدرسة الخلدونية -ⵎⴷⴰⵔⵙⴰ ⵜⴰⵅⴰⵍⴷⵓⵏⵉⵜ",
    "name_fr": "Medersa Khaldounia",
    "type": "castle",
    "wilaya_code": "13",
    "lat": 34.8776621,
    "lng": -1.289783,
    "source": "OpenStreetMap",
    "osm_id": 518138599,
    "id": 319
  },
  {
    "name": "Palais Royale Zianide - القصر الملكي الزياني -ⵜⴰⴳⴰⴷⵉⵔⵜ ⵜⴰⴳⴻⵍⴷⴰⵏⵜ ⵜⴰⵣⵢⵢⴰⵏⵉⵜ",
    "name_ar": "القصر الملكي الزياني",
    "name_fr": "Palais Royale Zianide",
    "type": "castle",
    "wilaya_code": "13",
    "lat": 34.8816047,
    "lng": -1.3090274,
    "source": "OpenStreetMap",
    "osm_id": 14571675,
    "id": 320
  },
  {
    "name": "Palais du Sultan قصر السلطان ⵜⴰⴳⴰⴷⵉⵔⵜ ⵏ ⵙⵓⵍⵟⴰⵏ",
    "name_ar": "قصر السلطان",
    "name_fr": "Palais du Sultan",
    "type": "castle",
    "wilaya_code": "13",
    "lat": 34.8781505,
    "lng": -1.2897724,
    "source": "OpenStreetMap",
    "osm_id": 518138602,
    "id": 321
  },
  {
    "name": "Palais el-Mechouar",
    "name_ar": "قصر المشور",
    "name_fr": "Palais el-Mechouar",
    "type": "castle",
    "wikipedia": "fr:Palais El Mechouar",
    "wikidata": "Q3360854",
    "wilaya_code": "13",
    "lat": 34.8809396,
    "lng": -1.3088585,
    "source": "OpenStreetMap",
    "osm_id": 100273033,
    "id": 322
  },
  {
    "name": "حصن هنين",
    "name_ar": "حصن هنين",
    "name_fr": "Forteresse de Honaïne",
    "type": "castle",
    "wilaya_code": "13",
    "lat": 35.1743139,
    "lng": -1.6562682,
    "source": "OpenStreetMap",
    "osm_id": 920587913,
    "id": 323
  },
  {
    "name": "Base",
    "name_ar": "قاعة",
    "type": "castle",
    "wilaya_code": "15",
    "lat": 36.5533927,
    "lng": 4.2807392,
    "source": "OpenStreetMap",
    "osm_id": 5042422021,
    "id": 324
  },
  {
    "name": "Bordj Turc",
    "name_ar": "البرج التركي",
    "name_fr": "Bordj Turc",
    "type": "castle",
    "wilaya_code": "15",
    "lat": 36.7090062,
    "lng": 4.0473276,
    "source": "OpenStreetMap",
    "osm_id": 370226262,
    "id": 325
  },
  {
    "name": "Mécanicien makouda",
    "type": "castle",
    "wilaya_code": "15",
    "lat": 36.781897,
    "lng": 4.069894,
    "source": "OpenStreetMap",
    "osm_id": 6578143185,
    "id": 326
  },
  {
    "name": "château d'eau",
    "type": "castle",
    "wilaya_code": "15",
    "lat": 36.6568593,
    "lng": 4.3929687,
    "source": "OpenStreetMap",
    "osm_id": 632279595,
    "id": 327
  },
  {
    "name": "Al Hambra Palace",
    "type": "castle",
    "wilaya_code": "16",
    "lat": 36.7849147,
    "lng": 3.059471,
    "source": "OpenStreetMap",
    "osm_id": 11925037601,
    "id": 328
  },
  {
    "name": "Bordj Moulay Hassen برج مولاي حسن",
    "name_ar": "برج مولاي حسن",
    "name_fr": "Fort de Moulay Hassen",
    "type": "castle",
    "wikipedia": "fr:Fort l'Empereur",
    "wikidata": "Q3078279",
    "wilaya_code": "16",
    "lat": 36.7736868,
    "lng": 3.045979,
    "source": "OpenStreetMap",
    "osm_id": 17972296,
    "id": 329
  },
  {
    "name": "Chateau",
    "type": "castle",
    "wilaya_code": "16",
    "lat": 36.7476751,
    "lng": 3.0440189,
    "source": "OpenStreetMap",
    "osm_id": 5134771322,
    "id": 330
  },
  {
    "name": "Château de Draria",
    "type": "castle",
    "wilaya_code": "16",
    "lat": 36.7301201,
    "lng": 2.9962332,
    "source": "OpenStreetMap",
    "osm_id": 3317692,
    "id": 331
  },
  {
    "name": "Dar Ahmed Pacha",
    "name_ar": "دار أحمد باشا",
    "type": "castle",
    "wilaya_code": "16",
    "lat": 36.7858984,
    "lng": 3.0614463,
    "source": "OpenStreetMap",
    "osm_id": 1267569904,
    "id": 332
  },
  {
    "name": "Ex-Palais du Oukil El Hardj القصر السابق لوكيل الحرج",
    "name_ar": "القصر السابق لوكيل الحرج",
    "name_fr": "Ex-Palais du Oukil El Hardj",
    "type": "castle",
    "wilaya_code": "16",
    "lat": 36.7866966,
    "lng": 3.0679921,
    "source": "OpenStreetMap",
    "osm_id": 431479271,
    "id": 333
  },
  {
    "name": "Le Vieux Palais",
    "type": "castle",
    "wilaya_code": "16",
    "lat": 36.7861525,
    "lng": 3.061475,
    "source": "OpenStreetMap",
    "osm_id": 17680960,
    "id": 334
  },
  {
    "name": "Musée National du Bardo",
    "name_ar": "المتحف الوطني باردو",
    "name_fr": "Musée Public National du Bardo",
    "type": "castle",
    "wikipedia": "fr:Musée national du Bardo (Algérie)",
    "wikidata": "Q3330730",
    "wilaya_code": "16",
    "lat": 36.7603824,
    "lng": 3.0463803,
    "source": "OpenStreetMap",
    "osm_id": 18668624,
    "id": 335
  },
  {
    "name": "Palais Mustapha Pacha قصر مصطفى باشا",
    "name_ar": "قصر مصطفى باشا",
    "name_fr": "Palais Mustapha Pacha",
    "type": "castle",
    "wilaya_code": "16",
    "lat": 36.7570903,
    "lng": 3.0482966,
    "source": "OpenStreetMap",
    "osm_id": 537418651,
    "id": 336
  },
  {
    "name": "Palais du Peuple",
    "type": "castle",
    "wilaya_code": "16",
    "lat": 36.7589351,
    "lng": 3.0461118,
    "source": "OpenStreetMap",
    "osm_id": 273506719,
    "id": 337
  },
  {
    "name": "Sidi Fredj",
    "type": "castle",
    "wilaya_code": "16",
    "lat": 36.764235,
    "lng": 2.846914,
    "source": "OpenStreetMap",
    "osm_id": 268696772,
    "id": 338
  },
  {
    "name": "Villa Abdelatif",
    "name_ar": "دار عبد اللطيف",
    "name_fr": "Villa Abdelatif",
    "type": "castle",
    "wikipedia": "fr:Villa Abd-el-Tif",
    "wikidata": "Q3558439",
    "wilaya_code": "16",
    "lat": 36.7447485,
    "lng": 3.0731079,
    "source": "OpenStreetMap",
    "osm_id": 273321488,
    "id": 339
  },
  {
    "name": "دار الحمراء",
    "type": "castle",
    "wilaya_code": "16",
    "lat": 36.7874546,
    "lng": 3.062233,
    "source": "OpenStreetMap",
    "osm_id": 11925189575,
    "id": 340
  },
  {
    "name": "دار حسن باشا",
    "name_ar": "دار حسن باشا",
    "name_fr": "Dar Hassan Pacha",
    "type": "castle",
    "wilaya_code": "16",
    "lat": 36.7852564,
    "lng": 3.0609196,
    "source": "OpenStreetMap",
    "osm_id": 20325219,
    "id": 341
  },
  {
    "name": "قصر الداي",
    "name_ar": "قصر الداي",
    "name_fr": "Palais du Dey",
    "type": "castle",
    "wikipedia": "ar:قصر الداي",
    "wikidata": "Q12232990",
    "wilaya_code": "16",
    "lat": 36.7845463,
    "lng": 3.055111,
    "source": "OpenStreetMap",
    "osm_id": 11931096136,
    "id": 342
  },
  {
    "name": "قصر رياس البحر",
    "name_ar": "قصر رياس البحر",
    "name_fr": "Palais Côtier du Raïs",
    "type": "castle",
    "wikipedia": "fr:Palais des Raïs",
    "wikidata": "Q3361082",
    "wilaya_code": "16",
    "lat": 36.7882833,
    "lng": 3.0639774,
    "source": "OpenStreetMap",
    "osm_id": 6724867,
    "id": 343
  },
  {
    "name": "Fort Duquesne",
    "type": "castle",
    "wilaya_code": "18",
    "lat": 36.8192168,
    "lng": 5.7727747,
    "source": "OpenStreetMap",
    "osm_id": 437738331,
    "id": 344
  },
  {
    "name": "منزل لورغي",
    "name_ar": "منزل لورغي",
    "name_fr": "Maison Lourghi",
    "type": "castle",
    "wilaya_code": "18",
    "lat": 36.8332334,
    "lng": 5.9860307,
    "source": "OpenStreetMap",
    "osm_id": 5214720121,
    "id": 345
  },
  {
    "name": "el yasmine",
    "type": "castle",
    "wilaya_code": "19",
    "lat": 36.1482686,
    "lng": 5.453056,
    "source": "OpenStreetMap",
    "osm_id": 4370204864,
    "id": 346
  },
  {
    "name": "Djeladjel Hamid",
    "name_fr": "Djeladjel Hamid",
    "type": "castle",
    "wilaya_code": "20",
    "lat": 34.8353833,
    "lng": 0.1523435,
    "source": "OpenStreetMap",
    "osm_id": 4517689090,
    "id": 347
  },
  {
    "name": "BELGAHRI.Sebti",
    "name_fr": "BELGAHRI.Sebti",
    "type": "castle",
    "wilaya_code": "21",
    "lat": 36.5989653,
    "lng": 6.8993685,
    "source": "OpenStreetMap",
    "osm_id": 4463085589,
    "id": 348
  },
  {
    "name": "Dar",
    "name_fr": "Dar",
    "type": "castle",
    "wilaya_code": "21",
    "lat": 36.6287515,
    "lng": 6.6330909,
    "source": "OpenStreetMap",
    "osm_id": 4872871021,
    "id": 349
  },
  {
    "name": "Palais Meriem (Chateau Bengana)",
    "type": "castle",
    "wilaya_code": "21",
    "lat": 36.8865648,
    "lng": 6.8971381,
    "source": "OpenStreetMap",
    "osm_id": 352694110,
    "id": 350
  },
  {
    "name": "Chateau Perrin",
    "type": "castle",
    "wilaya_code": "22",
    "lat": 35.1896666,
    "lng": -0.6788162,
    "source": "OpenStreetMap",
    "osm_id": 219390764,
    "id": 351
  },
  {
    "name": "Dar",
    "name_fr": "Dar",
    "type": "castle",
    "wilaya_code": "25",
    "lat": 36.3136454,
    "lng": 6.6162393,
    "source": "OpenStreetMap",
    "osm_id": 7258949585,
    "id": 352
  },
  {
    "name": "Palais du Bey",
    "name_ar": "قصر الباي",
    "name_fr": "Palais du Bey",
    "type": "castle",
    "wilaya_code": "25",
    "lat": 36.3678005,
    "lng": 6.6115537,
    "source": "OpenStreetMap",
    "osm_id": 312325317,
    "id": 353
  },
  {
    "name": "Cité zagheloul f",
    "type": "castle",
    "wilaya_code": "27",
    "lat": 35.9197968,
    "lng": 0.0906989,
    "source": "OpenStreetMap",
    "osm_id": 6950569986,
    "id": 354
  },
  {
    "name": "Fort Turc",
    "name_ar": "برج الترك",
    "type": "castle",
    "wilaya_code": "27",
    "lat": 35.9342815,
    "lng": 0.0964291,
    "source": "OpenStreetMap",
    "osm_id": 502644165,
    "id": 355
  },
  {
    "name": "خربات",
    "name_ar": "خربات",
    "type": "castle",
    "wilaya_code": "27",
    "lat": 36.3308681,
    "lng": 0.6920339,
    "source": "OpenStreetMap",
    "osm_id": 5427651521,
    "id": 356
  },
  {
    "name": "مؤسسة جنة العارف",
    "name_ar": "مؤسسة جنة العارف",
    "name_fr": "Fondation Djanet el Arif",
    "type": "castle",
    "wilaya_code": "27",
    "lat": 35.9153242,
    "lng": 0.1121484,
    "source": "OpenStreetMap",
    "osm_id": 7119229990,
    "id": 357
  },
  {
    "name": "منارة رأس ويليس",
    "name_ar": "منارة رأس ويليس",
    "name_fr": "Minaret raas wilis",
    "type": "castle",
    "wilaya_code": "27",
    "lat": 36.1127893,
    "lng": 0.2268674,
    "source": "OpenStreetMap",
    "osm_id": 4475736293,
    "id": 358
  },
  {
    "name": "Kalaat Beni Hamad",
    "name_ar": "قلعة بني حماد",
    "type": "castle",
    "heritage": "1",
    "wikipedia": "fr:Kalâa des Béni Hammad",
    "wikidata": "Q500367",
    "wilaya_code": "28",
    "lat": 35.821211,
    "lng": 4.7894058,
    "source": "OpenStreetMap",
    "osm_id": 381561430,
    "id": 359
  },
  {
    "name": "قصر البحيرة",
    "name_ar": "قصر البحيرة",
    "type": "castle",
    "wilaya_code": "28",
    "lat": 35.8227582,
    "lng": 4.7903358,
    "source": "OpenStreetMap",
    "osm_id": 379893552,
    "id": 360
  },
  {
    "name": "Bordj Chandez",
    "type": "castle",
    "wilaya_code": "30",
    "lat": 31.9569143,
    "lng": 5.3274599,
    "source": "OpenStreetMap",
    "osm_id": 12934420,
    "id": 361
  },
  {
    "name": "Fort Lallemand",
    "type": "castle",
    "wilaya_code": "30",
    "lat": 31.2918545,
    "lng": 6.3255279,
    "source": "OpenStreetMap",
    "osm_id": 7292598,
    "id": 362
  },
  {
    "name": "الدار الكبيرة",
    "name_ar": "الدار الكبيرة",
    "name_fr": "La Grande maison",
    "type": "castle",
    "wilaya_code": "30",
    "lat": 31.9360466,
    "lng": 5.3264218,
    "source": "OpenStreetMap",
    "osm_id": 6407323785,
    "id": 363
  },
  {
    "name": "Batterie du Santon",
    "type": "castle",
    "wilaya_code": "31",
    "lat": 35.7339019,
    "lng": -0.7133996,
    "source": "OpenStreetMap",
    "osm_id": 2281948464,
    "id": 364
  },
  {
    "name": "Fort Lamoune",
    "name_fr": "Fort Lamoune",
    "type": "castle",
    "wilaya_code": "31",
    "lat": 35.7135806,
    "lng": -0.6567056,
    "source": "OpenStreetMap",
    "osm_id": 2281944455,
    "id": 365
  },
  {
    "name": "Fort Lamoune",
    "name_fr": "Fort Lamoune",
    "type": "castle",
    "wilaya_code": "31",
    "lat": 35.710561,
    "lng": -0.6600183,
    "source": "OpenStreetMap",
    "osm_id": 6443228509,
    "id": 366
  },
  {
    "name": "Fort Saint André",
    "type": "castle",
    "wilaya_code": "31",
    "lat": 35.6983069,
    "lng": -0.6528448,
    "source": "OpenStreetMap",
    "osm_id": 375391065,
    "id": 367
  },
  {
    "name": "Fort Santa Cruz",
    "type": "castle",
    "wikipedia": "fr:Fort de Santa-Cruz (Oran)",
    "wikidata": "Q524667",
    "wilaya_code": "31",
    "lat": 35.7092243,
    "lng": -0.6650461,
    "source": "OpenStreetMap",
    "osm_id": 12433045874,
    "id": 368
  },
  {
    "name": "Fort Santiago",
    "type": "castle",
    "wilaya_code": "31",
    "lat": 35.7054619,
    "lng": -0.6601113,
    "source": "OpenStreetMap",
    "osm_id": 12433004674,
    "id": 369
  },
  {
    "name": "Fort Santon",
    "type": "castle",
    "wilaya_code": "31",
    "lat": 35.7347208,
    "lng": -0.7119058,
    "source": "OpenStreetMap",
    "osm_id": 303777154,
    "id": 370
  },
  {
    "name": "Fort lamoune",
    "type": "castle",
    "wilaya_code": "31",
    "lat": 35.7136209,
    "lng": -0.6565389,
    "source": "OpenStreetMap",
    "osm_id": 687380273,
    "id": 371
  },
  {
    "name": "Palais du Bey",
    "name_ar": "قصر الباي",
    "name_fr": "Palais du Bey",
    "type": "castle",
    "heritage": "2",
    "wikipedia": "fr:Palais du Bey (Oran)",
    "wikidata": "Q12232976",
    "wilaya_code": "31",
    "lat": 35.7057262,
    "lng": -0.6493408,
    "source": "OpenStreetMap",
    "osm_id": 368993774,
    "id": 372
  },
  {
    "name": "Salle des fêtes",
    "name_fr": "Salle des fêtes",
    "type": "castle",
    "wilaya_code": "31",
    "lat": 35.6986023,
    "lng": -0.6183262,
    "source": "OpenStreetMap",
    "osm_id": 5666324922,
    "id": 373
  },
  {
    "name": "Villa Abed Tlamsani",
    "name_fr": "Villa Abed Tlamsani",
    "type": "castle",
    "wilaya_code": "31",
    "lat": 35.6262178,
    "lng": -0.518231,
    "source": "OpenStreetMap",
    "osm_id": 4471986489,
    "id": 374
  },
  {
    "name": "porte canastel",
    "type": "castle",
    "wilaya_code": "31",
    "lat": 35.7051765,
    "lng": -0.6525222,
    "source": "OpenStreetMap",
    "osm_id": 6442577464,
    "id": 375
  },
  {
    "name": "قلعة المرسى الكبير",
    "name_fr": "Fort de Mers el-Kébir",
    "type": "castle",
    "wilaya_code": "31",
    "lat": 35.7375872,
    "lng": -0.6993826,
    "source": "OpenStreetMap",
    "osm_id": 9248254171,
    "id": 376
  },
  {
    "name": "تلي أحمد",
    "name_ar": "تلي أحمد",
    "type": "castle",
    "wilaya_code": "32",
    "lat": 33.0886228,
    "lng": 0.9715208,
    "source": "OpenStreetMap",
    "osm_id": 10564950810,
    "id": 377
  },
  {
    "name": "جلاجل احمد",
    "name_ar": "جلاجل احمد",
    "type": "castle",
    "wilaya_code": "32",
    "lat": 33.6776514,
    "lng": 1.0158747,
    "source": "OpenStreetMap",
    "osm_id": 10564950210,
    "id": 378
  },
  {
    "name": "Fort Flatters",
    "type": "castle",
    "wilaya_code": "33",
    "lat": 28.1041748,
    "lng": 6.8116218,
    "source": "OpenStreetMap",
    "osm_id": 18273000,
    "id": 379
  },
  {
    "name": "Fort d'Issendjel",
    "type": "castle",
    "wikidata": "Q106097307",
    "wilaya_code": "33",
    "lat": 26.8614645,
    "lng": 8.7245902,
    "source": "OpenStreetMap",
    "osm_id": 4947235132,
    "id": 380
  },
  {
    "name": "قلعة سليمان شايدي",
    "name_ar": "قلعة سليمان شايدي",
    "type": "castle",
    "wilaya_code": "34",
    "lat": 35.9433909,
    "lng": 5.0395927,
    "source": "OpenStreetMap",
    "osm_id": 5875416285,
    "id": 381
  },
  {
    "name": "château fort",
    "name_ar": "شطوفور",
    "name_fr": "château fort",
    "type": "castle",
    "wilaya_code": "35",
    "lat": 36.920216,
    "lng": 3.9009205,
    "source": "OpenStreetMap",
    "osm_id": 5106056423,
    "id": 382
  },
  {
    "name": "Fort d'El Kala;قلعة القالة",
    "name_ar": "قلعة القالة",
    "name_fr": "Fort d'El Kala",
    "type": "castle",
    "wilaya_code": "36",
    "lat": 36.8942873,
    "lng": 8.4436487,
    "source": "OpenStreetMap",
    "osm_id": 460216566,
    "id": 383
  },
  {
    "name": "توفة",
    "name_ar": "توفة",
    "name_fr": "Toufa",
    "type": "castle",
    "wilaya_code": "36",
    "lat": 36.7922572,
    "lng": 8.1521677,
    "source": "OpenStreetMap",
    "osm_id": 5194540723,
    "id": 384
  },
  {
    "name": "قاعدة الشهيد هداد",
    "type": "castle",
    "wilaya_code": "37",
    "lat": 27.1752791,
    "lng": -8.0251845,
    "source": "OpenStreetMap",
    "osm_id": 10136173319,
    "id": 385
  },
  {
    "name": "Khatraoui",
    "name_fr": "Khatraoui",
    "type": "castle",
    "wilaya_code": "39",
    "lat": 33.4801359,
    "lng": 6.9080181,
    "source": "OpenStreetMap",
    "osm_id": 4758637321,
    "id": 386
  },
  {
    "name": "طالب العربي",
    "name_ar": "طالب العربي",
    "name_fr": "Taleb Larbi",
    "type": "castle",
    "wilaya_code": "39",
    "lat": 33.728056,
    "lng": 7.5112722,
    "source": "OpenStreetMap",
    "osm_id": 5295782121,
    "id": 387
  },
  {
    "name": "مقبرة جبانه 1",
    "name_ar": "مقبرة جبانه 1",
    "name_fr": "Ancien cimetière el Jadida",
    "type": "castle",
    "wilaya_code": "39",
    "lat": 33.5606591,
    "lng": 6.9508129,
    "source": "OpenStreetMap",
    "osm_id": 5230863522,
    "id": 388
  },
  {
    "name": "مقبره جبانه 2",
    "name_ar": "مقبره جبانه 2",
    "name_fr": "Nouveau cimetière el Jadida",
    "type": "castle",
    "wilaya_code": "39",
    "lat": 33.5606388,
    "lng": 6.9510224,
    "source": "OpenStreetMap",
    "osm_id": 5230863523,
    "id": 389
  },
  {
    "name": "منزل النوار شبيلي",
    "name_ar": "شبيلي النوار",
    "name_fr": "Chebili Nouar",
    "type": "castle",
    "wilaya_code": "41",
    "lat": 35.916256,
    "lng": 7.3736124,
    "source": "OpenStreetMap",
    "osm_id": 7105854686,
    "id": 390
  },
  {
    "name": "EPW-EREPEV",
    "name_fr": "EPW-EREPEV",
    "type": "castle",
    "wilaya_code": "42",
    "lat": 36.5911702,
    "lng": 2.4484866,
    "source": "OpenStreetMap",
    "osm_id": 5359519922,
    "id": 391
  },
  {
    "name": "El basatine البساتين",
    "name_ar": "El basatine البساتين",
    "name_fr": "Bassatine",
    "type": "castle",
    "wilaya_code": "42",
    "lat": 36.6382133,
    "lng": 2.7728083,
    "source": "OpenStreetMap",
    "osm_id": 3446626351,
    "id": 392
  },
  {
    "name": "Les RAYA",
    "name_fr": "Les RAYA",
    "type": "castle",
    "wilaya_code": "42",
    "lat": 36.6737366,
    "lng": 2.7724523,
    "source": "OpenStreetMap",
    "osm_id": 11411745369,
    "id": 393
  },