[
  {
    "id": 1,
    "name": "FORAGE DAR OUAD",
    "type": "forage",
    "temperature_c": 32,
    "debit_l_s": 15,
    "altitude_m": 423,
    "minerality": "BICARBONATEE CALCIQUE",
    "wilaya_code": "43",
    "wilaya_name": "CONSTANTINE",
    "commune_name": "BENI H'MIDENE",
    "lat": 36.4625,
    "lng": 6.4827778,
    "source": "ASAL geoportail"
  },
  {
    "id": 2,
    "name": "HAMMAM BOUHACHANA BEN TAHER",
    "type": "hammam",
    "temperature_c": 25,
    "debit_l_s": 3,
    "altitude_m": 741.5,
    "minerality": "BICARBONATEE CALCIQUE",
    "wilaya_code": "24",
    "wilaya_name": "GUELMA",
    "commune_name": "BOUHACHANA",
    "lat": 36.3088889,
    "lng": 7.5236111,
    "source": "ASAL geoportail"
  },
  {
    "id": 3,
    "name": "HAMMAM BOUHACHANA ASSASLA",
    "type": "hammam",
    "temperature_c": 35.4,
    "debit_l_s": 6,
    "altitude_m": 460.5,
    "minerality": "BICARBONATEE CALCIQUE",
    "wilaya_code": "24",
    "wilaya_name": "GUELMA",
    "commune_name": "BOUHACHANA",
    "lat": 36.3325,
    "lng": 7.5380556,
    "source": "ASAL geoportail"
  },
  {
    "id": 4,
    "name": "EL KROUMA",
    "type": "source",
    "temperature_c": 22,
    "debit_l_s": 0,
    "altitude_m": 290,
    "minerality": "BICARBONATEE CALCIQUE",
    "wilaya_code": "41",
    "wilaya_name": "SOUK AHRAS",
    "commune_name": "SIDI FRADJ",
    "lat": 36.12155,
    "lng": 8.2324667,
    "source": "ASAL geoportail"
  },
  {
    "id": 5,
    "name": "KHENGUET EL HAMAM",
    "type": "source",
    "temperature_c": 25,
    "debit_l_s": 6,
    "altitude_m": 674,
    "minerality": "BICARBONATEE CALCIQUE",
    "wilaya_code": "41",
    "wilaya_name": "SOUK AHRAS",
    "commune_name": "ZAAROURIA",
    "lat": 36.1960667,
    "lng": 7.9054667,
    "source": "ASAL geoportail"
  },
  {
    "id": 6,
    "name": "HAMMAM ZAID",
    "type": "hammam",
    "temperature_c": 39.2,
    "debit_l_s": 6,
    "altitude_m": 837,
    "minerality": "BICARBONATEE CALCIQUE",
    "wilaya_code": "41",
    "wilaya_name": "SOUK AHRAS",
    "commune_name": "OULED DRISS",
    "lat": 36.3594444,
    "lng": 8.012778,
    "source": "ASAL geoportail"
  },
  {
    "id": 7,
    "name": "HAMMAM (2014)",
    "type": "hammam",
    "temperature_c": 35,
    "debit_l_s": 2,
    "altitude_m": 880,
    "minerality": "BICARBONATEE CALCIQUE",
    "wilaya_code": "12",
    "wilaya_name": "TEBESSA",
    "commune_name": "HAMMAMAT",
    "lat": 35.4547222,
    "lng": 7.9575,
    "source": "ASAL geoportail"
  },
  {
    "id": 8,
    "name": "AIN SID MHAMED",
    "type": "ain",
    "temperature_c": 19,
    "debit_l_s": 0.2,
    "altitude_m": 388,
    "minerality": "BICARBONATEE CALCIQUE",
    "wilaya_code": "02",
    "wilaya_name": "CHLEF",
    "commune_name": "LABIODH MADJADJA",
    "lat": 36.250316,
    "lng": 1.34873,
    "source": "ASAL geoportail"
  },
  {
    "id": 9,
    "name": "MEHISSER",
    "type": "source",
    "temperature_c": 20,
    "debit_l_s": 0.14,
    "altitude_m": 323,
    "minerality": "BICARBONATEE CALCIQUE",
    "wilaya_code": "02",
    "wilaya_name": "CHLEF",
    "commune_name": "SOBHA",
    "lat": 36.145023,
    "lng": 1.034234,
    "source": "ASAL geoportail"
  },
  {
    "id": 10,
    "name": "SIDI SAID",
    "type": "source",
    "temperature_c": 24,
    "debit_l_s": 0.13,
    "altitude_m": 235,
    "minerality": "BICARBONATEE CALCIQUE",
    "wilaya_code": "02",
    "wilaya_name": "CHLEF",
    "commune_name": "BOUKADIR",
    "lat": 36.016467,
    "lng": 1.196496,
    "source": "ASAL geoportail"
  },
  {
    "id": 11,
    "name": "AIN KADHI",
    "type": "ain",
    "temperature_c": 22,
    "debit_l_s": 0.12,
    "altitude_m": 522,
    "minerality": "BICARBONATEE CALCIQUE",
    "wilaya_code": "02",
    "wilaya_name": "CHLEF",
    "commune_name": "LABIODH MEDJADJA",
    "lat": 36.265099,
    "lng": 1.355854,
    "source": "ASAL geoportail"
  },
  {
    "id": 12,
    "name": "AIN BOUZIANE",
    "type": "ain",
    "temperature_c": 20,
    "debit_l_s": 0.1,
    "altitude_m": 405,
    "minerality": "BICARBONATEE CALCIQUE",
    "wilaya_code": "02",
    "wilaya_name": "CHLEF",
    "commune_name": "LABIODH MEDJADJA",
    "lat": 36.250356,
    "lng": 1.3516,
    "source": "ASAL geoportail"
  },
  {
    "id": 13,
    "name": "HAMMAM AISS EL KAMEL",
    "type": "hammam",
    "temperature_c": 22,
    "debit_l_s": 3,
    "altitude_m": 750,
    "minerality": "BICARBONATEE CALCIQUE",
    "wilaya_code": "44",
    "wilaya_name": "AIN DEFLA",
    "commune_name": "AIN LECHIEKH",
    "lat": 36.076559,
    "lng": 2.43146,
    "source": "ASAL geoportail"
  },
  {
    "id": 14,
    "name": "HAMMAM GHRIB",
    "type": "hammam",
    "temperature_c": 22,
    "debit_l_s": 2,
    "altitude_m": 414,
    "minerality": "BICARBONATEE CALCIQUE",
    "wilaya_code": "44",
    "wilaya_name": "AIN DEFLA",
    "commune_name": "BIRBOUCHE",
    "lat": 36.167702,
    "lng": 2.465039,
    "source": "ASAL geoportail"
  },
  {
    "id": 15,
    "name": "AIN KERMA",
    "type": "ain",
    "temperature_c": 20,
    "debit_l_s": 1,
    "altitude_m": 747,
    "minerality": "BICARBONATEE CALCIQUE",
    "wilaya_code": "44",
    "wilaya_name": "AIN DEFLA",
    "commune_name": "AIN LECHIEKH",
    "lat": 36.075241,
    "lng": 2.445344,
    "source": "ASAL geoportail"
  },
  {
    "id": 16,
    "name": "ZEGHAGHA LAGHROUS",
    "type": "source",
    "temperature_c": 21,
    "debit_l_s": 0.12,
    "altitude_m": 754,
    "minerality": "BICARBONATEE CALCIQUE",
    "wilaya_code": "02",
    "wilaya_name": "AIN DEFLA",
    "commune_name": "TACHTA ZOUGAGHA",
    "lat": 36.366652,
    "lng": 1.629972,
    "source": "ASAL geoportail"
  },
  {
    "id": 17,
    "name": "EL MEHADJEBIA BEN HAROUN",
    "type": "source",
    "temperature_c": 2,
    "debit_l_s": 20.5,
    "altitude_m": 394,
    "minerality": "BICARBONATEE CALCIQUE",
    "wilaya_code": "10",
    "wilaya_name": "BOUIRA",
    "commune_name": "DJEBAHIA",
    "lat": 36.598611,
    "lng": 3.590417,
    "source": "ASAL geoportail"
  },
  {
    "id": 18,
    "name": "HAMMAM EL ANNASSER",
    "type": "hammam",
    "temperature_c": 21,
    "debit_l_s": 7,
    "altitude_m": 802,
    "minerality": "BICARBONATEE CALCIQUE",
    "wilaya_code": "67",
    "wilaya_name": "MEDEA",
    "commune_name": "SIDI DAMED",
    "lat": 35.857038,
    "lng": 3.349361,
    "source": "ASAL geoportail"
  },
  {
    "id": 19,
    "name": "HAMMAM MOULAY AHMED",
    "type": "hammam",
    "temperature_c": 19.5,
    "debit_l_s": 3,
    "altitude_m": 688,
    "minerality": "BICARBONATEE CALCIQUE",
    "wilaya_code": "26",
    "wilaya_name": "MEDEA",
    "commune_name": "AISSAOUIA",
    "lat": 36.416055,
    "lng": 3.192916,
    "source": "ASAL geoportail"
  },
  {
    "id": 20,
    "name": "GROUG EL MIM",
    "type": "source",
    "temperature_c": 20,
    "debit_l_s": 1,
    "altitude_m": 612,
    "minerality": "BICARBONATEE CALCIQUE",
    "wilaya_code": "26",
    "wilaya_name": "MEDEA",
    "commune_name": "AISSAOUIA",
    "lat": 36.368753,
    "lng": 3.237067,
    "source": "ASAL geoportail"
  },
  {
    "id": 21,
    "name": "HAMMAM AIN EL GUESSISS",
    "type": "hammam",
    "temperature_c": 20,
    "debit_l_s": 1,
    "altitude_m": 744,
    "minerality": "BICARBONATEE CALCIQUE",
    "wilaya_code": "26",
    "wilaya_name": "MEDEA",
    "commune_name": "AISSAOUIA",
    "lat": 36.418562,
    "lng": 3.213154,
    "source": "ASAL geoportail"
  },
  {
    "id": 22,
    "name": "HAMMAM CHEBEIKA",
    "type": "hammam",
    "temperature_c": 19,
    "debit_l_s": 0.5,
    "altitude_m": 861,
    "minerality": "BICARBONATEE CALCIQUE",
    "wilaya_code": "26",
    "wilaya_name": "MEDEA",
    "commune_name": "SOUAGUI",
    "lat": 36.069064,
    "lng": 3.221893,
    "source": "ASAL geoportail"
  },
  {
    "id": 23,
    "name": "AIN HAMEDH",
    "type": "ain",
    "temperature_c": 23,
    "debit_l_s": 0.4,
    "altitude_m": 725,
    "minerality": "BICARBONATEE CALCIQUE",
    "wilaya_code": "26",
    "wilaya_name": "MEDEA",
    "commune_name": "SIDI NAAMANE",
    "lat": 36.239642,
    "lng": 3.054097,
    "source": "ASAL geoportail"
  },
  {
    "id": 24,
    "name": "HAMMAM EL FRIOUA",
    "type": "hammam",
    "temperature_c": 20,
    "debit_l_s": 0.3,
    "altitude_m": 1039,
    "minerality": "BICARBONATEE CALCIQUE",
    "wilaya_code": "67",
    "wilaya_name": "MEDEA",
    "commune_name": "EL AOUINET",
    "lat": 35.888611,
    "lng": 3.112336,
    "source": "ASAL geoportail"
  },
  {
    "id": 25,
    "name": "AIN EL DJRAB",
    "type": "ain",
    "temperature_c": 24,
    "debit_l_s": 0.6,
    "altitude_m": 250,
    "minerality": "BICARBONATEE CALCIQUE",
    "wilaya_code": "09",
    "wilaya_name": "BLIDA",
    "commune_name": "L'ARBA",
    "lat": 36.551639,
    "lng": 3.177122,
    "source": "ASAL geoportail"
  },
  {
    "id": 26,
    "name": "AIN HAMMAM SIDI ALI",
    "type": "ain",
    "temperature_c": 28.5,
    "debit_l_s": 0,
    "altitude_m": 433,
    "minerality": "BICARBONATEE CALCIQUE",
    "wilaya_code": "29",
    "wilaya_name": "MASCARA",
    "commune_name": "HACHEM",
    "lat": 35.393342,
    "lng": 0.480196,
    "source": "ASAL geoportail"
  },
  {
    "id": 27,
    "name": "AIN SIDI AHMED BEN KHEDDA",
    "type": "ain",
    "temperature_c": 27,
    "debit_l_s": 0,
    "altitude_m": 430,
    "minerality": "BICARBONATEE CALCIQUE",
    "wilaya_code": "29",
    "wilaya_name": "MASCARA",
    "commune_name": "HACHEM",
    "lat": 35.410564,
    "lng": 0.562997,
    "source": "ASAL geoportail"
  },
  {
    "id": 28,
    "name": "TAMEKREST",
    "type": "source",
    "temperature_c": 5,
    "debit_l_s": 20,
    "altitude_m": 927,
    "minerality": "BICARBONATEE CALCIQUE",
    "wilaya_code": "11",
    "wilaya_name": "TAMANRASSET",
    "commune_name": "TAMANRASSET",
    "lat": 22.784177,
    "lng": 5.816546,
    "source": "ASAL geoportail"
  },
  {
    "id": 29,
    "name": "ISKEIFAF",
    "type": "source",
    "temperature_c": 60,
    "debit_l_s": 3.5,
    "altitude_m": 512,
    "minerality": "BICARBONATEE CALCIQUE",
    "wilaya_code": "33",
    "wilaya_name": "ILLIZI",
    "commune_name": "ILLIZI",
    "lat": 27.1339,
    "lng": 8.75853,
    "source": "ASAL geoportail"
  },
  {
    "id": 30,
    "name": "INDABIRAN",
    "type": "source",
    "temperature_c": 28,
    "debit_l_s": 2,
    "altitude_m": 633,
    "minerality": "BICARBONATEE CALCIQUE",
    "wilaya_code": "56",
    "wilaya_name": "ILLIZI",
    "commune_name": "DJANET",
    "lat": 24.461203,
    "lng": 9.497703,
    "source": "ASAL geoportail"
  },
  {
    "id": 31,
    "name": "HAMMAM KIRIA",
    "type": "hammam",
    "temperature_c": 45.3,
    "debit_l_s": 0.3,
    "altitude_m": 700,
    "minerality": "BICARBONATEE CALCIQUE",
    "wilaya_code": "15",
    "wilaya_name": "BEJAIA",
    "commune_name": "ADEKAR",
    "lat": 36.723052,
    "lng": 4.5696,
    "source": "ASAL geoportail"
  },
  {
    "id": 32,
    "name": "AIN TEMDA",
    "type": "ain",
    "temperature_c": 25,
    "debit_l_s": 6,
    "altitude_m": 332,
    "minerality": "BICARBONATEE CALCIQUE",
    "wilaya_code": "48",
    "wilaya_name": "RELIZANE",
    "commune_name": "MAZOUNA",
    "lat": 36.122186,
    "lng": 0.898575,
    "source": "ASAL geoportail"
  },
  {
    "id": 33,
    "name": "AIN EL BAHRI",
    "type": "ain",
    "temperature_c": 37,
    "debit_l_s": 3,
    "altitude_m": 292,
    "minerality": "BICARBONATEE CALCIQUE",
    "wilaya_code": "48",
    "wilaya_name": "RELIZANE",
    "commune_name": "EL OULDJA",
    "lat": 35.91445,
    "lng": 1.18235,
    "source": "ASAL geoportail"
  },
  {
    "id": 34,
    "name": "AIN ERRAMKA",
    "type": "ain",
    "temperature_c": 28,
    "debit_l_s": 2,
    "altitude_m": 390,
    "minerality": "BICARBONATEE CALCIQUE",
    "wilaya_code": "48",
    "wilaya_name": "RELIZANE",
    "commune_name": "RAMKA",
    "lat": 35.848373,
    "lng": 1.363155,
    "source": "ASAL geoportail"
  },
  {
    "id": 35,
    "name": "HAMMAM AIN EL FOUAR",
    "type": "hammam",
    "temperature_c": 18,
    "debit_l_s": 1,
    "altitude_m": 993,
    "minerality": "BICARBONATEE CALCIQUE ET MAGNESIENNE",
    "wilaya_code": "67",
    "wilaya_name": "MEDEA",
    "commune_name": "EL AOUINET",
    "lat": 35.892414,
    "lng": 3.061778,
    "source": "ASAL geoportail"
  },
  {
    "id": 36,
    "name": "HAMMAM SOUARI",
    "type": "hammam",
    "temperature_c": 20,
    "debit_l_s": 0.1,
    "altitude_m": 928,
    "minerality": "BICARBONATEE CALCIQUE ET MAGNESIENNE",
    "wilaya_code": "26",
    "wilaya_name": "MEDEA",
    "commune_name": "EL AOUINET",
    "lat": 35.867168,
    "lng": 3.047429,
    "source": "ASAL geoportail"
  },
  {
    "id": 37,
    "name": "BOURAMROUM",
    "type": "source",
    "temperature_c": 39,
    "debit_l_s": 11,
    "altitude_m": 53,
    "minerality": "BICARBONATEE CALCIQUE ET MAGNESIENNE",
    "wilaya_code": "09",
    "wilaya_name": "BLIDA",
    "commune_name": "OUED EL ALLEUG",
    "lat": 36.572817,
    "lng": 2.757983,
    "source": "ASAL geoportail"
  },
  {
    "id": 38,
    "name": "HAMMAM BOUHACHANA ROUMIA",
    "type": "hammam",
    "temperature_c": 34.3,
    "debit_l_s": 8,
    "altitude_m": 519,
    "minerality": "BICARBONATEE MAGNESIENNE",
    "wilaya_code": "24",
    "wilaya_name": "GUELMA",
    "commune_name": "BOUHACHANA",
    "lat": 36.3208333,
    "lng": 7.5438889,
    "source": "ASAL geoportail"
  },
  {
    "id": 39,
    "name": "HAMMAM BOUHACHANA ENAKHLA",
    "type": "hammam",
    "temperature_c": 37,
    "debit_l_s": 2,
    "altitude_m": 623.7,
    "minerality": "BICARBONATEE MAGNESIENNE",
    "wilaya_code": "24",
    "wilaya_name": "GUELMA",
    "commune_name": "BOUHACHANA",
    "lat": 36.315,
    "lng": 7.5322222,
    "source": "ASAL geoportail"
  },
  {
    "id": 40,
    "name": "AIN BOUZAROUR",
    "type": "ain",
    "temperature_c": 19,
    "debit_l_s": 0.2,
    "altitude_m": 497,
    "minerality": "BICARBONATEE MAGNESIENNE",
    "wilaya_code": "02",
    "wilaya_name": "CHLEF",
    "commune_name": "LABIODH MEDJADJA",
    "lat": 36.270091,
    "lng": 1.380117,
    "source": "ASAL geoportail"
  },
  {
    "id": 41,
    "name": "IMIHROU",
    "type": "source",
    "temperature_c": 37,
    "debit_l_s": 20,
    "altitude_m": 667,
    "minerality": "BICARBONATEE POTASSIQUE",
    "wilaya_code": "33",
    "wilaya_name": "ILLIZI",
    "commune_name": "ILLIZI",
    "lat": 25.950583,
    "lng": 8.746182,
    "source": "ASAL geoportail"
  },
  {
    "id": 42,
    "name": "KBALTIA",
    "type": "source",
    "temperature_c": 25,
    "debit_l_s": 0,
    "altitude_m": 750.7,
    "minerality": "BICARBONATEE SODIQUE",
    "wilaya_code": "41",
    "wilaya_name": "SOUK AHRAS",
    "commune_name": "HENANACHA",
    "lat": 36.2155333,
    "lng": 7.7342333,
    "source": "ASAL geoportail"
  },
  {
    "id": 43,
    "name": "HMAMIN",
    "type": "source",
    "temperature_c": 36.2,
    "debit_l_s": 3,
    "altitude_m": 398.5,
    "minerality": "BICARBONATEE SODIQUE",
    "wilaya_code": "36",
    "wilaya_name": "SOUK AHRAS",
    "commune_name": "MECHROUHA",
    "lat": 36.4372667,
    "lng": 7.9909,
    "source": "ASAL geoportail"
  },
  {
    "id": 44,
    "name": "TOUAITIA",
    "type": "source",
    "temperature_c": 37,
    "debit_l_s": 3,
    "altitude_m": 495,
    "minerality": "BICARBONATEE SODIQUE",
    "wilaya_code": "12",
    "wilaya_name": "SOUK AHRAS",
    "commune_name": "SIDI FRADJ",
    "lat": 36.0048833,
    "lng": 8.2782167,
    "source": "ASAL geoportail"
  },
  {
    "id": 45,
    "name": "HAMMAM KSENA",
    "type": "hammam",
    "temperature_c": 8,
    "debit_l_s": 90,
    "altitude_m": 610,
    "minerality": "BICARBONATEE SODIQUE",
    "wilaya_code": "10",
    "wilaya_name": "BOUIRA",
    "commune_name": "EL HACHEMIA",
    "lat": 36.598611,
    "lng": 3.590417,
    "source": "ASAL geoportail"
  },
  {
    "id": 46,
    "name": "HAMMAM SALHINE",
    "type": "hammam",
    "temperature_c": 39.5,
    "debit_l_s": 3.1,
    "altitude_m": 804,
    "minerality": "BICARBONATEE SODIQUE",
    "wilaya_code": "26",
    "wilaya_name": "MEDEA",
    "commune_name": "BERROUAGHIA",
    "lat": 36.152419,
    "lng": 2.971516,
    "source": "ASAL geoportail"
  },
  {
    "id": 47,
    "name": "HAMMAM KAMORA",
    "type": "hammam",
    "temperature_c": 36,
    "debit_l_s": 3,
    "altitude_m": 641,
    "minerality": "BICARBONATEE SODIQUE",
    "wilaya_code": "67",
    "wilaya_name": "MEDEA",
    "commune_name": "BOGHAR",
    "lat": 35.893567,
    "lng": 2.734694,
    "source": "ASAL geoportail"
  },
  {
    "id": 48,
    "name": "AIN PALMIER N 1",
    "type": "ain",
    "temperature_c": 65,
    "debit_l_s": 1.5,
    "altitude_m": 241,
    "minerality": "BICARBONATEE SODIQUE",
    "wilaya_code": "29",
    "wilaya_name": "MASCARA",
    "commune_name": "BOUHANIFIA",
    "lat": 35.3163111,
    "lng": -0.0491667,
    "source": "ASAL geoportail"
  },
  {
    "id": 49,
    "name": "AIN SIDI ALI N 3",
    "type": "ain",
    "temperature_c": 67,
    "debit_l_s": 0.5,
    "altitude_m": 258,
    "minerality": "BICARBONATEE SODIQUE",
    "wilaya_code": "29",
    "wilaya_name": "MASCARA",
    "commune_name": "BOUHANIFIA",
    "lat": 35.3163889,
    "lng": -0.0483333,
    "source": "ASAL geoportail"
  },
  {
    "id": 50,
    "name": "AIN EL HAMMAM N 6",
    "type": "ain",
    "temperature_c": 48,
    "debit_l_s": 2,
    "altitude_m": 229,
    "minerality": "BICARBONATEE SODIQUE",
    "wilaya_code": "29",
    "wilaya_name": "MASCARA",
    "commune_name": "BOUHANIFIA",
    "lat": 35.3141667,
    "lng": -0.0505556,
    "source": "ASAL geoportail"
  },
  {
    "id": 51,
    "name": "DUPONT",
    "type": "source",
    "temperature_c": 53,
    "debit_l_s": 5,
    "altitude_m": 224,
    "minerality": "BICARBONATEE SODIQUE",
    "wilaya_code": "29",
    "wilaya_name": "MASCARA",
    "commune_name": "BOUHANIFIA",
    "lat": 35.3147222,
    "lng": -0.0508333,
    "source": "ASAL geoportail"
  },
  {
    "id": 52,
    "name": "AIN EL HAMMAMAT",
    "type": "ain",
    "temperature_c": 53,
    "debit_l_s": 2,
    "altitude_m": 322,
    "minerality": "BICARBONATEE SODIQUE",
    "wilaya_code": "29",
    "wilaya_name": "MASCARA",
    "commune_name": "BOUHANIFIA",
    "lat": 35.3411111,
    "lng": -0.1055556,
    "source": "ASAL geoportail"
  },
  {
    "id": 53,
    "name": "FOUSSA",
    "type": "source",
    "temperature_c": 45,
    "debit_l_s": 65,
    "altitude_m": 0,
    "minerality": "BICARBONATEE SODIQUE",
    "wilaya_code": "47",
    "wilaya_name": "GHARDAIA",
    "commune_name": "GUERRARA",
    "lat": 32.78797,
    "lng": 4.494584,
    "source": "ASAL geoportail"
  },
  {
    "id": 54,
    "name": "TAMESGUIDA",
    "type": "source",
    "temperature_c": 0,
    "debit_l_s": 74,
    "altitude_m": 364,
    "minerality": "BICARBONATEE SODIQUE",
    "wilaya_code": "53",
    "wilaya_name": "TAMANRASSET",
    "commune_name": "FOUGARET EZZOUA",
    "lat": 27.301992,
    "lng": 3.729817,
    "source": "ASAL geoportail"
  },
  {
    "id": 55,
    "name": "IN TAHABORT",
    "type": "source",
    "temperature_c": 5,
    "debit_l_s": 24,
    "altitude_m": 869,
    "minerality": "BICARBONATEE SODIQUE",
    "wilaya_code": "11",
    "wilaya_name": "TAMANRASSET",
    "commune_name": "TAMANRASSET",
    "lat": 22.838886,
    "lng": 5.630499,
    "source": "ASAL geoportail"
  },
  {
    "id": 56,
    "name": "TIT-NOUDAD",
    "type": "source",
    "temperature_c": 6,
    "debit_l_s": 20,
    "altitude_m": 1147,
    "minerality": "BICARBONATEE SODIQUE",
    "wilaya_code": "11",
    "wilaya_name": "TAMANRASSET",
    "commune_name": "TAMANRASSET",
    "lat": 23.113003,
    "lng": 6.079285,
    "source": "ASAL geoportail"
  },
  {
    "id": 57,
    "name": "LAARACHE",
    "type": "source",
    "temperature_c": 32,
    "debit_l_s": 1.5,
    "altitude_m": 567,
    "minerality": "BICARBONATEE SODIQUE",
    "wilaya_code": "33",
    "wilaya_name": "ILLIZI",
    "commune_name": "ILLIZI",
    "lat": 27.403925,
    "lng": 8.841154,
    "source": "ASAL geoportail"
  },
  {
    "id": 58,
    "name": "ADJAHIL",
    "type": "source",
    "temperature_c": 29,
    "debit_l_s": 1,
    "altitude_m": 1037,
    "minerality": "BICARBONATEE SODIQUE",
    "wilaya_code": "56",
    "wilaya_name": "ILLIZI",
    "commune_name": "DJANET",
    "lat": 24.536487,
    "lng": 9.481322,
    "source": "ASAL geoportail"
  },
  {
    "id": 59,
    "name": "HAMMAM GHOBNCHALA",
    "type": "hammam",
    "temperature_c": 25,
    "debit_l_s": 1.5,
    "altitude_m": 467,
    "minerality": "BICARBONATEE SODIQUE, CHLORUREE (SULFATEE) CALCIQUE",
    "wilaya_code": "36",
    "wilaya_name": "EL TARF",
    "commune_name": "OULED ZITOUN",
    "lat": 36.4536111,
    "lng": 8.0686111,
    "source": "ASAL geoportail"
  },
  {
    "id": 60,
    "name": "HAMMAM ZAID (SIDI ZID)",
    "type": "hammam",
    "temperature_c": 43,
    "debit_l_s": 0.6,
    "altitude_m": 385,
    "minerality": "BICARBONATEE SODIQUE, CHLORUREE (SULFATEE) CALCIQUE",
    "wilaya_code": "36",
    "wilaya_name": "EL TARF",
    "commune_name": "BOUHADJAR",
    "lat": 36.4677778,
    "lng": 8.1505556,
    "source": "ASAL geoportail"
  },
  {
    "id": 61,
    "name": "HAMMAM BEN SALAH",
    "type": "hammam",
    "temperature_c": 49.3,
    "debit_l_s": 3,
    "altitude_m": 306,
    "minerality": "BICARBONATEE SODIQUE, CHLORUREE (SULFATEE) CALCIQUE",
    "wilaya_code": "36",
    "wilaya_name": "EL TARF",
    "commune_name": "BENI SALEH",
    "lat": 36.52,
    "lng": 8.0369444,
    "source": "ASAL geoportail"
  },
  {
    "id": 62,
    "name": "HAMMAM SIDI TRAD",
    "type": "hammam",
    "temperature_c": 63.2,
    "debit_l_s": 2.5,
    "altitude_m": 428,
    "minerality": "BICARBONATEE SODIQUE, CHLORUREE (SULFATEE) CALCIQUE",
    "wilaya_code": "36",
    "wilaya_name": "EL TARF",
    "commune_name": "ZITOUNA",
    "lat": 36.57,
    "lng": 8.31,
    "source": "ASAL geoportail"
  },
  {
    "id": 63,
    "name": "HAMMAM KAF N'SOUR",
    "type": "hammam",
    "temperature_c": 31,
    "debit_l_s": 2,
    "altitude_m": 123,
    "minerality": "BICARBONATEE SODIQUE, CHLORUREE CALCIQUE",
    "wilaya_code": "36",
    "wilaya_name": "EL TARF",
    "commune_name": "CHAFFIA",
    "lat": 36.605,
    "lng": 8.0311111,
    "source": "ASAL geoportail"
  },
  {
    "id": 64,
    "name": "HAMMAM ZATOUT",
    "type": "hammam",
    "temperature_c": 48.2,
    "debit_l_s": 1.5,
    "altitude_m": 309,
    "minerality": "BICARBONATEE SODIQUE, CHLORUREE CALCIQUE",
    "wilaya_code": "36",
    "wilaya_name": "EL TARF",
    "commune_name": "BOUHADJAR",
    "lat": 36.47,
    "lng": 8.14,
    "source": "ASAL geoportail"
  },
  {
    "id": 65,
    "name": "SIDI SAFI",
    "type": "source",
    "temperature_c": 42,
    "debit_l_s": 20,
    "altitude_m": 500,
    "minerality": "CARBONATE CALCIQUE",
    "wilaya_code": "29",
    "wilaya_name": "MASCARA",
    "commune_name": "TIGHENIF",
    "lat": 35.374567,
    "lng": 0.375561,
    "source": "ASAL geoportail"
  },
  {
    "id": 66,
    "name": "SOURCE HAMMAM SIDI AMOR HAMMAM BOUTALEB",
    "type": "source",
    "temperature_c": 51.6,
    "debit_l_s": 1.5,
    "altitude_m": 1148,
    "minerality": "CHLORO-SULFATEE CALCIQUE RICHE EN MAGNESIUM ET SODIUM",
    "wilaya_code": "19",
    "wilaya_name": "SETIF",
    "commune_name": "EL HAMMA",
    "lat": 35.7238889,
    "lng": 5.3719444,
    "source": "ASAL geoportail"
  },
  {
    "id": 67,
    "name": "DJEMAA",
    "type": "source",
    "temperature_c": 53,
    "debit_l_s": 200,
    "altitude_m": 28,
    "minerality": "CHLORURE ET SULFATEE CALCIQUE",
    "wilaya_code": "57",
    "wilaya_name": "EL OUED",
    "commune_name": "DJEMAA",
    "lat": 33.54825,
    "lng": 5.891972,
    "source": "ASAL geoportail"
  },
  {
    "id": 68,
    "name": "GOUIRET CHOHEB",
    "type": "source",
    "temperature_c": 52,
    "debit_l_s": 200,
    "altitude_m": 135,
    "minerality": "CHLORURE ET SULFATEE SODIQUE",
    "wilaya_code": "30",
    "wilaya_name": "OUARGLA",
    "commune_name": "HASSI BEN ABDELAH",
    "lat": 32.137557,
    "lng": 5.557267,
    "source": "ASAL geoportail"
  },
  {
    "id": 69,
    "name": "ZELFANA",
    "type": "source",
    "temperature_c": 41,
    "debit_l_s": 35,
    "altitude_m": 0,
    "minerality": "CHLORURE ET SULFATEE SODIQUE",
    "wilaya_code": "47",
    "wilaya_name": "GHARDAIA",
    "commune_name": "ZELFANA",
    "lat": 32.393315,
    "lng": 4.222364,
    "source": "ASAL geoportail"
  },
  {
    "id": 70,
    "name": "HAMMAM EL BETHEM",
    "type": "hammam",
    "temperature_c": 20,
    "debit_l_s": 0.8,
    "altitude_m": 408,
    "minerality": "CHLORUREE CALCIQUE",
    "wilaya_code": "26",
    "wilaya_name": "MEDEA",
    "commune_name": "OUAMRI",
    "lat": 36.206124,
    "lng": 2.554359,
    "source": "ASAL geoportail"
  },
  {
    "id": 71,
    "name": "AIN SKHOUNA",
    "type": "ain",
    "temperature_c": 31,
    "debit_l_s": 50,
    "altitude_m": 991,
    "minerality": "CHLORUREE CALCIQUE",
    "wilaya_code": "20",
    "wilaya_name": "SAIDA",
    "commune_name": "AIN SKHOUNA",
    "lat": 34.499255,
    "lng": 0.848206,
    "source": "ASAL geoportail"
  },
  {
    "id": 72,
    "name": "FORAGE AIN ZEOUI",
    "type": "forage",
    "temperature_c": 34.8,
    "debit_l_s": 40,
    "altitude_m": 996,
    "minerality": "CHLORUREE CALCIQUE",
    "wilaya_code": "20",
    "wilaya_name": "SAIDA",
    "commune_name": "AIN SKHOUNA",
    "lat": 34.463671,
    "lng": 0.821151,
    "source": "ASAL geoportail"
  },
  {
    "id": 73,
    "name": "FORAGE AIN MELAH",
    "type": "forage",
    "temperature_c": 28,
    "debit_l_s": 25,
    "altitude_m": 0,
    "minerality": "CHLORUREE CALCIQUE",
    "wilaya_code": "20",
    "wilaya_name": "SAIDA",
    "commune_name": "AIN SKHOUNA",
    "lat": 34.526448,
    "lng": 0.848179,
    "source": "ASAL geoportail"
  },
  {
    "id": 74,
    "name": "EL MKABERTA",
    "type": "source",
    "temperature_c": 35,
    "debit_l_s": 8,
    "altitude_m": 318,
    "minerality": "CHLORUREE CALCIQUE",
    "wilaya_code": "14",
    "wilaya_name": "RELIZANE",
    "commune_name": "OUED ESSLEM",
    "lat": 35.492226,
    "lng": 0.77751,
    "source": "ASAL geoportail"
  },
  {
    "id": 75,
    "name": "HAMMAM ELBOUADJEN",
    "type": "hammam",
    "temperature_c": 22,
    "debit_l_s": 7,
    "altitude_m": 0,
    "minerality": "CHLORUREE CALCIQUE",
    "wilaya_code": "48",
    "wilaya_name": "RELIZANE",
    "commune_name": "HAD ECHAKALA",
    "lat": 35.68139,
    "lng": 1.171187,
    "source": "ASAL geoportail"
  },
  {
    "id": 76,
    "name": "MEKABERTA",
    "type": "source",
    "temperature_c": 38,
    "debit_l_s": 6,
    "altitude_m": 394,
    "minerality": "CHLORUREE CALCIQUE",
    "wilaya_code": "48",
    "wilaya_name": "RELIZANE",
    "commune_name": "KALAA",
    "lat": 35.587268,
    "lng": 0.315243,
    "source": "ASAL geoportail"
  },
  {
    "id": 77,
    "name": "HAMMAM EL MALHA",
    "type": "hammam",
    "temperature_c": 27,
    "debit_l_s": 6,
    "altitude_m": 0,
    "minerality": "CHLORUREE CALCIQUE",
    "wilaya_code": "48",
    "wilaya_name": "RELIZANE",
    "commune_name": "S.M.BEN OUDA",
    "lat": 35.605931,
    "lng": 0.594708,
    "source": "ASAL geoportail"
  },
  {
    "id": 78,
    "name": "CHARCHAR",
    "type": "source",
    "temperature_c": 27,
    "debit_l_s": 5,
    "altitude_m": 0,
    "minerality": "CHLORUREE CALCIQUE",
    "wilaya_code": "48",
    "wilaya_name": "RELIZANE",
    "commune_name": "AIN TAREK",
    "lat": 35.788857,
    "lng": 1.10985,
    "source": "ASAL geoportail"
  },
  {
    "id": 79,
    "name": "HAMMAM DERKAOUA",
    "type": "hammam",
    "temperature_c": 29,
    "debit_l_s": 5,
    "altitude_m": 191,
    "minerality": "CHLORUREE CALCIQUE",
    "wilaya_code": "48",
    "wilaya_name": "RELIZANE",
    "commune_name": "AIN RAHMA",
    "lat": 35.698108,
    "lng": 0.968489,
    "source": "ASAL geoportail"
  },
  {
    "id": 80,
    "name": "AIN HNICHE",
    "type": "ain",
    "temperature_c": 38,
    "debit_l_s": 4,
    "altitude_m": 407,
    "minerality": "CHLORUREE CALCIQUE",
    "wilaya_code": "48",
    "wilaya_name": "RELIZANE",
    "commune_name": "EL OULDJA",
    "lat": 35.947209,
    "lng": 1.217393,
    "source": "ASAL geoportail"
  },
  {
    "id": 81,
    "name": "AIN SIDI ALI",
    "type": "ain",
    "temperature_c": 27,
    "debit_l_s": 4,
    "altitude_m": 209,
    "minerality": "CHLORUREE CALCIQUE",
    "wilaya_code": "48",
    "wilaya_name": "RELIZANE",
    "commune_name": "AIN RAHMA",
    "lat": 35.691627,
    "lng": 0.414258,
    "source": "ASAL geoportail"
  },
  {
    "id": 82,
    "name": "AIN BRAHIM",
    "type": "ain",
    "temperature_c": 28,
    "debit_l_s": 3,
    "altitude_m": 368,
    "minerality": "CHLORUREE CALCIQUE",
    "wilaya_code": "48",
    "wilaya_name": "RELIZANE",
    "commune_name": "AIN RAHMA",
    "lat": 35.607027,
    "lng": 0.395144,
    "source": "ASAL geoportail"
  },
  {
    "id": 83,
    "name": "HAMMAM SABONNET",
    "type": "hammam",
    "temperature_c": 35,
    "debit_l_s": 2,
    "altitude_m": 186,
    "minerality": "CHLORUREE CALCIQUE",
    "wilaya_code": "48",
    "wilaya_name": "RELIZANE",
    "commune_name": "EL OULDJA",
    "lat": 35.923098,
    "lng": 1.085545,
    "source": "ASAL geoportail"
  },
  {
    "id": 84,
    "name": "AIN GHAZLI",
    "type": "ain",
    "temperature_c": 28,
    "debit_l_s": 6,
    "altitude_m": 1260,
    "minerality": "CHLORUREE CALCIQUE",
    "wilaya_code": "38",
    "wilaya_name": "TISSEMSILT",
    "commune_name": "BORDJ EL AMIR AEK",
    "lat": 35.871673,
    "lng": 2.243733,
    "source": "ASAL geoportail"
  },
  {
    "id": 85,
    "name": "HAMMAM YAZROU",
    "type": "hammam",
    "temperature_c": 15,
    "debit_l_s": 0.2,
    "altitude_m": 919,
    "minerality": "CHLORUREE CALCIQUE",
    "wilaya_code": "38",
    "wilaya_name": "TISSEMSILT",
    "commune_name": "OULED BESSAM",
    "lat": 35.718828,
    "lng": 1.84403,
    "source": "ASAL geoportail"
  },
  {
    "id": 86,
    "name": "DIFFEL",
    "type": "source",
    "temperature_c": 52.6,
    "debit_l_s": 45,
    "altitude_m": 212,
    "minerality": "CHLORUREE CALCIQUE",
    "wilaya_code": "51",
    "wilaya_name": "BISKRA",
    "commune_name": "OULED DJELLAL",
    "lat": 34.458167,
    "lng": 5.095556,
    "source": "ASAL geoportail"
  },
  {
    "id": 87,
    "name": "LASEL",
    "type": "source",
    "temperature_c": 52.7,
    "debit_l_s": 40,
    "altitude_m": 194,
    "minerality": "CHLORUREE CALCIQUE",
    "wilaya_code": "51",
    "wilaya_name": "BISKRA",
    "commune_name": "OULED DJELLAL",
    "lat": 34.413611,
    "lng": 5.034528,
    "source": "ASAL geoportail"
  },
  {
    "id": 88,
    "name": "HAMMAM HDJEB EL BARAKA",
    "type": "hammam",
    "temperature_c": 58.5,
    "debit_l_s": 40,
    "altitude_m": 150,
    "minerality": "CHLORUREE CALCIQUE",
    "wilaya_code": "07",
    "wilaya_name": "BISKRA",
    "commune_name": "HADJEB",
    "lat": 34.790443,
    "lng": 5.590461,
    "source": "ASAL geoportail"
  },
  {
    "id": 89,
    "name": "LAHOUIMED",
    "type": "source",
    "temperature_c": 48,
    "debit_l_s": 30,
    "altitude_m": 243,
    "minerality": "CHLORUREE CALCIQUE",
    "wilaya_code": "51",
    "wilaya_name": "BISKRA",
    "commune_name": "SIDI KHALED",
    "lat": 34.371778,
    "lng": 4.972,
    "source": "ASAL geoportail"
  },
  {
    "id": 90,
    "name": "HAMOULA",
    "type": "source",
    "temperature_c": 46.6,
    "debit_l_s": 20,
    "altitude_m": 236,
    "minerality": "CHLORUREE CALCIQUE ET SODIQUE",
    "wilaya_code": "51",
    "wilaya_name": "BISKRA",
    "commune_name": "SIDI KHALED",
    "lat": 34.390167,
    "lng": 4.946311,
    "source": "ASAL geoportail"
  },
  {
    "id": 91,
    "name": "HAMMAM BOUGHRARA",
    "type": "hammam",
    "temperature_c": 44,
    "debit_l_s": 6.5,
    "altitude_m": 265,
    "minerality": "CHLORUREE CALCIQUE ET MAGNESIENNE",
    "wilaya_code": "13",
    "wilaya_name": "TLEMCEN",
    "commune_name": "HAMMAM BOUGHRARA",
    "lat": 34.890437,
    "lng": -1.639337,
    "source": "ASAL geoportail"
  },
  {
    "id": 92,
    "name": "RAS DJEDAR",
    "type": "source",
    "temperature_c": 55.8,
    "debit_l_s": 30,
    "altitude_m": 185,
    "minerality": "CHLORUREE CALCIQUE ET MAGNESIENNE",
    "wilaya_code": "51",
    "wilaya_name": "BISKRA",
    "commune_name": "BESBES",
    "lat": 34.392428,
    "lng": 5.211537,
    "source": "ASAL geoportail"
  },
  {
    "id": 93,
    "name": "BESBES",
    "type": "source",
    "temperature_c": 47,
    "debit_l_s": 25,
    "altitude_m": 318,
    "minerality": "CHLORUREE CALCIQUE ET MAGNESIENNE",
    "wilaya_code": "51",
    "wilaya_name": "BISKRA",
    "commune_name": "BESBES",
    "lat": 34.172528,
    "lng": 4.9835,
    "source": "ASAL geoportail"
  },
  {
    "id": 94,
    "name": "HAMMAM DAR ECHEIKH",
    "type": "hammam",
    "temperature_c": 33.4,
    "debit_l_s": 1,
    "altitude_m": 526,
    "minerality": "CHLORUREE ET SULFATEE CALCIQUE",
    "wilaya_code": "43",
    "wilaya_name": "MILA",
    "commune_name": "TIBERGUENT",
    "lat": 36.4380556,
    "lng": 6.02,
    "source": "ASAL geoportail"
  },
  {
    "id": 95,
    "name": "HAMMAM OULED CHENAF",
    "type": "hammam",
    "temperature_c": 21,
    "debit_l_s": 3.1,
    "altitude_m": 925,
    "minerality": "CHLORUREE ET SULFATEE CALCIQUE",
    "wilaya_code": "67",
    "wilaya_name": "MEDEA",
    "commune_name": "AIN BOUCIF",
    "lat": 35.942,
    "lng": 3.11,
    "source": "ASAL geoportail"
  },
  {
    "id": 96,
    "name": "SIDI EL HABECHI",
    "type": "source",
    "temperature_c": 21,
    "debit_l_s": 1,
    "altitude_m": 487,
    "minerality": "CHLORUREE ET SULFATEE CALCIQUE",
    "wilaya_code": "26",
    "wilaya_name": "MEDEA",
    "commune_name": "BENI SLIMANE",
    "lat": 36.262797,
    "lng": 3.380547,
    "source": "ASAL geoportail"
  },
  {
    "id": 97,
    "name": "BEN TALHA",
    "type": "source",
    "temperature_c": 23,
    "debit_l_s": 1,
    "altitude_m": 660,
    "minerality": "CHLORUREE ET SULFATEE CALCIQUE",
    "wilaya_code": "26",
    "wilaya_name": "MEDEA",
    "commune_name": "BOUSKENE",
    "lat": 36.211921,
    "lng": 3.25458,
    "source": "ASAL geoportail"
  },
  {
    "id": 98,
    "name": "HAMMAM MELOUANE",
    "type": "hammam",
    "temperature_c": 39,
    "debit_l_s": 2,
    "altitude_m": 184,
    "minerality": "CHLORUREE ET SULFATEE SODIQUE",
    "wilaya_code": "09",
    "wilaya_name": "BLIDA",
    "commune_name": "HAMMAM MELOUANE",
    "lat": 36.486667,
    "lng": 3.044583,
    "source": "ASAL geoportail"
  },
  {
    "id": 99,
    "name": "GUETTARA",
    "type": "source",
    "temperature_c": 50,
    "debit_l_s": 60,
    "altitude_m": 365,
    "minerality": "CHLORUREE ET SULFATEE SODIQUE",
    "wilaya_code": "66",
    "wilaya_name": "DJELFA",
    "commune_name": "GUETTARA",
    "lat": 33.15181,
    "lng": 4.686619,
    "source": "ASAL geoportail"
  },
  {
    "id": 100,
    "name": "HASSI EL KHFIF",
    "type": "source",
    "temperature_c": 53,
    "debit_l_s": 120,
    "altitude_m": 105,
    "minerality": "CHLORUREE ET SULFATEE SODIQUE",
    "wilaya_code": "55",
    "wilaya_name": "OUARGLA",
    "commune_name": "NGOUSSA",
    "lat": 32.438263,
    "lng": 5.356984,
    "source": "ASAL geoportail"
  },
  {
    "id": 101,
    "name": "EL DJAR 01",
    "type": "source",
    "temperature_c": 52.7,
    "debit_l_s": 40,
    "altitude_m": 194,
    "minerality": "CHLORUREE ET SULFATEE SODIQUE ET CALCIQUE",
    "wilaya_code": "51",
    "wilaya_name": "BISKRA",
    "commune_name": "FOUGHALA",
    "lat": 34.413611,
    "lng": 5.034528,
    "source": "ASAL geoportail"
  },
  {
    "id": 102,
    "name": "HEMOUNA",
    "type": "source",
    "temperature_c": 22,
    "debit_l_s": 0,
    "altitude_m": 164,
    "minerality": "CHLORUREE MAGNESIENNE",
    "wilaya_code": "02",
    "wilaya_name": "CHLEF",
    "commune_name": "OULED BEN ABDELKADER",
    "lat": 36.031062,
    "lng": 1.27802,
    "source": "ASAL geoportail"
  },
  {
    "id": 103,
    "name": "HAMMAM MALHA",
    "type": "hammam",
    "temperature_c": 28,
    "debit_l_s": 7,
    "altitude_m": 495,
    "minerality": "CHLORUREE MAGNESIENNE",
    "wilaya_code": "48",
    "wilaya_name": "RELIZANE",
    "commune_name": "OUED ESSLEM",
    "lat": 35.593015,
    "lng": 0.897667,
    "source": "ASAL geoportail"
  },
  {
    "id": 104,
    "name": "HAMMAM BENI YASSAAD",
    "type": "hammam",
    "temperature_c": 30,
    "debit_l_s": 6,
    "altitude_m": 530,
    "minerality": "CHLORUREE MAGNESIENNE",
    "wilaya_code": "48",
    "wilaya_name": "RELIZANE",
    "commune_name": "MENDES",
    "lat": 35.627617,
    "lng": 0.97279,
    "source": "ASAL geoportail"
  },
  {
    "id": 105,
    "name": "HAMMAM YAKHSAS",
    "type": "hammam",
    "temperature_c": 38,
    "debit_l_s": 5,
    "altitude_m": 40,
    "minerality": "CHLORUREE MAGNESIENNE",
    "wilaya_code": "48",
    "wilaya_name": "RELIZANE",
    "commune_name": "SIDI KHATTAB",
    "lat": 35.968489,
    "lng": 0.515219,
    "source": "ASAL geoportail"
  },
  {
    "id": 106,
    "name": "HAMMAM LABES",
    "type": "hammam",
    "temperature_c": 38,
    "debit_l_s": 4,
    "altitude_m": 41,
    "minerality": "CHLORUREE MAGNESIENNE",
    "wilaya_code": "48",
    "wilaya_name": "RELIZANE",
    "commune_name": "SIDI KHATTAB",
    "lat": 35.872406,
    "lng": 0.591427,
    "source": "ASAL geoportail"
  },
  {
    "id": 107,
    "name": "AIN EL GASRIA",
    "type": "ain",
    "temperature_c": 38,
    "debit_l_s": 4,
    "altitude_m": 429,
    "minerality": "CHLORUREE MAGNESIENNE",
    "wilaya_code": "48",
    "wilaya_name": "RELIZANE",
    "commune_name": "EL GUETTAR",
    "lat": 36.064209,
    "lng": 0.831126,
    "source": "ASAL geoportail"
  },
  {
    "id": 108,
    "name": "HAMMAM N'BAILS EL MINA",
    "type": "hammam",
    "temperature_c": 42.2,
    "debit_l_s": 6,
    "altitude_m": 457.2,
    "minerality": "CHLORUREE SODIQUE",
    "wilaya_code": "24",
    "wilaya_name": "GUELMA",
    "commune_name": "HAMMAM N'BAILS",
    "lat": 36.3257667,
    "lng": 7.6450333,
    "source": "ASAL geoportail"
  },
  {
    "id": 109,
    "name": "HAMMAM DBEGH AIN CHEFFA",
    "type": "hammam",
    "temperature_c": 71.5,
    "debit_l_s": 12,
    "altitude_m": 274,
    "minerality": "CHLORUREE SODIQUE",
    "wilaya_code": "24",
    "wilaya_name": "GUELMA",
    "commune_name": "HAMMAM DEBAGH",
    "lat": 36.4605556,
    "lng": 7.2694444,
    "source": "ASAL geoportail"
  },
  {
    "id": 110,
    "name": "HAMMAM DEBEGH BENADJI",
    "type": "hammam",
    "temperature_c": 91,
    "debit_l_s": 7,
    "altitude_m": 305,
    "minerality": "CHLORUREE SODIQUE",
    "wilaya_code": "24",
    "wilaya_name": "GUELMA",
    "commune_name": "HAMMAM DEBEGH",
    "lat": 36.4647222,
    "lng": 7.2747222,
    "source": "ASAL geoportail"
  },
  {
    "id": 111,
    "name": "HAMMAM DEBEGH CASCADE",
    "type": "hammam",
    "temperature_c": 95,
    "debit_l_s": 25,
    "altitude_m": 303,
    "minerality": "CHLORUREE SODIQUE",
    "wilaya_code": "24",
    "wilaya_name": "GUELMA",
    "commune_name": "HAMMAM DEBEGH",
    "lat": 36.46,
    "lng": 7.27,
    "source": "ASAL geoportail"
  },
  {
    "id": 112,
    "name": "HAMMAM DEBEGH CHEDAKHA",
    "type": "hammam",
    "temperature_c": 97,
    "debit_l_s": 25,
    "altitude_m": 342,
    "minerality": "CHLORUREE SODIQUE",
    "wilaya_code": "24",
    "wilaya_name": "GUELMA",
    "commune_name": "HAMMAM DEBEGH",
    "lat": 36.2127778,
    "lng": 7.2677778,
    "source": "ASAL geoportail"
  },
  {
    "id": 113,
    "name": "HAMMAM SOKHNA",
    "type": "hammam",
    "temperature_c": 45,
    "debit_l_s": 35,
    "altitude_m": 900,
    "minerality": "CHLORUREE SODIQUE",
    "wilaya_code": "19",
    "wilaya_name": "SETIF",
    "commune_name": "HAMMAM SOKHNA",
    "lat": 35.9836111,
    "lng": 5.8108333,
    "source": "ASAL geoportail"
  },
  {
    "id": 114,
    "name": "DAMSSA",
    "type": "source",
    "temperature_c": 25,
    "debit_l_s": 4,
    "altitude_m": 534,
    "minerality": "CHLORUREE SODIQUE",
    "wilaya_code": "12",
    "wilaya_name": "SOUK AHRAS",
    "commune_name": "TAOURA",
    "lat": 36.0564194,
    "lng": 8.1487167,
    "source": "ASAL geoportail"
  },
  {
    "id": 115,
    "name": "TESSA",
    "type": "source",
    "temperature_c": 39.6,
    "debit_l_s": 3,
    "altitude_m": 650,
    "minerality": "CHLORUREE SODIQUE",
    "wilaya_code": "41",
    "wilaya_name": "SOUK AHRAS",
    "commune_name": "OUILEN",
    "lat": 36.2186667,
    "lng": 8.04415,
    "source": "ASAL geoportail"
  },
  {
    "id": 116,
    "name": "HAMMAM EL HALFA",
    "type": "hammam",
    "temperature_c": 1.1,
    "debit_l_s": 62,
    "altitude_m": 600,
    "minerality": "CHLORUREE SODIQUE",
    "wilaya_code": "10",
    "wilaya_name": "BOUIRA",
    "commune_name": "EL HACHEMIA",
    "lat": 36.598611,
    "lng": 3.590417,
    "source": "ASAL geoportail"
  },
  {
    "id": 117,
    "name": "AIN EL KATTAR\n (EL CHAOUADRIA)",
    "type": "ain",
    "temperature_c": 0.8,
    "debit_l_s": 25.6,
    "altitude_m": 821,
    "minerality": "CHLORUREE SODIQUE",
    "wilaya_code": "10",
    "wilaya_name": "BOUIRA",
    "commune_name": "EL HACHEMIA",
    "lat": 36.598611,
    "lng": 3.590417,
    "source": "ASAL geoportail"
  },
  {
    "id": 118,
    "name": "HAMMAM SILLAL",
    "type": "hammam",
    "temperature_c": 47.3,
    "debit_l_s": 5,
    "altitude_m": 330,
    "minerality": "CHLORUREE SODIQUE",
    "wilaya_code": "06",
    "wilaya_name": "BEJAIA",
    "commune_name": "TIFRA",
    "lat": 36.649776,
    "lng": 4.672398,
    "source": "ASAL geoportail"
  },
  {
    "id": 119,
    "name": "HAMMAM SIDI YAHIA AL AIDLI",
    "type": "hammam",
    "temperature_c": 45.8,
    "debit_l_s": 3,
    "altitude_m": 245,
    "minerality": "CHLORUREE SODIQUE",
    "wilaya_code": "06",
    "wilaya_name": "BEJAIA",
    "commune_name": "BOUHAMZA",
    "lat": 36.410643,
    "lng": 4.588115,
    "source": "ASAL geoportail"
  },
  {
    "id": 120,
    "name": "HAMMAM BEZZEZ",
    "type": "hammam",
    "temperature_c": 22,
    "debit_l_s": 8,
    "altitude_m": 733,
    "minerality": "CHLORUREE SODIQUE",
    "wilaya_code": "26",
    "wilaya_name": "MEDEA",
    "commune_name": "SOUAGUI",
    "lat": 36.086886,
    "lng": 3.197763,
    "source": "ASAL geoportail"
  },
  {
    "id": 121,
    "name": "HAMMAM TOUAUSSA",
    "type": "hammam",
    "temperature_c": 21,
    "debit_l_s": 1,
    "altitude_m": 500,
    "minerality": "CHLORUREE SODIQUE",
    "wilaya_code": "26",
    "wilaya_name": "MEDEA",
    "commune_name": "TABLAT",
    "lat": 36.437157,
    "lng": 3.287958,
    "source": "ASAL geoportail"
  },
  {
    "id": 122,
    "name": "HAMMAM M'NATEN",
    "type": "hammam",
    "temperature_c": 22,
    "debit_l_s": 0.2,
    "altitude_m": 700,
    "minerality": "CHLORUREE SODIQUE",
    "wilaya_code": "26",
    "wilaya_name": "MEDEA",
    "commune_name": "ZOUBIRIA",
    "lat": 36.04174,
    "lng": 2.898663,
    "source": "ASAL geoportail"
  },
  {
    "id": 123,
    "name": "AIN EL MALHA",
    "type": "ain",
    "temperature_c": 20,
    "debit_l_s": 0.4,
    "altitude_m": 485,
    "minerality": "CHLORUREE SODIQUE",
    "wilaya_code": "26",
    "wilaya_name": "MEDEA",
    "commune_name": "OUED HARBIL",
    "lat": 36.210472,
    "lng": 2.648675,
    "source": "ASAL geoportail"
  },
  {
    "id": 124,
    "name": "AOUINET EL BARAKA",
    "type": "ain",
    "temperature_c": 32,
    "debit_l_s": 0.9,
    "altitude_m": 213,
    "minerality": "CHLORUREE SODIQUE",
    "wilaya_code": "09",
    "wilaya_name": "BLIDA",
    "commune_name": "HAMMAM MELOUANE",
    "lat": 36.483889,
    "lng": 3.041944,
    "source": "ASAL geoportail"
  },
  {
    "id": 125,
    "name": "MOUILHA",
    "type": "source",
    "temperature_c": 24,
    "debit_l_s": 0.7,
    "altitude_m": 174,
    "minerality": "CHLORUREE SODIQUE",
    "wilaya_code": "09",
    "wilaya_name": "BLIDA",
    "commune_name": "L'ARBA",
    "lat": 36.527222,
    "lng": 3.176111,
    "source": "ASAL geoportail"
  },
  {
    "id": 126,
    "name": "TIHAMAMINE",
    "type": "source",
    "temperature_c": 32,
    "debit_l_s": 0.6,
    "altitude_m": 173,
    "minerality": "CHLORUREE SODIQUE",
    "wilaya_code": "09",
    "wilaya_name": "BLIDA",
    "commune_name": "HAMMAM MELOUANE",
    "lat": 36.488056,
    "lng": 3.052778,
    "source": "ASAL geoportail"
  },
  {
    "id": 127,
    "name": "HAMMAM SERGUINE",
    "type": "hammam",
    "temperature_c": 39,
    "debit_l_s": 5,
    "altitude_m": 785,
    "minerality": "CHLORUREE SODIQUE",
    "wilaya_code": "14",
    "wilaya_name": "TIARET",
    "commune_name": "SERGUINE",
    "lat": 35.293626,
    "lng": 1.503981,
    "source": "ASAL geoportail"
  },
  {
    "id": 128,
    "name": "SID EL HADJ",
    "type": "source",
    "temperature_c": 21.6,
    "debit_l_s": 0.5,
    "altitude_m": 676,
    "minerality": "CHLORUREE SODIQUE",
    "wilaya_code": "14",
    "wilaya_name": "TIARET",
    "commune_name": "SIDI HOSNI",
    "lat": 35.483848,
    "lng": 1.476766,
    "source": "ASAL geoportail"
  },
  {
    "id": 129,
    "name": "HAMMAM CHIGUER",
    "type": "hammam",
    "temperature_c": 32,
    "debit_l_s": 40,
    "altitude_m": 350,
    "minerality": "CHLORUREE SODIQUE",
    "wilaya_code": "13",
    "wilaya_name": "TLEMCEN",
    "commune_name": "HAMMAM BOUGHRARA",
    "lat": 34.880759,
    "lng": -1.744685,
    "source": "ASAL geoportail"
  },
  {
    "id": 130,
    "name": "AIN EL HAMMAM",
    "type": "ain",
    "temperature_c": 26,
    "debit_l_s": 10,
    "altitude_m": 835,
    "minerality": "CHLORUREE SODIQUE",
    "wilaya_code": "13",
    "wilaya_name": "TLEMCEN",
    "commune_name": "AIN EL GHORABA",
    "lat": 34.676979,
    "lng": -1.344578,
    "source": "ASAL geoportail"
  },
  {
    "id": 131,
    "name": "HAMMAM SID ABDELI",
    "type": "hammam",
    "temperature_c": 34,
    "debit_l_s": 10,
    "altitude_m": 365,
    "minerality": "CHLORUREE SODIQUE",
    "wilaya_code": "13",
    "wilaya_name": "TLEMCEN",
    "commune_name": "SIDI ABDELLI",
    "lat": 35.075193,
    "lng": -1.149046,
    "source": "ASAL geoportail"
  },
  {
    "id": 132,
    "name": "SIDI RAHOU",
    "type": "source",
    "temperature_c": 24,
    "debit_l_s": 1,
    "altitude_m": 518,
    "minerality": "CHLORUREE SODIQUE",
    "wilaya_code": "13",
    "wilaya_name": "TLEMCEN",
    "commune_name": "HENNAYA",
    "lat": 34.920489,
    "lng": -1.386459,
    "source": "ASAL geoportail"
  },
  {
    "id": 133,
    "name": "AIN SIDI BERKABI",
    "type": "ain",
    "temperature_c": 22,
    "debit_l_s": 0.1,
    "altitude_m": 475,
    "minerality": "CHLORUREE SODIQUE",
    "wilaya_code": "13",
    "wilaya_name": "TLEMCEN",
    "commune_name": "SIDI ABDELLI",
    "lat": 34.965573,
    "lng": -1.030071,
    "source": "ASAL geoportail"
  },
  {
    "id": 134,
    "name": "AIN FRANIN",
    "type": "ain",
    "temperature_c": 34.1,
    "debit_l_s": 2.6,
    "altitude_m": 34,
    "minerality": "CHLORUREE SODIQUE",
    "wilaya_code": "31",
    "wilaya_name": "ORAN",
    "commune_name": "BIR EL DJIR",
    "lat": 35.764924,
    "lng": -0.520006,
    "source": "ASAL geoportail"
  },
  {
    "id": 135,
    "name": "AIN MENTILA",
    "type": "ain",
    "temperature_c": 30,
    "debit_l_s": 6,
    "altitude_m": 420,
    "minerality": "CHLORUREE SODIQUE",
    "wilaya_code": "38",
    "wilaya_name": "RELIZANE",
    "commune_name": "AMMI MOUSSA",
    "lat": 35.78424,
    "lng": 1.276966,
    "source": "ASAL geoportail"
  },
  {
    "id": 136,
    "name": "HAMMAM ERROUDJET",
    "type": "hammam",
    "temperature_c": 35,
    "debit_l_s": 5,
    "altitude_m": 625,
    "minerality": "CHLORUREE SODIQUE",
    "wilaya_code": "48",
    "wilaya_name": "RELIZANE",
    "commune_name": "RAMKA",
    "lat": 35.884023,
    "lng": 1.317122,
    "source": "ASAL geoportail"
  },
  {
    "id": 137,
    "name": "AIN BAGRA",
    "type": "ain",
    "temperature_c": 63,
    "debit_l_s": 10,
    "altitude_m": 162,
    "minerality": "CHLORUREE SODIQUE",
    "wilaya_code": "46",
    "wilaya_name": "AIN TEMOUCHENT",
    "commune_name": "HAMMAM BOUHDJER",
    "lat": 35.359179,
    "lng": -0.967108,
    "source": "ASAL geoportail"
  },
  {
    "id": 138,
    "name": "SIDI AYAD",
    "type": "source",
    "temperature_c": 58,
    "debit_l_s": 0.25,
    "altitude_m": 154,
    "minerality": "CHLORUREE SODIQUE",
    "wilaya_code": "46",
    "wilaya_name": "AIN TEMOUCHENT",
    "commune_name": "HAMMAM BOUHDJER",
    "lat": 35.352154,
    "lng": -0.971728,
    "source": "ASAL geoportail"
  },
  {
    "id": 139,
    "name": "AIN OUARKA",
    "type": "ain",
    "temperature_c": 44.5,
    "debit_l_s": 2.17,
    "altitude_m": 1011,
    "minerality": "CHLORUREE SODIQUE",
    "wilaya_code": "69",
    "wilaya_name": "NAAMA",
    "commune_name": "ASLA",
    "lat": 32.728423,
    "lng": -0.152305,
    "source": "ASAL geoportail"
  },
  {
    "id": 140,
    "name": "HAMMAM CHAREF",
    "type": "hammam",
    "temperature_c": 42,
    "debit_l_s": 25,
    "altitude_m": 1150,
    "minerality": "CHLORUREE SODIQUE",
    "wilaya_code": "17",
    "wilaya_name": "DJELFA",
    "commune_name": "CHAREF",
    "lat": 34.662705,
    "lng": 2.853869,
    "source": "ASAL geoportail"
  },
  {
    "id": 141,
    "name": "HAMMAM MESRANE",
    "type": "hammam",
    "temperature_c": 51,
    "debit_l_s": 15,
    "altitude_m": 850,
    "minerality": "CHLORUREE SODIQUE",
    "wilaya_code": "17",
    "wilaya_name": "DJELFA",
    "commune_name": "HASSI BAHBAH",
    "lat": 34.986687,
    "lng": 3.058324,
    "source": "ASAL geoportail"
  },
  {
    "id": 142,
    "name": "HAMMAM EL BARAKA",
    "type": "hammam",
    "temperature_c": 42,
    "debit_l_s": 6,
    "altitude_m": 771,
    "minerality": "CHLORUREE SODIQUE",
    "wilaya_code": "38",
    "wilaya_name": "TISSEMSILT",
    "commune_name": "SIDI SLIMANE",
    "lat": 35.866842,
    "lng": 1.683682,
    "source": "ASAL geoportail"
  },
  {
    "id": 143,
    "name": "AIN CHIFAA",
    "type": "ain",
    "temperature_c": 42,
    "debit_l_s": 6,
    "altitude_m": 748,
    "minerality": "CHLORUREE SODIQUE",
    "wilaya_code": "38",
    "wilaya_name": "TISSEMSILT",
    "commune_name": "SIDI SLIMANE",
    "lat": 35.868992,
    "lng": 1.688224,
    "source": "ASAL geoportail"
  },
  {
    "id": 144,
    "name": "AIN KEHLA",
    "type": "ain",
    "temperature_c": 0,
    "debit_l_s": 28,
    "altitude_m": 355,
    "minerality": "CHLORUREE SODIQUE",
    "wilaya_code": "53",
    "wilaya_name": "TAMANRASSET",
    "commune_name": "FOUGARET EZZOUA",
    "lat": 27.393381,
    "lng": 3.458185,
    "source": "ASAL geoportail"
  },
  {
    "id": 145,
    "name": "HAMMAM SALHIN",
    "type": "hammam",
    "temperature_c": 43,
    "debit_l_s": 30,
    "altitude_m": 116,
    "minerality": "CHLORUREE SODIQUE",
    "wilaya_code": "07",
    "wilaya_name": "BISKRA",
    "commune_name": "BISKRA",
    "lat": 34.878397,
    "lng": 5.674077,
    "source": "ASAL geoportail"
  },
  {
    "id": 146,
    "name": "HAMMAM CHEGGA",
    "type": "hammam",
    "temperature_c": 22.2,
    "debit_l_s": 0.02,
    "altitude_m": 19,
    "minerality": "CHLORUREE SODIQUE",
    "wilaya_code": "07",
    "wilaya_name": "BISKRA",
    "commune_name": "OUMACHE",
    "lat": 34.433717,
    "lng": 5.915687,
    "source": "ASAL geoportail"
  },
  {
    "id": 147,
    "name": "EL BORMA",
    "type": "source",
    "temperature_c": 40,
    "debit_l_s": 80,
    "altitude_m": 239,
    "minerality": "CHLORUREE SODIQUE",
    "wilaya_code": "30",
    "wilaya_name": "OUARGLA",
    "commune_name": "EL BORMA",
    "lat": 31.588403,
    "lng": 9.168816,
    "source": "ASAL geoportail"
  },
  {
    "id": 148,
    "name": "GASSI TOUIL",
    "type": "source",
    "temperature_c": 50,
    "debit_l_s": 100,
    "altitude_m": 188,
    "minerality": "CHLORUREE SODIQUE",
    "wilaya_code": "30",
    "wilaya_name": "OUARGLA",
    "commune_name": "HASSI MESSAOUD",
    "lat": 30.66034,
    "lng": 6.525919,
    "source": "ASAL geoportail"
  },
  {
    "id": 149,
    "name": "HAI NASSER",
    "type": "source",
    "temperature_c": 53,
    "debit_l_s": 160,
    "altitude_m": 221,
    "minerality": "CHLORUREE SODIQUE",
    "wilaya_code": "30",
    "wilaya_name": "OUARGLA",
    "commune_name": "OUARGLA",
    "lat": 31.974402,
    "lng": 5.232434,
    "source": "ASAL geoportail"
  },
  {
    "id": 150,
    "name": "KHECHEM ERRIH GCA 0",
    "type": "source",
    "temperature_c": 54,
    "debit_l_s": 150,
    "altitude_m": 122,
    "minerality": "CHLORUREE SODIQUE",
    "wilaya_code": "55",
    "wilaya_name": "OUARGLA",
    "commune_name": "HASSI BEN ABDELLAH",
    "lat": 32.307097,
    "lng": 5.700746,
    "source": "ASAL geoportail"
  },
  {
    "id": 151,
    "name": "KHECHEM ERRIH",
    "type": "source",
    "temperature_c": 52,
    "debit_l_s": 250,
    "altitude_m": 130,
    "minerality": "CHLORUREE SODIQUE",
    "wilaya_code": "30",
    "wilaya_name": "OUARGLA",
    "commune_name": "HASSI BEN ABDELLAH",
    "lat": 32.256438,
    "lng": 5.6573,
    "source": "ASAL geoportail"
  },
  {
    "id": 152,
    "name": "SIDI MEHDI IV",
    "type": "source",
    "temperature_c": 56,
    "debit_l_s": 200,
    "altitude_m": 82,
    "minerality": "CHLORUREE SODIQUE",
    "wilaya_code": "55",
    "wilaya_name": "OUARGLA",
    "commune_name": "NEZLA",
    "lat": 33.060161,
    "lng": 6.108672,
    "source": "ASAL geoportail"
  },
  {
    "id": 153,
    "name": "HAMMAM DEHAMCHA",
    "type": "hammam",
    "temperature_c": 28,
    "debit_l_s": 180,
    "altitude_m": 742,
    "minerality": "CHLORUREE SODIQUE",
    "wilaya_code": "19",
    "wilaya_name": "SETIF",
    "commune_name": "DEHAMCHA",
    "lat": 36.3412778,
    "lng": 5.6166667,
    "source": "ASAL geoportail"
  },
  {
    "id": 154,
    "name": "HAMMAM NAKHLA",
    "type": "hammam",
    "temperature_c": 34.5,
    "debit_l_s": 0.4,
    "altitude_m": 844,
    "minerality": "CHLORUREE SODIQUE ET BICARBONATE CALCIQUE",
    "wilaya_code": "19",
    "wilaya_name": "SETIF",
    "commune_name": "RASFA",
    "lat": 35.7327778,
    "lng": 5.1675,
    "source": "ASAL geoportail"
  },
  {
    "id": 155,
    "name": "HAMMAM SISI EL HADJ",
    "type": "hammam",
    "temperature_c": 40.7,
    "debit_l_s": 16,
    "altitude_m": 388,
    "minerality": "CHLORUREE SODIQUE ET CALCIQUE",
    "wilaya_code": "61",
    "wilaya_name": "BISKRA",
    "commune_name": "EL OUTIA",
    "lat": 35.100087,
    "lng": 5.629255,
    "source": "ASAL geoportail"
  },
  {
    "id": 156,
    "name": "AIN TAHMAMINT",
    "type": "ain",
    "temperature_c": 32,
    "debit_l_s": 2,
    "altitude_m": 365,
    "minerality": "CHLORUREE SODIQUE ET MAGNESIENNE",
    "wilaya_code": "13",
    "wilaya_name": "TLEMCEN",
    "commune_name": "CHETOUANE",
    "lat": 34.94607,
    "lng": -1.308288,
    "source": "ASAL geoportail"
  },
  {
    "id": 157,
    "name": "HAMMAM SIDI DJABALAH",
    "type": "hammam",
    "temperature_c": 37.2,
    "debit_l_s": 0.8,
    "altitude_m": 306,
    "minerality": "CHLORUREE SODIQUE, BICARBONATEE CALCIQUE",
    "wilaya_code": "36",
    "wilaya_name": "EL TARF",
    "commune_name": "LAC DES OISEAUX",
    "lat": 36.74,
    "lng": 8.1544444,
    "source": "ASAL geoportail"
  },
  {
    "id": 158,
    "name": "HAMMAM MEXA",
    "type": "hammam",
    "temperature_c": 38,
    "debit_l_s": 0.8,
    "altitude_m": 118,
    "minerality": "CHLORUREE SODIQUE, BICARBONATEE CALCIQUE",
    "wilaya_code": "36",
    "wilaya_name": "EL TARF",
    "commune_name": "BOUGOUS",
    "lat": 36.7,
    "lng": 8.39,
    "source": "ASAL geoportail"
  },
  {
    "id": 159,
    "name": "HAMMAM DELAA",
    "type": "hammam",
    "temperature_c": 40,
    "debit_l_s": 2,
    "altitude_m": 758,
    "minerality": "CHLORUREE SULFATEE CALCIQUE ET SODIQUE",
    "wilaya_code": "28",
    "wilaya_name": "M'SILA",
    "commune_name": "HAMMAM DELAA",
    "lat": 35.600331,
    "lng": 4.379515,
    "source": "ASAL geoportail"
  },
  {
    "id": 160,
    "name": "BAKHLA",
    "type": "source",
    "temperature_c": 27,
    "debit_l_s": 3,
    "altitude_m": 238,
    "minerality": "CHLORUREE SULFATEE SODIQUE",
    "wilaya_code": "01",
    "wilaya_name": "ADRAR",
    "commune_name": "BOUDA",
    "lat": 28.010049,
    "lng": -0.448108,
    "source": "ASAL geoportail"
  },
  {
    "id": 161,
    "name": "HAMMAM OULED YELLES",
    "type": "hammam",
    "temperature_c": 43,
    "debit_l_s": 0,
    "altitude_m": 920,
    "minerality": "EAU CHLORO-SULFATEE CALCIQUE RICHE EN MAGNESIUM ET SODIUM",
    "wilaya_code": "19",
    "wilaya_name": "SETIF",
    "commune_name": "MEZLOUG",
    "lat": 36.0638889,
    "lng": 5.2488889,
    "source": "ASAL geoportail"
  },
  {
    "id": 162,
    "name": "SOURCE AIN TINN",
    "type": "source",
    "temperature_c": 32,
    "debit_l_s": 6,
    "altitude_m": 555,
    "minerality": "HYPER CHLORUREE CALCIQUE",
    "wilaya_code": "43",
    "wilaya_name": "MILA",
    "commune_name": "AIN TINN",
    "lat": 36.3863889,
    "lng": 6.3302778,
    "source": "ASAL geoportail"
  },
  {
    "id": 163,
    "name": "SOURCE EL ABIAT",
    "type": "source",
    "temperature_c": 37.1,
    "debit_l_s": 15,
    "altitude_m": 494,
    "minerality": "HYPER CHLORUREE CALCIQUE",
    "wilaya_code": "43",
    "wilaya_name": "MILA",
    "commune_name": "FERDJIOUA",
    "lat": 36.4536111,
    "lng": 5.9180556,
    "source": "ASAL geoportail"
  },
  {
    "id": 164,
    "name": "HAMMAM BENI HAROUN",
    "type": "hammam",
    "temperature_c": 42,
    "debit_l_s": 43,
    "altitude_m": 88,
    "minerality": "HYPER CHLORUREE CALCIQUE",
    "wilaya_code": "18",
    "wilaya_name": "MILA",
    "commune_name": "HAMALA",
    "lat": 36.6016667,
    "lng": 6.2836111,
    "source": "ASAL geoportail"
  },
  {
    "id": 165,
    "name": "SOURCE AIN JRABE",
    "type": "source",
    "temperature_c": 23,
    "debit_l_s": 0,
    "altitude_m": 978,
    "minerality": "HYPER CHLORUREE CALCIQUE ET SULFATEE CALCIQUE",
    "wilaya_code": "04",
    "wilaya_name": "KHENCHLA",
    "commune_name": "BABAR",
    "lat": 35.9880556,
    "lng": 7.0891667,
    "source": "ASAL geoportail"
  },
  {
    "id": 166,
    "name": "HAMMAM BENI GUECHA",
    "type": "hammam",
    "temperature_c": 48.2,
    "debit_l_s": 0.5,
    "altitude_m": 525,
    "minerality": "HYPER CHLORUREE ET SULFATEE CALCIQUE",
    "wilaya_code": "43",
    "wilaya_name": "MILA",
    "commune_name": "BENI GUECHA",
    "lat": 36.4194444,
    "lng": 5.9894444,
    "source": "ASAL geoportail"
  },
  {
    "id": 167,
    "name": "HAMMAM OULED AISSA",
    "type": "hammam",
    "temperature_c": 49,
    "debit_l_s": 7,
    "altitude_m": 775,
    "minerality": "HYPER CHLORUREE ET SULFATEE CALCIQUE",
    "wilaya_code": "43",
    "wilaya_name": "MILA",
    "commune_name": "TELEGHEMA",
    "lat": 36.1416667,
    "lng": 6.33,
    "source": "ASAL geoportail"
  },
  {
    "id": 168,
    "name": "FORAGE DACHRA MANSOURAH EL KEBIRA",
    "type": "forage",
    "temperature_c": 46,
    "debit_l_s": 10,
    "altitude_m": 901,
    "minerality": "HYPER CHLORUREE SODIQUE",
    "wilaya_code": "34",
    "wilaya_name": "BORDJ BOU ARRERIDJ",
    "commune_name": "MANSOURAH",
    "lat": 36.0683333,
    "lng": 4.4611111,
    "source": "ASAL geoportail"
  },
  {
    "id": 169,
    "name": "HAMMAM AIN EL DJRAB (OU AIN SIDI AHMED )",
    "type": "hammam",
    "temperature_c": 48,
    "debit_l_s": 0.34,
    "altitude_m": 495,
    "minerality": "HYPER CHLORUREE SODIQUE",
    "wilaya_code": "34",
    "wilaya_name": "BORDJ BOU ARRERIDJ",
    "commune_name": "M'HIR",
    "lat": 36.1936111,
    "lng": 4.3783333,
    "source": "ASAL geoportail"
  },
  {
    "id": 170,
    "name": "HAMMAM IBAINEM",
    "type": "hammam",
    "temperature_c": 62,
    "debit_l_s": 1.28,
    "altitude_m": 450,
    "minerality": "HYPER CHLORUREE SODIQUE",
    "wilaya_code": "34",
    "wilaya_name": "BORDJ BOU ARRERIDJ",
    "commune_name": "EL MAINE",
    "lat": 36.3725,
    "lng": 4.7822222,
    "source": "ASAL geoportail"
  },
  {
    "id": 171,
    "name": "HAMMAM EL BIBAN",
    "type": "hammam",
    "temperature_c": 80,
    "debit_l_s": 4,
    "altitude_m": 500,
    "minerality": "HYPER CHLORUREE SODIQUE",
    "wilaya_code": "34",
    "wilaya_name": "BORDJ BOU ARRERIDJ",
    "commune_name": "M'HIR",
    "lat": 36.1994444,
    "lng": 4.39,
    "source": "ASAL geoportail"
  },
  {
    "id": 172,
    "name": "BOUTRIG",
    "type": "source",
    "temperature_c": 56,
    "debit_l_s": 100,
    "altitude_m": 150,
    "minerality": "HYPER CHLORUREE SODIQUE",
    "wilaya_code": "44",
    "wilaya_name": "AIN DEFLA",
    "commune_name": "EL ATTAF",
    "lat": 36.214882,
    "lng": 1.639666,
    "source": "ASAL geoportail"
  },
  {
    "id": 173,
    "name": "AIN SELLAMA",
    "type": "ain",
    "temperature_c": 24.5,
    "debit_l_s": 3,
    "altitude_m": 83,
    "minerality": "HYPER CHLORUREE SODIQUE",
    "wilaya_code": "31",
    "wilaya_name": "ORAN",
    "commune_name": "MERS EL HADJAD",
    "lat": 35.751918,
    "lng": -0.164701,
    "source": "ASAL geoportail"
  },
  {
    "id": 174,
    "name": "AIN MADAGH",
    "type": "ain",
    "temperature_c": 23.5,
    "debit_l_s": 2,
    "altitude_m": 22,
    "minerality": "HYPER CHLORUREE SODIQUE",
    "wilaya_code": "46",
    "wilaya_name": "ORAN",
    "commune_name": "AIN EL KERMA",
    "lat": 35.635804,
    "lng": -1.04171,
    "source": "ASAL geoportail"
  },
  {
    "id": 175,
    "name": "HAMMAM BOURIM",
    "type": "hammam",
    "temperature_c": 35,
    "debit_l_s": 1.5,
    "altitude_m": 39,
    "minerality": "HYPER CHLORUREE SODIQUE, SULFATEE ET BICARBONATEE CALCIQUE",
    "wilaya_code": "36",
    "wilaya_name": "EL TARF",
    "commune_name": "CHIHANI",
    "lat": 36.6133333,
    "lng": 7.7966667,
    "source": "ASAL geoportail"
  },
  {
    "id": 176,
    "name": "AIN KARSA",
    "type": "ain",
    "temperature_c": 22,
    "debit_l_s": 1.2,
    "altitude_m": 518,
    "minerality": "HYPER SULFATEE BICARBONATEE CALCIQUE",
    "wilaya_code": "44",
    "wilaya_name": "AIN DEFLA",
    "commune_name": "HAMMAM RIGHA",
    "lat": 36.379789,
    "lng": 2.40011,
    "source": "ASAL geoportail"
  },
  {
    "id": 177,
    "name": "SOURCE AIN DJARIR",
    "type": "source",
    "temperature_c": 33.4,
    "debit_l_s": 4,
    "altitude_m": 1090,
    "minerality": "HYPER SULFATEE CALCIQUE",
    "wilaya_code": "40",
    "wilaya_name": "KHENCHLA",
    "commune_name": "BOUHMAMA",
    "lat": 35.28,
    "lng": 6.7888889,
    "source": "ASAL geoportail"
  },
  {
    "id": 178,
    "name": "SOURCE KRIBSA",
    "type": "source",
    "temperature_c": 27,
    "debit_l_s": 1,
    "altitude_m": 218,
    "minerality": "HYPER SULFATEE CALCIQUE",
    "wilaya_code": "43",
    "wilaya_name": "MILA",
    "commune_name": "OUED ENDJA",
    "lat": 36.4783333,
    "lng": 6.1086111,
    "source": "ASAL geoportail"
  },
  {
    "id": 179,
    "name": "HAMMAM GUERDA",
    "type": "hammam",
    "temperature_c": 28.6,
    "debit_l_s": 1,
    "altitude_m": 512,
    "minerality": "HYPER SULFATEE CALCIQUE",
    "wilaya_code": "43",
    "wilaya_name": "MILA",
    "commune_name": "TIBERGUENT",
    "lat": 36.385,
    "lng": 6.0316667,
    "source": "ASAL geoportail"
  },
  {
    "id": 180,
    "name": "SOURCE OULED ELGHOUL",
    "type": "source",
    "temperature_c": 30,
    "debit_l_s": 3,
    "altitude_m": 474,
    "minerality": "HYPER SULFATEE CALCIQUE",
    "wilaya_code": "43",
    "wilaya_name": "MILA",
    "commune_name": "TASSALA",
    "lat": 36.5352778,
    "lng": 6.0136111,
    "source": "ASAL geoportail"
  },
  {
    "id": 181,
    "name": "SOURCE OULED ACHOUR",
    "type": "source",
    "temperature_c": 39.8,
    "debit_l_s": 10,
    "altitude_m": 478,
    "minerality": "HYPER SULFATEE CALCIQUE",
    "wilaya_code": "43",
    "wilaya_name": "MILA",
    "commune_name": "EL AYADI BARBES",
    "lat": 36.4441667,
    "lng": 5.8944444,
    "source": "ASAL geoportail"
  },
  {
    "id": 182,
    "name": "HAMMAM OULED BOU HAMA (ABDALAH)",
    "type": "hammam",
    "temperature_c": 43,
    "debit_l_s": 1.4,
    "altitude_m": 500,
    "minerality": "HYPER SULFATEE CALCIQUE",
    "wilaya_code": "43",
    "wilaya_name": "MILA",
    "commune_name": "MILA",
    "lat": 36.3888889,
    "lng": 6.1972222,
    "source": "ASAL geoportail"
  },
  {
    "id": 183,
    "name": "SOURCE GROUZ",
    "type": "source",
    "temperature_c": 45,
    "debit_l_s": 5,
    "altitude_m": 716,
    "minerality": "HYPER SULFATEE CALCIQUE",
    "wilaya_code": "43",
    "wilaya_name": "MILA",
    "commune_name": "OUED ATHMANIA",
    "lat": 36.2352778,
    "lng": 6.2838889,
    "source": "ASAL geoportail"
  },
  {
    "id": 184,
    "name": "HAMMAM MAZZACHE",
    "type": "hammam",
    "temperature_c": 47,
    "debit_l_s": 8,
    "altitude_m": 787,
    "minerality": "HYPER SULFATEE CALCIQUE",
    "wilaya_code": "43",
    "wilaya_name": "MILA",
    "commune_name": "TELEGHEMA",
    "lat": 36.145,
    "lng": 6.3261111,
    "source": "ASAL geoportail"
  },
  {
    "id": 185,
    "name": "HAMMAM TELEGHEMA",
    "type": "hammam",
    "temperature_c": 49,
    "debit_l_s": 10,
    "altitude_m": 777,
    "minerality": "HYPER SULFATEE CALCIQUE",
    "wilaya_code": "43",
    "wilaya_name": "MILA",
    "commune_name": "TELEGHEMA",
    "lat": 36.1433333,
    "lng": 6.3277778,
    "source": "ASAL geoportail"
  },
  {
    "id": 186,
    "name": "HAMMAM FRERES CHAOUCHE",
    "type": "hammam",
    "temperature_c": 49,
    "debit_l_s": 30,
    "altitude_m": 778,
    "minerality": "HYPER SULFATEE CALCIQUE",
    "wilaya_code": "43",
    "wilaya_name": "MILA",
    "commune_name": "TELEGHEMA",
    "lat": 36.137,
    "lng": 6.3318333,
    "source": "ASAL geoportail"
  },
  {
    "id": 187,
    "name": "HAMMAM OULED DJALI",
    "type": "hammam",
    "temperature_c": 49,
    "debit_l_s": 10,
    "altitude_m": 779,
    "minerality": "HYPER SULFATEE CALCIQUE",
    "wilaya_code": "43",
    "wilaya_name": "MILA",
    "commune_name": "TELEGHEMA",
    "lat": 36.1346111,
    "lng": 6.3266667,
    "source": "ASAL geoportail"
  },
  {
    "id": 188,
    "name": "HAMMAM FRERES MENACER",
    "type": "hammam",
    "temperature_c": 50,
    "debit_l_s": 6,
    "altitude_m": 771,
    "minerality": "HYPER SULFATEE CALCIQUE",
    "wilaya_code": "43",
    "wilaya_name": "MILA",
    "commune_name": "TELEGHEMA",
    "lat": 36.1372222,
    "lng": 6.3341667,
    "source": "ASAL geoportail"
  },
  {
    "id": 189,
    "name": "HAMMAM MINANA",
    "type": "hammam",
    "temperature_c": 50,
    "debit_l_s": 18,
    "altitude_m": 772,
    "minerality": "HYPER SULFATEE CALCIQUE",
    "wilaya_code": "43",
    "wilaya_name": "MILA",
    "commune_name": "TELEGHEMA",
    "lat": 36.1375,
    "lng": 6.3336111,
    "source": "ASAL geoportail"
  },
  {
    "id": 190,
    "name": "HAMMAM TOUALI",
    "type": "hammam",
    "temperature_c": 0,
    "debit_l_s": 50,
    "altitude_m": 766,
    "minerality": "HYPER SULFATEE CALCIQUE",
    "wilaya_code": "43",
    "wilaya_name": "MILA",
    "commune_name": "TELEGHEMA",
    "lat": 36.1397222,
    "lng": 6.3255556,
    "source": "ASAL geoportail"
  },
  {
    "id": 191,
    "name": "HAMMAM ESSAFSSAF",
    "type": "hammam",
    "temperature_c": 51,
    "debit_l_s": 15,
    "altitude_m": 774,
    "minerality": "HYPER SULFATEE CALCIQUE",
    "wilaya_code": "43",
    "wilaya_name": "MILA",
    "commune_name": "TELEGHEMA",
    "lat": 36.1539167,
    "lng": 6.3179111,
    "source": "ASAL geoportail"
  },
  {
    "id": 192,
    "name": "HAMMAM ETOUAMA",
    "type": "hammam",
    "temperature_c": 51,
    "debit_l_s": 8,
    "altitude_m": 834,
    "minerality": "HYPER SULFATEE CALCIQUE",
    "wilaya_code": "43",
    "wilaya_name": "MILA",
    "commune_name": "AINE MELLOUK",
    "lat": 36.2411111,
    "lng": 6.19,
    "source": "ASAL geoportail"
  },
  {
    "id": 193,
    "name": "HAMMAM CHIFAA OUED ATHMANIA",
    "type": "hammam",
    "temperature_c": 51,
    "debit_l_s": 7,
    "altitude_m": 793,
    "minerality": "HYPER SULFATEE CALCIQUE",
    "wilaya_code": "43",
    "wilaya_name": "MILA",
    "commune_name": "OUED ATHMANIA",
    "lat": 36.2391667,
    "lng": 6.2905556,
    "source": "ASAL geoportail"
  },
  {
    "id": 194,
    "name": "HAMMAM FARFOUR",
    "type": "hammam",
    "temperature_c": 35,
    "debit_l_s": 1.5,
    "altitude_m": 146,
    "minerality": "HYPER SULFATEE CALCIQUE",
    "wilaya_code": "21",
    "wilaya_name": "SKIKDA",
    "commune_name": "AZZABA",
    "lat": 36.7213889,
    "lng": 7.1450556,
    "source": "ASAL geoportail"
  },
  {
    "id": 195,
    "name": "HAMMAM SOUISSI ABDELMADJID",
    "type": "hammam",
    "temperature_c": 38.6,
    "debit_l_s": 0.5,
    "altitude_m": 94,
    "minerality": "HYPER SULFATEE CALCIQUE",
    "wilaya_code": "21",
    "wilaya_name": "SKIKDA",
    "commune_name": "AIN CHERCHAR",
    "lat": 36.7203889,
    "lng": 7.1804722,
    "source": "ASAL geoportail"
  },
  {
    "id": 196,
    "name": "HAMMAM ABDELMALEK MEZGHICHE",
    "type": "hammam",
    "temperature_c": 40.2,
    "debit_l_s": 2.7,
    "altitude_m": 35.5,
    "minerality": "HYPER SULFATEE CALCIQUE",
    "wilaya_code": "21",
    "wilaya_name": "SKIKDA",
    "commune_name": "BEN AZOUZ",
    "lat": 36.7911111,
    "lng": 7.2806389,
    "source": "ASAL geoportail"
  },
  {
    "id": 197,
    "name": "HAMMAM HADEF MILOUD",
    "type": "hammam",
    "temperature_c": 43,
    "debit_l_s": 3.2,
    "altitude_m": 23,
    "minerality": "HYPER SULFATEE CALCIQUE",
    "wilaya_code": "21",
    "wilaya_name": "SKIKDA",
    "commune_name": "BEN AZOUZ",
    "lat": 36.796,
    "lng": 7.2785556,
    "source": "ASAL geoportail"
  },
  {
    "id": 198,
    "name": "HAMMAM HADEF ABBES",
    "type": "hammam",
    "temperature_c": 45,
    "debit_l_s": 3.5,
    "altitude_m": 30.3,
    "minerality": "HYPER SULFATEE CALCIQUE",
    "wilaya_code": "21",
    "wilaya_name": "SKIKDA",
    "commune_name": "BEN AZOUZ",
    "lat": 36.7976111,
    "lng": 7.2763889,
    "source": "ASAL geoportail"
  },
  {
    "id": 199,
    "name": "HAMMAM EL SALHINE",
    "type": "hammam",
    "temperature_c": 48,
    "debit_l_s": 2,
    "altitude_m": 109,
    "minerality": "HYPER SULFATEE CALCIQUE",
    "wilaya_code": "21",
    "wilaya_name": "SKIKDA",
    "commune_name": "AZZABA",
    "lat": 36.7207778,
    "lng": 7.1800556,
    "source": "ASAL geoportail"
  },
  {
    "id": 200,
    "name": "HAMMAM RIGHA",
    "type": "hammam",
    "temperature_c": 68.5,
    "debit_l_s": 7.3,
    "altitude_m": 584,
    "minerality": "HYPER SULFATEE CALCIQUE",
    "wilaya_code": "44",
    "wilaya_name": "AIN DEFLA",
    "commune_name": "HAMMAM RIGHA",
    "lat": 36.379553,
    "lng": 2.388636,
    "source": "ASAL geoportail"
  },
  {
    "id": 201,
    "name": "AIN TOLBA",
    "type": "ain",
    "temperature_c": 36,
    "debit_l_s": 2.8,
    "altitude_m": 510,
    "minerality": "HYPER SULFATEE CALCIQUE",
    "wilaya_code": "44",
    "wilaya_name": "AIN DEFLA",
    "commune_name": "HAMMAM RIGHA",
    "lat": 36.373122,
    "lng": 2.38718,
    "source": "ASAL geoportail"
  },
  {
    "id": 202,
    "name": "SOURCE KARNIA",
    "type": "source",
    "temperature_c": 31.2,
    "debit_l_s": 1.5,
    "altitude_m": 399,
    "minerality": "HYPER SULFATEE MAGNESIEN",
    "wilaya_code": "43",
    "wilaya_name": "MILA",
    "commune_name": "TASSALA",
    "lat": 36.5352778,
    "lng": 5.9863889,
    "source": "ASAL geoportail"
  },
  {
    "id": 203,
    "name": "BEN KAHLA",
    "type": "source",
    "temperature_c": 50,
    "debit_l_s": 120,
    "altitude_m": 212,
    "minerality": "NON ANALYSEE",
    "wilaya_code": "30",
    "wilaya_name": "OUARGLA",
    "commune_name": "OUARGLA",
    "lat": 31.902689,
    "lng": 5.238765,
    "source": "ASAL geoportail"
  },
  {
    "id": 204,
    "name": "BLIDET AMOR",
    "type": "source",
    "temperature_c": 53,
    "debit_l_s": 200,
    "altitude_m": 80,
    "minerality": "NON ANALYSEE",
    "wilaya_code": "55",
    "wilaya_name": "OUARGLA",
    "commune_name": "BLIDET AMOR",
    "lat": 32.952001,
    "lng": 5.990716,
    "source": "ASAL geoportail"
  },
  {
    "id": 205,
    "name": "EL HADJIRA",
    "type": "source",
    "temperature_c": 55,
    "debit_l_s": 127,
    "altitude_m": 141,
    "minerality": "NON ANALYSEE",
    "wilaya_code": "55",
    "wilaya_name": "OUARGLA",
    "commune_name": "EL HADJIRA",
    "lat": 32.602645,
    "lng": 5.5042,
    "source": "ASAL geoportail"
  },
  {
    "id": 206,
    "name": "DOUCEN",
    "type": "source",
    "temperature_c": 50.4,
    "debit_l_s": 30,
    "altitude_m": 165,
    "minerality": "SULFATE SODIQUE",
    "wilaya_code": "51",
    "wilaya_name": "BISKRA",
    "commune_name": "DOUCEN",
    "lat": 34.612111,
    "lng": 5.082583,
    "source": "ASAL geoportail"
  },
  {
    "id": 207,
    "name": "EL GUEDDACHI2",
    "type": "source",
    "temperature_c": 52,
    "debit_l_s": 150,
    "altitude_m": 118,
    "minerality": "SULFATEE  CHLORUREE SODIQUE",
    "wilaya_code": "55",
    "wilaya_name": "OUARGLA",
    "commune_name": "EL HADJIRA",
    "lat": 32.582645,
    "lng": 5.678898,
    "source": "ASAL geoportail"
  },
  {
    "id": 208,
    "name": "EL HADEB",
    "type": "source",
    "temperature_c": 51,
    "debit_l_s": 200,
    "altitude_m": 134,
    "minerality": "SULFATEE  CHLORUREE SODIQUE",
    "wilaya_code": "30",
    "wilaya_name": "OUARGLA",
    "commune_name": "ROUISSAT",
    "lat": 31.925874,
    "lng": 5.371443,
    "source": "ASAL geoportail"
  },
  {
    "id": 209,
    "name": "SOURCE EL KOCHBI",
    "type": "source",
    "temperature_c": 29.9,
    "debit_l_s": 5,
    "altitude_m": 813,
    "minerality": "SULFATEE CALCIQUE",
    "wilaya_code": "05",
    "wilaya_name": "BATNA",
    "commune_name": "OULED SI SLIMANE",
    "lat": 35.6051389,
    "lng": 5.6689889,
    "source": "ASAL geoportail"
  },
  {
    "id": 210,
    "name": "SOURCE GUERDJIMA",
    "type": "source",
    "temperature_c": 41.6,
    "debit_l_s": 1,
    "altitude_m": 647,
    "minerality": "SULFATEE CALCIQUE",
    "wilaya_code": "05",
    "wilaya_name": "BATNA",
    "commune_name": "GOSBATE",
    "lat": 35.5334444,
    "lng": 5.4787778,
    "source": "ASAL geoportail"
  },
  {
    "id": 211,
    "name": "FORAGE DE SAIDA",
    "type": "forage",
    "temperature_c": 63,
    "debit_l_s": 13,
    "altitude_m": 694,
    "minerality": "SULFATEE CALCIQUE",
    "wilaya_code": "05",
    "wilaya_name": "BATNA",
    "commune_name": "N'GAOUS",
    "lat": 35.5675139,
    "lng": 5.5632222,
    "source": "ASAL geoportail"
  },
  {
    "id": 212,
    "name": "FORAGE AOUINET EL KEBRIT",
    "type": "forage",
    "temperature_c": 21,
    "debit_l_s": 10,
    "altitude_m": 945,
    "minerality": "SULFATEE CALCIQUE",
    "wilaya_code": "34",
    "wilaya_name": "BORDJ BOU ARRERIDJ",
    "commune_name": "EL EUCH",
    "lat": 35.9530556,
    "lng": 4.67,
    "source": "ASAL geoportail"
  },
  {
    "id": 213,
    "name": "SOURCE NAKHLAT OULED CHBIL",
    "type": "source",
    "temperature_c": 25,
    "debit_l_s": 0.9,
    "altitude_m": 857,
    "minerality": "SULFATEE CALCIQUE",
    "wilaya_code": "34",
    "wilaya_name": "BORDJ BOU ARRERIDJ",
    "commune_name": "BENDAOUD",
    "lat": 36.0925,
    "lng": 4.2091667,
    "source": "ASAL geoportail"
  },
  {
    "id": 214,
    "name": "SOURCE ZERDANE",
    "type": "source",
    "temperature_c": 25,
    "debit_l_s": 0.85,
    "altitude_m": 973,
    "minerality": "SULFATEE CALCIQUE",
    "wilaya_code": "28",
    "wilaya_name": "BORDJ BOU ARRERIDJ",
    "commune_name": "BENDAOUD",
    "lat": 36.0225,
    "lng": 4.0838889,
    "source": "ASAL geoportail"
  },
  {
    "id": 215,
    "name": "SOURCE NAKHLET LAAREF (AIN BOU NOUEL)",
    "type": "source",
    "temperature_c": 25,
    "debit_l_s": 0.4,
    "altitude_m": 1097,
    "minerality": "SULFATEE CALCIQUE",
    "wilaya_code": "34",
    "wilaya_name": "BORDJ BOU ARRERIDJ",
    "commune_name": "BENDAOUD",
    "lat": 36.0919444,
    "lng": 4.1419444,
    "source": "ASAL geoportail"
  },
  {
    "id": 216,
    "name": "HAMMAM OULED  ALI DEFLA",
    "type": "hammam",
    "temperature_c": 55.3,
    "debit_l_s": 18.5,
    "altitude_m": 214,
    "minerality": "SULFATEE CALCIQUE",
    "wilaya_code": "24",
    "wilaya_name": "GUELMA",
    "commune_name": "HELIOPOLICE",
    "lat": 36.575,
    "lng": 7.3816667,
    "source": "ASAL geoportail"
  },
  {
    "id": 217,
    "name": "HAMMAM OULED ALI NAKHLA",
    "type": "hammam",
    "temperature_c": 55.7,
    "debit_l_s": 25,
    "altitude_m": 212,
    "minerality": "SULFATEE CALCIQUE",
    "wilaya_code": "24",
    "wilaya_name": "GUELMA",
    "commune_name": "HELIOPOLICE",
    "lat": 36.575,
    "lng": 7.3811111,
    "source": "ASAL geoportail"
  },
  {
    "id": 218,
    "name": "HAMMAM OULED ALI NAKHLATEIN",
    "type": "hammam",
    "temperature_c": 55.7,
    "debit_l_s": 20,
    "altitude_m": 212,
    "minerality": "SULFATEE CALCIQUE",
    "wilaya_code": "24",
    "wilaya_name": "GUELMA",
    "commune_name": "HELIOPOLICE",
    "lat": 36.575,
    "lng": 7.3808333,
    "source": "ASAL geoportail"
  },
  {
    "id": 219,
    "name": "HAMMAM GUERFA BELHACHANI",
    "type": "hammam",
    "temperature_c": 63,
    "debit_l_s": 3,
    "altitude_m": 710.3,
    "minerality": "SULFATEE CALCIQUE",
    "wilaya_code": "41",
    "wilaya_name": "GUELMA",
    "commune_name": "AIN LARBI",
    "lat": 36.2349833,
    "lng": 7.3372167,
    "source": "ASAL geoportail"
  },
  {
    "id": 220,
    "name": "HAMMAM GUERFA APC",
    "type": "hammam",
    "temperature_c": 67,
    "debit_l_s": 4,
    "altitude_m": 688.7,
    "minerality": "SULFATEE CALCIQUE",
    "wilaya_code": "24",
    "wilaya_name": "GUELMA",
    "commune_name": "AIN LARBI",
    "lat": 36.2463,
    "lng": 7.3394333,
    "source": "ASAL geoportail"
  },
  {
    "id": 221,
    "name": "HAMMAM ASSALHINE",
    "type": "hammam",
    "temperature_c": 60.1,
    "debit_l_s": 30,
    "altitude_m": 1086,
    "minerality": "SULFATEE CALCIQUE",
    "wilaya_code": "40",
    "wilaya_name": "KHENCHLA",
    "commune_name": "EL HAMMA",
    "lat": 35.4380278,
    "lng": 7.0861944,
    "source": "ASAL geoportail"
  },
  {
    "id": 222,
    "name": "HAMMAM GUERGOUR",
    "type": "hammam",
    "temperature_c": 45,
    "debit_l_s": 18,
    "altitude_m": 695,
    "minerality": "SULFATEE CALCIQUE",
    "wilaya_code": "19",
    "wilaya_name": "SETIF",
    "commune_name": "HAMMAM GUERGUOUR",
    "lat": 36.3238889,
    "lng": 5.0552778,
    "source": "ASAL geoportail"
  },
  {
    "id": 223,
    "name": "SOURCE OULED TEBBENE ex SIDI MANSOUR",
    "type": "source",
    "temperature_c": 50,
    "debit_l_s": 25,
    "altitude_m": 1156,
    "minerality": "SULFATEE CALCIQUE",
    "wilaya_code": "19",
    "wilaya_name": "SETIF",
    "commune_name": "OULED TEBBENE",
    "lat": 35.7894444,
    "lng": 5.1255556,
    "source": "ASAL geoportail"
  },
  {
    "id": 224,
    "name": "HAMMAM SIDI YAHIA BEN TALEB",
    "type": "hammam",
    "temperature_c": 21,
    "debit_l_s": 1,
    "altitude_m": 504,
    "minerality": "SULFATEE CALCIQUE",
    "wilaya_code": "12",
    "wilaya_name": "TEBESSA",
    "commune_name": "EL MERIDJ",
    "lat": 35.9059722,
    "lng": 8.2463889,
    "source": "ASAL geoportail"
  },
  {
    "id": 225,
    "name": "THELLAT",
    "type": "source",
    "temperature_c": 34,
    "debit_l_s": 5.6,
    "altitude_m": 496,
    "minerality": "SULFATEE CALCIQUE",
    "wilaya_code": "10",
    "wilaya_name": "BOUMERDES",
    "commune_name": "AMMAL",
    "lat": 36.598611,
    "lng": 3.590417,
    "source": "ASAL geoportail"
  },
  {
    "id": 226,
    "name": "HAMMAM DJORDANI",
    "type": "hammam",
    "temperature_c": 20,
    "debit_l_s": 0.3,
    "altitude_m": 1105,
    "minerality": "SULFATEE CALCIQUE",
    "wilaya_code": "67",
    "wilaya_name": "MEDEA",
    "commune_name": "AIN BOUCIF",
    "lat": 35.887686,
    "lng": 3.168333,
    "source": "ASAL geoportail"
  },
  {
    "id": 227,
    "name": "AIN SIDI CHARFE",
    "type": "ain",
    "temperature_c": 38,
    "debit_l_s": 0.3,
    "altitude_m": 88,
    "minerality": "SULFATEE CALCIQUE",
    "wilaya_code": "29",
    "wilaya_name": "MOSTAGANEM",
    "commune_name": "SIRAT",
    "lat": 35.721596,
    "lng": 0.1866,
    "source": "ASAL geoportail"
  },
  {
    "id": 228,
    "name": "AIN BOUAAOKA",
    "type": "ain",
    "temperature_c": 29.8,
    "debit_l_s": 3,
    "altitude_m": 995,
    "minerality": "SULFATEE CALCIQUE",
    "wilaya_code": "20",
    "wilaya_name": "SAIDA",
    "commune_name": "AIN SKHOUNA",
    "lat": 34.496671,
    "lng": 0.851651,
    "source": "ASAL geoportail"
  },
  {
    "id": 229,
    "name": "BELQUEBOR",
    "type": "source",
    "temperature_c": 41,
    "debit_l_s": 40,
    "altitude_m": 378,
    "minerality": "SULFATEE CALCIQUE",
    "wilaya_code": "33",
    "wilaya_name": "ILLIZI",
    "commune_name": "BORDJ OMAR IDRIS",
    "lat": 28.663198,
    "lng": 6.513355,
    "source": "ASAL geoportail"
  },
  {
    "id": 230,
    "name": "TABANKOURT",
    "type": "source",
    "temperature_c": 44,
    "debit_l_s": 20,
    "altitude_m": 405,
    "minerality": "SULFATEE CALCIQUE",
    "wilaya_code": "33",
    "wilaya_name": "ILLIZI",
    "commune_name": "BORDJ OMAR IDRIS",
    "lat": 28.618445,
    "lng": 7.086182,
    "source": "ASAL geoportail"
  },
  {
    "id": 231,
    "name": "ADJANDO",
    "type": "source",
    "temperature_c": 43,
    "debit_l_s": 15,
    "altitude_m": 591,
    "minerality": "SULFATEE CALCIQUE",
    "wilaya_code": "33",
    "wilaya_name": "ILLIZI",
    "commune_name": "ILLIZI",
    "lat": 26.784741,
    "lng": 8.835276,
    "source": "ASAL geoportail"
  },
  {
    "id": 232,
    "name": "DJERABAA",
    "type": "source",
    "temperature_c": 24.7,
    "debit_l_s": 1,
    "altitude_m": 420,
    "minerality": "SULFATEE CALCIQUE ET MAGNESIENNE",
    "wilaya_code": "15",
    "wilaya_name": "M'SILA",
    "commune_name": "SOUMAA",
    "lat": 35.600331,
    "lng": 4.655095,
    "source": "ASAL geoportail"
  },
  {
    "id": 233,
    "name": "TAMARNA CHOUCHA",
    "type": "source",
    "temperature_c": 53,
    "debit_l_s": 200,
    "altitude_m": 54,
    "minerality": "SULFATEE CALCIQUE ET SODIQUE",
    "wilaya_code": "57",
    "wilaya_name": "EL OUED",
    "commune_name": "SIDI AMRANE",
    "lat": 33.45116,
    "lng": 5.981411,
    "source": "ASAL geoportail"
  },
  {
    "id": 234,
    "name": "HAMMAM OULED TEBBENE BENAKRI RACHID",
    "type": "hammam",
    "temperature_c": 48.6,
    "debit_l_s": 25,
    "altitude_m": 1172,
    "minerality": "SULFATEE CALCIQUE RICHE EN CHLOURES",
    "wilaya_code": "19",
    "wilaya_name": "SETIF",
    "commune_name": "OULED TEBBENE",
    "lat": 35.7969444,
    "lng": 5.1247222,
    "source": "ASAL geoportail"
  },
  {
    "id": 235,
    "name": "SOUK DJAMAA",
    "type": "source",
    "temperature_c": 22,
    "debit_l_s": 3,
    "altitude_m": 823,
    "minerality": "SULFATEE CARBONATEE",
    "wilaya_code": "26",
    "wilaya_name": "MEDEA",
    "commune_name": "SOUAGUI",
    "lat": 36.112116,
    "lng": 3.240591,
    "source": "ASAL geoportail"
  },
  {
    "id": 236,
    "name": "KNIF FORAGE",
    "type": "source",
    "temperature_c": 52,
    "debit_l_s": 8,
    "altitude_m": 1022,
    "minerality": "SULFATEE CHLORUREE CALCIQUE",
    "wilaya_code": "04",
    "wilaya_name": "KHENCHLA",
    "commune_name": "BAGHAI",
    "lat": 35.4883056,
    "lng": 7.2516389,
    "source": "ASAL geoportail"
  },
  {
    "id": 237,
    "name": "SIDI MEHDI II",
    "type": "source",
    "temperature_c": 56,
    "debit_l_s": 200,
    "altitude_m": 73,
    "minerality": "SULFATEE ET CHLORUREE SODIQUE",
    "wilaya_code": "55",
    "wilaya_name": "OUARGLA",
    "commune_name": "NEZLA",
    "lat": 33.056908,
    "lng": 6.105643,
    "source": "ASAL geoportail"
  },
  {
    "id": 238,
    "name": "SOUK LARBAA",
    "type": "source",
    "temperature_c": 36,
    "debit_l_s": 2,
    "altitude_m": 498,
    "minerality": "SULFATEE FERREE",
    "wilaya_code": "26",
    "wilaya_name": "MEDEA",
    "commune_name": "BENI SLIMANE",
    "lat": 36.264532,
    "lng": 3.384797,
    "source": "ASAL geoportail"
  },
  {
    "id": 239,
    "name": "BELARIBI",
    "type": "source",
    "temperature_c": 26.8,
    "debit_l_s": 20,
    "altitude_m": 555,
    "minerality": "SULFATEE MAGNESIENNE  ET CALCIQUE",
    "wilaya_code": "28",
    "wilaya_name": "M'SILA",
    "commune_name": "M'SILA",
    "lat": 35.827885,
    "lng": 4.569129,
    "source": "ASAL geoportail"
  },
  {
    "id": 240,
    "name": "SOURCE BOUZANI",
    "type": "source",
    "temperature_c": 19.9,
    "debit_l_s": 0.5,
    "altitude_m": 995,
    "minerality": "SULFATEE SODIQUE",
    "wilaya_code": "05",
    "wilaya_name": "BATNA",
    "commune_name": "OULED FADHEL",
    "lat": 35.5480278,
    "lng": 6.5874167,
    "source": "ASAL geoportail"
  },
  {
    "id": 241,
    "name": "SOURCE BOUGHENDJA",
    "type": "source",
    "temperature_c": 19.9,
    "debit_l_s": 0.5,
    "altitude_m": 990,
    "minerality": "SULFATEE SODIQUE",
    "wilaya_code": "05",
    "wilaya_name": "BATNA",
    "commune_name": "TIMGAD",
    "lat": 35.5080833,
    "lng": 6.5144167,
    "source": "ASAL geoportail"
  },
  {
    "id": 242,
    "name": "SOURCE ZENZANE",
    "type": "source",
    "temperature_c": 25,
    "debit_l_s": 0.4,
    "altitude_m": 857,
    "minerality": "SULFATEE SODIQUE",
    "wilaya_code": "34",
    "wilaya_name": "BORDJ BOU ARRERIDJ",
    "commune_name": "BENDAOUD",
    "lat": 36.0816667,
    "lng": 4.1963889,
    "source": "ASAL geoportail"
  },
  {
    "id": 243,
    "name": "SOURCE OULJET OUKHLIFA",
    "type": "source",
    "temperature_c": 25,
    "debit_l_s": 2,
    "altitude_m": 510,
    "minerality": "SULFATEE SODIQUE",
    "wilaya_code": "40",
    "wilaya_name": "KHENCHLA",
    "commune_name": "KHEIRINE",
    "lat": 34.9880556,
    "lng": 6.7452778,
    "source": "ASAL geoportail"
  },
  {
    "id": 244,
    "name": "SOURCE TAMARSSITE",
    "type": "source",
    "temperature_c": 29,
    "debit_l_s": 6,
    "altitude_m": 656,
    "minerality": "SULFATEE SODIQUE",
    "wilaya_code": "40",
    "wilaya_name": "KHENCHLA",
    "commune_name": "EL OULJA",
    "lat": 35.0289444,
    "lng": 6.75125,
    "source": "ASAL geoportail"
  },
  {
    "id": 245,
    "name": "HAMMAM MED BELAKHDAR",
    "type": "hammam",
    "temperature_c": 22,
    "debit_l_s": 4,
    "altitude_m": 841,
    "minerality": "SULFATEE SODIQUE",
    "wilaya_code": "26",
    "wilaya_name": "MEDEA",
    "commune_name": "SOUAGUI",
    "lat": 36.109911,
    "lng": 3.247351,
    "source": "ASAL geoportail"
  },
  {
    "id": 246,
    "name": "HAMMAM REBI",
    "type": "hammam",
    "temperature_c": 48,
    "debit_l_s": 7,
    "altitude_m": 706,
    "minerality": "SULFATEE SODIQUE",
    "wilaya_code": "20",
    "wilaya_name": "SAIDA",
    "commune_name": "OULED KHALED",
    "lat": 34.929906,
    "lng": 0.181914,
    "source": "ASAL geoportail"
  },
  {
    "id": 247,
    "name": "HAMMAM SIDI AISSA",
    "type": "hammam",
    "temperature_c": 48,
    "debit_l_s": 7,
    "altitude_m": 630,
    "minerality": "SULFATEE SODIQUE",
    "wilaya_code": "20",
    "wilaya_name": "SAIDA",
    "commune_name": "SIDI AMAR",
    "lat": 34.959211,
    "lng": 0.16636,
    "source": "ASAL geoportail"
  },
  {
    "id": 248,
    "name": "AIN SIDI BOUTAIBA",
    "type": "ain",
    "temperature_c": 24,
    "debit_l_s": 0.8,
    "altitude_m": 402,
    "minerality": "SULFATEE SODIQUE",
    "wilaya_code": "29",
    "wilaya_name": "MASCARA",
    "commune_name": "MAMOUNIA",
    "lat": 35.458237,
    "lng": 0.146927,
    "source": "ASAL geoportail"
  },
  {
    "id": 249,
    "name": "AIN CHAFIA",
    "type": "ain",
    "temperature_c": 38,
    "debit_l_s": 20,
    "altitude_m": 31,
    "minerality": "SULFATEE SODIQUE",
    "wilaya_code": "29",
    "wilaya_name": "MASCARA",
    "commune_name": "BOU-HENNI",
    "lat": 35.6595,
    "lng": -0.0432778,
    "source": "ASAL geoportail"
  },
  {
    "id": 250,
    "name": "ROKNET EL METHNAN",
    "type": "source",
    "temperature_c": 30,
    "debit_l_s": 7,
    "altitude_m": 985,
    "minerality": "SULFATEE SODIQUE",
    "wilaya_code": "20",
    "wilaya_name": "EL BAYADH",
    "commune_name": "ROGASSA",
    "lat": 34.286982,
    "lng": 0.967406,
    "source": "ASAL geoportail"
  },
  {
    "id": 251,
    "name": "HAOUD TMER",
    "type": "source",
    "temperature_c": 54,
    "debit_l_s": 80,
    "altitude_m": 160,
    "minerality": "SULFATEE SODIQUE",
    "wilaya_code": "30",
    "wilaya_name": "OUARGLA",
    "commune_name": "HASSI MESSAOUD",
    "lat": 31.693595,
    "lng": 5.816091,
    "source": "ASAL geoportail"
  },
  {
    "id": 252,
    "name": "HAOUED EL AMER",
    "type": "source",
    "temperature_c": 55,
    "debit_l_s": 118,
    "altitude_m": 185,
    "minerality": "SULFATEE SODIQUE",
    "wilaya_code": "30",
    "wilaya_name": "OUARGLA",
    "commune_name": "NGOUSSA",
    "lat": 32.152642,
    "lng": 5.232413,
    "source": "ASAL geoportail"
  },
  {
    "id": 253,
    "name": "HASSI BEN ADELLAH III",
    "type": "source",
    "temperature_c": 52,
    "debit_l_s": 200,
    "altitude_m": 150,
    "minerality": "SULFATEE SODIQUE",
    "wilaya_code": "30",
    "wilaya_name": "OUARGLA",
    "commune_name": "HASSI BEN ADELLAH",
    "lat": 32.048223,
    "lng": 5.504519,
    "source": "ASAL geoportail"
  },
  {
    "id": 254,
    "name": "HASSI BEN ADELLAH IV",
    "type": "source",
    "temperature_c": 52,
    "debit_l_s": 200,
    "altitude_m": 148,
    "minerality": "SULFATEE SODIQUE",
    "wilaya_code": "30",
    "wilaya_name": "OUARGLA",
    "commune_name": "HASSI BEN ADELLAH",
    "lat": 31.997589,
    "lng": 5.467977,
    "source": "ASAL geoportail"
  },
  {
    "id": 255,
    "name": "HASSI BEN ADELLAH",
    "type": "source",
    "temperature_c": 52,
    "debit_l_s": 200,
    "altitude_m": 135,
    "minerality": "SULFATEE SODIQUE",
    "wilaya_code": "30",
    "wilaya_name": "OUARGLA",
    "commune_name": "HASSI BEN ADELLAH",
    "lat": 32.023104,
    "lng": 5.466999,
    "source": "ASAL geoportail"
  },
  {
    "id": 256,
    "name": "MEGGARINE",
    "type": "source",
    "temperature_c": 56,
    "debit_l_s": 200,
    "altitude_m": 60,
    "minerality": "SULFATEE SODIQUE",
    "wilaya_code": "55",
    "wilaya_name": "OUARGLA",
    "commune_name": "MEGGARINE",
    "lat": 33.189411,
    "lng": 6.079664,
    "source": "ASAL geoportail"
  },
  {
    "id": 257,
    "name": "ROUISSAT",
    "type": "source",
    "temperature_c": 53,
    "debit_l_s": 200,
    "altitude_m": 0,
    "minerality": "SULFATEE SODIQUE",
    "wilaya_code": "30",
    "wilaya_name": "OUARGLA",
    "commune_name": "ROUISSAT",
    "lat": 31.906993,
    "lng": 5.377524,
    "source": "ASAL geoportail"
  },
  {
    "id": 258,
    "name": "SIDI MEHDI III",
    "type": "source",
    "temperature_c": 56,
    "debit_l_s": 250,
    "altitude_m": 75,
    "minerality": "SULFATEE SODIQUE",
    "wilaya_code": "55",
    "wilaya_name": "OUARGLA",
    "commune_name": "NEZLA",
    "lat": 33.057634,
    "lng": 6.103512,
    "source": "ASAL geoportail"
  },
  {
    "id": 259,
    "name": "SIDI SLIMANE",
    "type": "source",
    "temperature_c": 56,
    "debit_l_s": 150,
    "altitude_m": 52,
    "minerality": "SULFATEE SODIQUE",
    "wilaya_code": "55",
    "wilaya_name": "OUARGLA",
    "commune_name": "SIDI SLIMANE",
    "lat": 33.281795,
    "lng": 6.118318,
    "source": "ASAL geoportail"
  },
  {
    "id": 260,
    "name": "TAIBET",
    "type": "source",
    "temperature_c": 62,
    "debit_l_s": 200,
    "altitude_m": 105,
    "minerality": "SULFATEE SODIQUE",
    "wilaya_code": "55",
    "wilaya_name": "OUARGLA",
    "commune_name": "TAIBET",
    "lat": 33.096115,
    "lng": 6.379261,
    "source": "ASAL geoportail"
  },
  {
    "id": 261,
    "name": "TIMACINE",
    "type": "source",
    "temperature_c": 55,
    "debit_l_s": 200,
    "altitude_m": 75,
    "minerality": "SULFATEE SODIQUE",
    "wilaya_code": "55",
    "wilaya_name": "OUARGLA",
    "commune_name": "TIMACINE",
    "lat": 32.99621,
    "lng": 5.995374,
    "source": "ASAL geoportail"
  },
  {
    "id": 262,
    "name": "HAMMAM CHINIGUEL",
    "type": "hammam",
    "temperature_c": 22,
    "debit_l_s": 0.4,
    "altitude_m": 743,
    "minerality": "SULFATEE SODIQUE",
    "wilaya_code": "67",
    "wilaya_name": "MEDEA",
    "commune_name": "CHENIGUEL",
    "lat": 35.916331,
    "lng": 3.598077,
    "source": "ASAL geoportail"
  },
  {
    "id": 263,
    "name": "HAMMAM DIALEM",
    "type": "hammam",
    "temperature_c": 30.7,
    "debit_l_s": 15,
    "altitude_m": 476,
    "minerality": "SULFATEE SODIQUE",
    "wilaya_code": "28",
    "wilaya_name": "M'SILA",
    "commune_name": "OULED ADI LAGBALA",
    "lat": 35.595833,
    "lng": 4.843389,
    "source": "ASAL geoportail"
  },
  {
    "id": 264,
    "name": "AIN AMMAR",
    "type": "ain",
    "temperature_c": 56,
    "debit_l_s": 100,
    "altitude_m": 170,
    "minerality": "SULFATEE SODIQUE",
    "wilaya_code": "30",
    "wilaya_name": "OUARGLA",
    "commune_name": "AIN BEIDA",
    "lat": 31.781366,
    "lng": 5.850417,
    "source": "ASAL geoportail"
  },
  {
    "id": 265,
    "name": "AIN MOUDJAHIDINE",
    "type": "ain",
    "temperature_c": 58,
    "debit_l_s": 150,
    "altitude_m": 169,
    "minerality": "SULFATEE SODIQUE",
    "wilaya_code": "30",
    "wilaya_name": "OUARGLA",
    "commune_name": "HASSI MESSAOUD",
    "lat": 31.634559,
    "lng": 5.95043,
    "source": "ASAL geoportail"
  },
  {
    "id": 266,
    "name": "AIN SAHRA II",
    "type": "ain",
    "temperature_c": 56,
    "debit_l_s": 152,
    "altitude_m": 77,
    "minerality": "SULFATEE SODIQUE",
    "wilaya_code": "55",
    "wilaya_name": "OUARGLA",
    "commune_name": "NEZLA",
    "lat": 33.080059,
    "lng": 6.03694,
    "source": "ASAL geoportail"
  },
  {
    "id": 267,
    "name": "AIN SAHRA",
    "type": "ain",
    "temperature_c": 53,
    "debit_l_s": 200,
    "altitude_m": 85,
    "minerality": "SULFATEE SODIQUE",
    "wilaya_code": "55",
    "wilaya_name": "OUARGLA",
    "commune_name": "NEZLA",
    "lat": 33.076422,
    "lng": 6.048134,
    "source": "ASAL geoportail"
  },
  {
    "id": 268,
    "name": "BEN NACER",
    "type": "source",
    "temperature_c": 60,
    "debit_l_s": 160,
    "altitude_m": 70,
    "minerality": "SULFATEE SODIQUE",
    "wilaya_code": "55",
    "wilaya_name": "OUARGLA",
    "commune_name": "BEN NACER",
    "lat": 33.102999,
    "lng": 6.441082,
    "source": "ASAL geoportail"
  },
  {
    "id": 269,
    "name": "HASSI EL BAADJ",
    "type": "source",
    "temperature_c": 53,
    "debit_l_s": 80,
    "altitude_m": 116,
    "minerality": "SULFATEE SODIQUE",
    "wilaya_code": "55",
    "wilaya_name": "OUARGLA",
    "commune_name": "HASSI BEN ABDELAH",
    "lat": 32.403557,
    "lng": 6.049807,
    "source": "ASAL geoportail"
  },
  {
    "id": 270,
    "name": "EL GUEDDACHI1",
    "type": "source",
    "temperature_c": 55,
    "debit_l_s": 150,
    "altitude_m": 140,
    "minerality": "SULFATEE SODIQUE",
    "wilaya_code": "55",
    "wilaya_name": "OUARGLA",
    "commune_name": "EL HADJIRA",
    "lat": 32.575107,
    "lng": 5.69323,
    "source": "ASAL geoportail"
  },
  {
    "id": 271,
    "name": "EL HADEB II",
    "type": "source",
    "temperature_c": 53,
    "debit_l_s": 200,
    "altitude_m": 150,
    "minerality": "SULFATEE SODIQUE",
    "wilaya_code": "30",
    "wilaya_name": "OUARGLA",
    "commune_name": "ROUISSAT",
    "lat": 31.921684,
    "lng": 5.375597,
    "source": "ASAL geoportail"
  },
  {
    "id": 272,
    "name": "EL  HARHIRA",
    "type": "source",
    "temperature_c": 52,
    "debit_l_s": 150,
    "altitude_m": 60,
    "minerality": "SULFATEE SODIQUE",
    "wilaya_code": "55",
    "wilaya_name": "OUARGLA",
    "commune_name": "MEGGARINE",
    "lat": 33.226156,
    "lng": 6.055499,
    "source": "ASAL geoportail"
  },
  {
    "id": 273,
    "name": "EL MIR",
    "type": "source",
    "temperature_c": 56,
    "debit_l_s": 150,
    "altitude_m": 132,
    "minerality": "SULFATEE SODIQUE",
    "wilaya_code": "55",
    "wilaya_name": "OUARGLA",
    "commune_name": "EL HADJIRA",
    "lat": 32.662509,
    "lng": 5.503023,
    "source": "ASAL geoportail"
  },
  {
    "id": 274,
    "name": "EL MOUSTAKBEL",
    "type": "source",
    "temperature_c": 58,
    "debit_l_s": 166,
    "altitude_m": 70,
    "minerality": "SULFATEE SODIQUE",
    "wilaya_code": "55",
    "wilaya_name": "OUARGLA",
    "commune_name": "TOGGOURT",
    "lat": 33.120898,
    "lng": 6.066995,
    "source": "ASAL geoportail"
  },
  {
    "id": 275,
    "name": "EL ALIA",
    "type": "source",
    "temperature_c": 50,
    "debit_l_s": 175,
    "altitude_m": 139,
    "minerality": "SULFATEE SODIQUE",
    "wilaya_code": "55",
    "wilaya_name": "OUARGLA",
    "commune_name": "EL ALIA",
    "lat": 32.673886,
    "lng": 5.443318,
    "source": "ASAL geoportail"
  },
  {
    "id": 276,
    "name": "GASSI TOUIL 3",
    "type": "source",
    "temperature_c": 21,
    "debit_l_s": 130,
    "altitude_m": 173,
    "minerality": "SULFATEE SODIQUE",
    "wilaya_code": "30",
    "wilaya_name": "OUARGLA",
    "commune_name": "HASSI MESSAOUD",
    "lat": 30.867953,
    "lng": 6.510134,
    "source": "ASAL geoportail"
  },
  {
    "id": 277,
    "name": "GASSI TOUIL 4",
    "type": "source",
    "temperature_c": 48,
    "debit_l_s": 180,
    "altitude_m": 172,
    "minerality": "SULFATEE SODIQUE",
    "wilaya_code": "30",
    "wilaya_name": "OUARGLA",
    "commune_name": "HASSI MESSAOUD",
    "lat": 30.908213,
    "lng": 6.486645,
    "source": "ASAL geoportail"
  },
  {
    "id": 278,
    "name": "HAMMAM OULED BOUSHAB",
    "type": "hammam",
    "temperature_c": 20.5,
    "debit_l_s": 0.3,
    "altitude_m": 868,
    "minerality": "SULFATEE SODIQUE ET CHLORUREE CALCIQUE",
    "wilaya_code": "34",
    "wilaya_name": "BORDJ BOU ARRERIDJ",
    "commune_name": "EL HAMADIA",
    "lat": 36.0033333,
    "lng": 4.7322222,
    "source": "ASAL geoportail"
  },
  {
    "id": 279,
    "name": "KNIF (VAPEUR)",
    "type": "source",
    "temperature_c": 0,
    "debit_l_s": 0,
    "altitude_m": 1066,
    "wilaya_code": "04",
    "wilaya_name": "KHENCHLA",
    "commune_name": "BAGHAI",
    "lat": 35.4864167,
    "lng": 7.2555278,
    "source": "ASAL geoportail"
  },
  {
    "id": 280,
    "name": "AIN FEZZA",
    "type": "ain",
    "temperature_c": 17,
    "debit_l_s": 10,
    "altitude_m": 846,
    "wilaya_code": "13",
    "wilaya_name": "TLEMCEN",
    "commune_name": "AIN FEZZA",
    "lat": 34.883749,
    "lng": -1.23811,
    "source": "ASAL geoportail"
  },
  {
    "id": 281,
    "name": "AIN LALLA SETTI",
    "type": "ain",
    "temperature_c": 0,
    "debit_l_s": 0,
    "altitude_m": 0,
    "wilaya_code": "31",
    "wilaya_name": "ORAN",
    "commune_name": "ARZEW",
    "lat": 35.862956,
    "lng": -0.319784,
    "source": "ASAL geoportail"
  },
  {
    "id": 282,
    "name": "HAMMAM METAHRA",
    "type": "hammam",
    "temperature_c": 28,
    "debit_l_s": 4,
    "altitude_m": 0,
    "wilaya_code": "48",
    "wilaya_name": "RELIZANE",
    "commune_name": "HAD ECHAKALA",
    "lat": 35.666142,
    "lng": 1.10974,
    "source": "ASAL geoportail"
  }
]