[
  {
    "id": "1",
    "name": "FORAGE DAR OUAD",
    "wilaya_code": "43",
    "commune_code": null,
    "commune": "BENI H'MIDENE",
    "lat": 36.4625,
    "lng": 6.4827778,
    "geo_precision": "exact",
    "geo_method": "asal",
    "source": "asal",
    "type": "forage",
    "temperature_c": 32,
    "debit_l_s": 15,
    "altitude_m": 423,
    "minerality": "BICARBONATEE CALCIQUE"
  },
  {
    "id": "10",
    "name": "SIDI SAID",
    "wilaya_code": "02",
    "commune_code": null,
    "commune": "BOUKADIR",
    "lat": 36.016467,
    "lng": 1.196496,
    "geo_precision": "exact",
    "geo_method": "asal",
    "source": "asal",
    "type": "source",
    "temperature_c": 24,
    "debit_l_s": 0.13,
    "altitude_m": 235,
    "minerality": "BICARBONATEE CALCIQUE"
  },
  {
    "id": "100",
    "name": "HASSI EL KHFIF",
    "wilaya_code": "55",
    "commune_code": null,
    "commune": "NGOUSSA",
    "lat": 32.438263,
    "lng": 5.356984,
    "geo_precision": "exact",
    "geo_method": "asal",
    "source": "asal",
    "type": "source",
    "temperature_c": 53,
    "debit_l_s": 120,
    "altitude_m": 105,
    "minerality": "CHLORUREE ET SULFATEE SODIQUE"
  },
  {
    "id": "101",
    "name": "EL DJAR 01",
    "wilaya_code": "51",
    "commune_code": null,
    "commune": "FOUGHALA",
    "lat": 34.413611,
    "lng": 5.034528,
    "geo_precision": "exact",
    "geo_method": "asal",
    "source": "asal",
    "type": "source",
    "temperature_c": 52.7,
    "debit_l_s": 40,
    "altitude_m": 194,
    "minerality": "CHLORUREE ET SULFATEE SODIQUE ET CALCIQUE"
  },
  {
    "id": "102",
    "name": "HEMOUNA",
    "wilaya_code": "02",
    "commune_code": null,
    "commune": "OULED BEN ABDELKADER",
    "lat": 36.031062,
    "lng": 1.27802,
    "geo_precision": "exact",
    "geo_method": "asal",
    "source": "asal",
    "type": "source",
    "temperature_c": 22,
    "debit_l_s": 0,
    "altitude_m": 164,
    "minerality": "CHLORUREE MAGNESIENNE"
  },
  {
    "id": "103",
    "name": "HAMMAM MALHA",
    "wilaya_code": "48",
    "commune_code": null,
    "commune": "OUED ESSLEM",
    "lat": 35.593015,
    "lng": 0.897667,
    "geo_precision": "exact",
    "geo_method": "asal",
    "source": "asal",
    "type": "hammam",
    "temperature_c": 28,
    "debit_l_s": 7,
    "altitude_m": 495,
    "minerality": "CHLORUREE MAGNESIENNE"
  },
  {
    "id": "104",
    "name": "HAMMAM BENI YASSAAD",
    "wilaya_code": "48",
    "commune_code": null,
    "commune": "MENDES",
    "lat": 35.627617,
    "lng": 0.97279,
    "geo_precision": "exact",
    "geo_method": "asal",
    "source": "asal",
    "type": "hammam",
    "temperature_c": 30,
    "debit_l_s": 6,
    "altitude_m": 530,
    "minerality": "CHLORUREE MAGNESIENNE"
  },
  {
    "id": "105",
    "name": "HAMMAM YAKHSAS",
    "wilaya_code": "48",
    "commune_code": null,
    "commune": "SIDI KHATTAB",
    "lat": 35.968489,
    "lng": 0.515219,
    "geo_precision": "exact",
    "geo_method": "asal",
    "source": "asal",
    "type": "hammam",
    "temperature_c": 38,
    "debit_l_s": 5,
    "altitude_m": 40,
    "minerality": "CHLORUREE MAGNESIENNE"
  },
  {
    "id": "106",
    "name": "HAMMAM LABES",
    "wilaya_code": "48",
    "commune_code": null,
    "commune": "SIDI KHATTAB",
    "lat": 35.872406,
    "lng": 0.591427,
    "geo_precision": "exact",
    "geo_method": "asal",
    "source": "asal",
    "type": "hammam",
    "temperature_c": 38,
    "debit_l_s": 4,
    "altitude_m": 41,
    "minerality": "CHLORUREE MAGNESIENNE"
  },
  {
    "id": "107",
    "name": "AIN EL GASRIA",
    "wilaya_code": "48",
    "commune_code": null,
    "commune": "EL GUETTAR",
    "lat": 36.064209,
    "lng": 0.831126,
    "geo_precision": "exact",
    "geo_method": "asal",
    "source": "asal",
    "type": "ain",
    "temperature_c": 38,
    "debit_l_s": 4,
    "altitude_m": 429,
    "minerality": "CHLORUREE MAGNESIENNE"
  },
  {
    "id": "108",
    "name": "HAMMAM N'BAILS EL MINA",
    "wilaya_code": "24",
    "commune_code": null,
    "commune": "HAMMAM N'BAILS",
    "lat": 36.3257667,
    "lng": 7.6450333,
    "geo_precision": "exact",
    "geo_method": "asal",
    "source": "asal",
    "type": "hammam",
    "temperature_c": 42.2,
    "debit_l_s": 6,
    "altitude_m": 457.2,
    "minerality": "CHLORUREE SODIQUE"
  },
  {
    "id": "109",
    "name": "HAMMAM DBEGH AIN CHEFFA",
    "wilaya_code": "24",
    "commune_code": null,
    "commune": "HAMMAM DEBAGH",
    "lat": 36.4605556,
    "lng": 7.2694444,
    "geo_precision": "exact",
    "geo_method": "asal",
    "source": "asal",
    "type": "hammam",
    "temperature_c": 71.5,
    "debit_l_s": 12,
    "altitude_m": 274,
    "minerality": "CHLORUREE SODIQUE"
  },
  {
    "id": "11",
    "name": "AIN KADHI",
    "wilaya_code": "02",
    "commune_code": null,
    "commune": "LABIODH MEDJADJA",
    "lat": 36.265099,
    "lng": 1.355854,
    "geo_precision": "exact",
    "geo_method": "asal",
    "source": "asal",
    "type": "ain",
    "temperature_c": 22,
    "debit_l_s": 0.12,
    "altitude_m": 522,
    "minerality": "BICARBONATEE CALCIQUE"
  },
  {
    "id": "110",
    "name": "HAMMAM DEBEGH BENADJI",
    "wilaya_code": "24",
    "commune_code": null,
    "commune": "HAMMAM DEBEGH",
    "lat": 36.4647222,
    "lng": 7.2747222,
    "geo_precision": "exact",
    "geo_method": "asal",
    "source": "asal",
    "type": "hammam",
    "temperature_c": 91,
    "debit_l_s": 7,
    "altitude_m": 305,
    "minerality": "CHLORUREE SODIQUE"
  },
  {
    "id": "111",
    "name": "HAMMAM DEBEGH CASCADE",
    "wilaya_code": "24",
    "commune_code": null,
    "commune": "HAMMAM DEBEGH",
    "lat": 36.46,
    "lng": 7.27,
    "geo_precision": "exact",
    "geo_method": "asal",
    "source": "asal",
    "type": "hammam",
    "temperature_c": 95,
    "debit_l_s": 25,
    "altitude_m": 303,
    "minerality": "CHLORUREE SODIQUE"
  },
  {
    "id": "112",
    "name": "HAMMAM DEBEGH CHEDAKHA",
    "wilaya_code": "24",
    "commune_code": null,
    "commune": "HAMMAM DEBEGH",
    "lat": 36.2127778,
    "lng": 7.2677778,
    "geo_precision": "exact",
    "geo_method": "asal",
    "source": "asal",
    "type": "hammam",
    "temperature_c": 97,
    "debit_l_s": 25,
    "altitude_m": 342,
    "minerality": "CHLORUREE SODIQUE"
  },
  {
    "id": "113",
    "name": "HAMMAM SOKHNA",
    "wilaya_code": "19",
    "commune_code": null,
    "commune": "HAMMAM SOKHNA",
    "lat": 35.9836111,
    "lng": 5.8108333,
    "geo_precision": "exact",
    "geo_method": "asal",
    "source": "asal",
    "type": "hammam",
    "temperature_c": 45,
    "debit_l_s": 35,
    "altitude_m": 900,
    "minerality": "CHLORUREE SODIQUE"
  },
  {
    "id": "114",
    "name": "DAMSSA",
    "wilaya_code": "12",
    "commune_code": null,
    "commune": "TAOURA",
    "lat": 36.0564194,
    "lng": 8.1487167,
    "geo_precision": "exact",
    "geo_method": "asal",
    "source": "asal",
    "type": "source",
    "temperature_c": 25,
    "debit_l_s": 4,
    "altitude_m": 534,
    "minerality": "CHLORUREE SODIQUE"
  },
  {
    "id": "115",
    "name": "TESSA",
    "wilaya_code": "41",
    "commune_code": null,
    "commune": "OUILEN",
    "lat": 36.2186667,
    "lng": 8.04415,
    "geo_precision": "exact",
    "geo_method": "asal",
    "source": "asal",
    "type": "source",
    "temperature_c": 39.6,
    "debit_l_s": 3,
    "altitude_m": 650,
    "minerality": "CHLORUREE SODIQUE"
  },
  {
    "id": "116",
    "name": "HAMMAM EL HALFA",
    "wilaya_code": "10",
    "commune_code": null,
    "commune": "EL HACHEMIA",
    "lat": 36.598611,
    "lng": 3.590417,
    "geo_precision": "exact",
    "geo_method": "asal",
    "source": "asal",
    "type": "hammam",
    "temperature_c": 1.1,
    "debit_l_s": 62,
    "altitude_m": 600,
    "minerality": "CHLORUREE SODIQUE"
  },
  {
    "id": "117",
    "name": "AIN EL KATTAR\n (EL CHAOUADRIA)",
    "wilaya_code": "10",
    "commune_code": null,
    "commune": "EL HACHEMIA",
    "lat": 36.598611,
    "lng": 3.590417,
    "geo_precision": "exact",
    "geo_method": "asal",
    "source": "asal",
    "type": "ain",
    "temperature_c": 0.8,
    "debit_l_s": 25.6,
    "altitude_m": 821,
    "minerality": "CHLORUREE SODIQUE"
  },
  {
    "id": "118",
    "name": "HAMMAM SILLAL",
    "wilaya_code": "06",
    "commune_code": null,
    "commune": "TIFRA",
    "lat": 36.649776,
    "lng": 4.672398,
    "geo_precision": "exact",
    "geo_method": "asal",
    "source": "asal",
    "type": "hammam",
    "temperature_c": 47.3,
    "debit_l_s": 5,
    "altitude_m": 330,
    "minerality": "CHLORUREE SODIQUE"
  },
  {
    "id": "119",
    "name": "HAMMAM SIDI YAHIA AL AIDLI",
    "wilaya_code": "06",
    "commune_code": null,
    "commune": "BOUHAMZA",
    "lat": 36.410643,
    "lng": 4.588115,
    "geo_precision": "exact",
    "geo_method": "asal",
    "source": "asal",
    "type": "hammam",
    "temperature_c": 45.8,
    "debit_l_s": 3,
    "altitude_m": 245,
    "minerality": "CHLORUREE SODIQUE"
  },
  {
    "id": "12",
    "name": "AIN BOUZIANE",
    "wilaya_code": "02",
    "commune_code": null,
    "commune": "LABIODH MEDJADJA",
    "lat": 36.250356,
    "lng": 1.3516,
    "geo_precision": "exact",
    "geo_method": "asal",
    "source": "asal",
    "type": "ain",
    "temperature_c": 20,
    "debit_l_s": 0.1,
    "altitude_m": 405,
    "minerality": "BICARBONATEE CALCIQUE"
  },
  {
    "id": "120",
    "name": "HAMMAM BEZZEZ",
    "wilaya_code": "26",
    "commune_code": null,
    "commune": "SOUAGUI",
    "lat": 36.086886,
    "lng": 3.197763,
    "geo_precision": "exact",
    "geo_method": "asal",
    "source": "asal",
    "type": "hammam",
    "temperature_c": 22,
    "debit_l_s": 8,
    "altitude_m": 733,
    "minerality": "CHLORUREE SODIQUE"
  },
  {
    "id": "121",
    "name": "HAMMAM TOUAUSSA",
    "wilaya_code": "26",
    "commune_code": null,
    "commune": "TABLAT",
    "lat": 36.437157,
    "lng": 3.287958,
    "geo_precision": "exact",
    "geo_method": "asal",
    "source": "asal",
    "type": "hammam",
    "temperature_c": 21,
    "debit_l_s": 1,
    "altitude_m": 500,
    "minerality": "CHLORUREE SODIQUE"
  },
  {
    "id": "122",
    "name": "HAMMAM M'NATEN",
    "wilaya_code": "26",
    "commune_code": null,
    "commune": "ZOUBIRIA",
    "lat": 36.04174,
    "lng": 2.898663,
    "geo_precision": "exact",
    "geo_method": "asal",
    "source": "asal",
    "type": "hammam",
    "temperature_c": 22,
    "debit_l_s": 0.2,
    "altitude_m": 700,
    "minerality": "CHLORUREE SODIQUE"
  },
  {
    "id": "123",
    "name": "AIN EL MALHA",
    "wilaya_code": "26",
    "commune_code": null,
    "commune": "OUED HARBIL",
    "lat": 36.210472,
    "lng": 2.648675,
    "geo_precision": "exact",
    "geo_method": "asal",
    "source": "asal",
    "type": "ain",
    "temperature_c": 20,
    "debit_l_s": 0.4,
    "altitude_m": 485,
    "minerality": "CHLORUREE SODIQUE"
  },
  {
    "id": "124",
    "name": "AOUINET EL BARAKA",
    "wilaya_code": "09",
    "commune_code": null,
    "commune": "HAMMAM MELOUANE",
    "lat": 36.483889,
    "lng": 3.041944,
    "geo_precision": "exact",
    "geo_method": "asal",
    "source": "asal",
    "type": "ain",
    "temperature_c": 32,
    "debit_l_s": 0.9,
    "altitude_m": 213,
    "minerality": "CHLORUREE SODIQUE"
  },
  {
    "id": "125",
    "name": "MOUILHA",
    "wilaya_code": "09",
    "commune_code": null,
    "commune": "L'ARBA",
    "lat": 36.527222,
    "lng": 3.176111,
    "geo_precision": "exact",
    "geo_method": "asal",
    "source": "asal",
    "type": "source",
    "temperature_c": 24,
    "debit_l_s": 0.7,
    "altitude_m": 174,
    "minerality": "CHLORUREE SODIQUE"
  },
  {
    "id": "126",
    "name": "TIHAMAMINE",
    "wilaya_code": "09",
    "commune_code": null,
    "commune": "HAMMAM MELOUANE",
    "lat": 36.488056,
    "lng": 3.052778,
    "geo_precision": "exact",
    "geo_method": "asal",
    "source": "asal",
    "type": "source",
    "temperature_c": 32,
    "debit_l_s": 0.6,
    "altitude_m": 173,
    "minerality": "CHLORUREE SODIQUE"
  },
  {
    "id": "127",
    "name": "HAMMAM SERGUINE",
    "wilaya_code": "14",
    "commune_code": null,
    "commune": "SERGUINE",
    "lat": 35.293626,
    "lng": 1.503981,
    "geo_precision": "exact",
    "geo_method": "asal",
    "source": "asal",
    "type": "hammam",
    "temperature_c": 39,
    "debit_l_s": 5,
    "altitude_m": 785,
    "minerality": "CHLORUREE SODIQUE"
  },
  {
    "id": "128",
    "name": "SID EL HADJ",
    "wilaya_code": "14",
    "commune_code": null,
    "commune": "SIDI HOSNI",
    "lat": 35.483848,
    "lng": 1.476766,
    "geo_precision": "exact",
    "geo_method": "asal",
    "source": "asal",
    "type": "source",
    "temperature_c": 21.6,
    "debit_l_s": 0.5,
    "altitude_m": 676,
    "minerality": "CHLORUREE SODIQUE"
  },
  {
    "id": "129",
    "name": "HAMMAM CHIGUER",
    "wilaya_code": "13",
    "commune_code": null,
    "commune": "HAMMAM BOUGHRARA",
    "lat": 34.880759,
    "lng": -1.744685,
    "geo_precision": "exact",
    "geo_method": "asal",
    "source": "asal",
    "type": "hammam",
    "temperature_c": 32,
    "debit_l_s": 40,
    "altitude_m": 350,
    "minerality": "CHLORUREE SODIQUE"
  },
  {
    "id": "13",
    "name": "HAMMAM AISS EL KAMEL",
    "wilaya_code": "44",
    "commune_code": null,
    "commune": "AIN LECHIEKH",
    "lat": 36.076559,
    "lng": 2.43146,
    "geo_precision": "exact",
    "geo_method": "asal",
    "source": "asal",
    "type": "hammam",
    "temperature_c": 22,
    "debit_l_s": 3,
    "altitude_m": 750,
    "minerality": "BICARBONATEE CALCIQUE"
  },
  {
    "id": "130",
    "name": "AIN EL HAMMAM",
    "wilaya_code": "13",
    "commune_code": null,
    "commune": "AIN EL GHORABA",
    "lat": 34.676979,
    "lng": -1.344578,
    "geo_precision": "exact",
    "geo_method": "asal",
    "source": "asal",
    "type": "ain",
    "temperature_c": 26,
    "debit_l_s": 10,
    "altitude_m": 835,
    "minerality": "CHLORUREE SODIQUE"
  },
  {
    "id": "131",
    "name": "HAMMAM SID ABDELI",
    "wilaya_code": "13",
    "commune_code": null,
    "commune": "SIDI ABDELLI",
    "lat": 35.075193,
    "lng": -1.149046,
    "geo_precision": "exact",
    "geo_method": "asal",
    "source": "asal",
    "type": "hammam",
    "temperature_c": 34,
    "debit_l_s": 10,
    "altitude_m": 365,
    "minerality": "CHLORUREE SODIQUE"
  },
  {
    "id": "132",
    "name": "SIDI RAHOU",
    "wilaya_code": "13",
    "commune_code": null,
    "commune": "HENNAYA",
    "lat": 34.920489,
    "lng": -1.386459,
    "geo_precision": "exact",
    "geo_method": "asal",
    "source": "asal",
    "type": "source",
    "temperature_c": 24,
    "debit_l_s": 1,
    "altitude_m": 518,
    "minerality": "CHLORUREE SODIQUE"
  },
  {
    "id": "133",
    "name": "AIN SIDI BERKABI",
    "wilaya_code": "13",
    "commune_code": null,
    "commune": "SIDI ABDELLI",
    "lat": 34.965573,
    "lng": -1.030071,
    "geo_precision": "exact",
    "geo_method": "asal",
    "source": "asal",
    "type": "ain",
    "temperature_c": 22,
    "debit_l_s": 0.1,
    "altitude_m": 475,
    "minerality": "CHLORUREE SODIQUE"
  },
  {
    "id": "134",
    "name": "AIN FRANIN",
    "wilaya_code": "31",
    "commune_code": null,
    "commune": "BIR EL DJIR",
    "lat": 35.764924,
    "lng": -0.520006,
    "geo_precision": "exact",
    "geo_method": "asal",
    "source": "asal",
    "type": "ain",
    "temperature_c": 34.1,
    "debit_l_s": 2.6,
    "altitude_m": 34,
    "minerality": "CHLORUREE SODIQUE"
  },
  {
    "id": "135",
    "name": "AIN MENTILA",
    "wilaya_code": "38",
    "commune_code": null,
    "commune": "AMMI MOUSSA",
    "lat": 35.78424,
    "lng": 1.276966,
    "geo_precision": "exact",
    "geo_method": "asal",
    "source": "asal",
    "type": "ain",
    "temperature_c": 30,
    "debit_l_s": 6,
    "altitude_m": 420,
    "minerality": "CHLORUREE SODIQUE"
  },
  {
    "id": "136",
    "name": "HAMMAM ERROUDJET",
    "wilaya_code": "48",
    "commune_code": null,
    "commune": "RAMKA",
    "lat": 35.884023,
    "lng": 1.317122,
    "geo_precision": "exact",
    "geo_method": "asal",
    "source": "asal",
    "type": "hammam",
    "temperature_c": 35,
    "debit_l_s": 5,
    "altitude_m": 625,
    "minerality": "CHLORUREE SODIQUE"
  },
  {
    "id": "137",
    "name": "AIN BAGRA",
    "wilaya_code": "46",
    "commune_code": null,
    "commune": "HAMMAM BOUHDJER",
    "lat": 35.359179,
    "lng": -0.967108,
    "geo_precision": "exact",
    "geo_method": "asal",
    "source": "asal",
    "type": "ain",
    "temperature_c": 63,
    "debit_l_s": 10,
    "altitude_m": 162,
    "minerality": "CHLORUREE SODIQUE"
  },
  {
    "id": "138",
    "name": "SIDI AYAD",
    "wilaya_code": "46",
    "commune_code": null,
    "commune": "HAMMAM BOUHDJER",
    "lat": 35.352154,
    "lng": -0.971728,
    "geo_precision": "exact",
    "geo_method": "asal",
    "source": "asal",
    "type": "source",
    "temperature_c": 58,
    "debit_l_s": 0.25,
    "altitude_m": 154,
    "minerality": "CHLORUREE SODIQUE"
  },
  {
    "id": "139",
    "name": "AIN OUARKA",
    "wilaya_code": "69",
    "commune_code": null,
    "commune": "ASLA",
    "lat": 32.728423,
    "lng": -0.152305,
    "geo_precision": "exact",
    "geo_method": "asal",
    "source": "asal",
    "type": "ain",
    "temperature_c": 44.5,
    "debit_l_s": 2.17,
    "altitude_m": 1011,
    "minerality": "CHLORUREE SODIQUE"
  },
  {
    "id": "14",
    "name": "HAMMAM GHRIB",
    "wilaya_code": "44",
    "commune_code": null,
    "commune": "BIRBOUCHE",
    "lat": 36.167702,
    "lng": 2.465039,
    "geo_precision": "exact",
    "geo_method": "asal",
    "source": "asal",
    "type": "hammam",
    "temperature_c": 22,
    "debit_l_s": 2,
    "altitude_m": 414,
    "minerality": "BICARBONATEE CALCIQUE"
  },
  {
    "id": "140",
    "name": "HAMMAM CHAREF",
    "wilaya_code": "17",
    "commune_code": null,
    "commune": "CHAREF",
    "lat": 34.662705,
    "lng": 2.853869,
    "geo_precision": "exact",
    "geo_method": "asal",
    "source": "asal",
    "type": "hammam",
    "temperature_c": 42,
    "debit_l_s": 25,
    "altitude_m": 1150,
    "minerality": "CHLORUREE SODIQUE"
  },
  {
    "id": "141",
    "name": "HAMMAM MESRANE",
    "wilaya_code": "17",
    "commune_code": null,
    "commune": "HASSI BAHBAH",
    "lat": 34.986687,
    "lng": 3.058324,
    "geo_precision": "exact",
    "geo_method": "asal",
    "source": "asal",
    "type": "hammam",
    "temperature_c": 51,
    "debit_l_s": 15,
    "altitude_m": 850,
    "minerality": "CHLORUREE SODIQUE"
  },
  {
    "id": "142",
    "name": "HAMMAM EL BARAKA",
    "wilaya_code": "38",
    "commune_code": null,
    "commune": "SIDI SLIMANE",
    "lat": 35.866842,
    "lng": 1.683682,
    "geo_precision": "exact",
    "geo_method": "asal",
    "source": "asal",
    "type": "hammam",
    "temperature_c": 42,
    "debit_l_s": 6,
    "altitude_m": 771,
    "minerality": "CHLORUREE SODIQUE"
  },
  {
    "id": "143",
    "name": "AIN CHIFAA",
    "wilaya_code": "38",
    "commune_code": null,
    "commune": "SIDI SLIMANE",
    "lat": 35.868992,
    "lng": 1.688224,
    "geo_precision": "exact",
    "geo_method": "asal",
    "source": "asal",
    "type": "ain",
    "temperature_c": 42,
    "debit_l_s": 6,
    "altitude_m": 748,
    "minerality": "CHLORUREE SODIQUE"
  },
  {
    "id": "144",
    "name": "AIN KEHLA",
    "wilaya_code": "53",
    "commune_code": null,
    "commune": "FOUGARET EZZOUA",
    "lat": 27.393381,
    "lng": 3.458185,
    "geo_precision": "exact",
    "geo_method": "asal",
    "source": "asal",
    "type": "ain",
    "temperature_c": 0,
    "debit_l_s": 28,
    "altitude_m": 355,
    "minerality": "CHLORUREE SODIQUE"
  },
  {
    "id": "145",
    "name": "HAMMAM SALHIN",
    "wilaya_code": "07",
    "commune_code": null,
    "commune": "BISKRA",
    "lat": 34.878397,
    "lng": 5.674077,
    "geo_precision": "exact",
    "geo_method": "asal",
    "source": "asal",
    "type": "hammam",
    "temperature_c": 43,
    "debit_l_s": 30,
    "altitude_m": 116,
    "minerality": "CHLORUREE SODIQUE"
  },
  {
    "id": "146",
    "name": "HAMMAM CHEGGA",
    "wilaya_code": "07",
    "commune_code": null,
    "commune": "OUMACHE",
    "lat": 34.433717,
    "lng": 5.915687,
    "geo_precision": "exact",
    "geo_method": "asal",
    "source": "asal",
    "type": "hammam",
    "temperature_c": 22.2,
    "debit_l_s": 0.02,
    "altitude_m": 19,
    "minerality": "CHLORUREE SODIQUE"
  },
  {
    "id": "147",
    "name": "EL BORMA",
    "wilaya_code": "30",
    "commune_code": null,
    "commune": "EL BORMA",
    "lat": 31.588403,
    "lng": 9.168816,
    "geo_precision": "exact",
    "geo_method": "asal",
    "source": "asal",
    "type": "source",
    "temperature_c": 40,
    "debit_l_s": 80,
    "altitude_m": 239,
    "minerality": "CHLORUREE SODIQUE"
  },
  {
    "id": "148",
    "name": "GASSI TOUIL",
    "wilaya_code": "30",
    "commune_code": null,
    "commune": "HASSI MESSAOUD",
    "lat": 30.66034,
    "lng": 6.525919,
    "geo_precision": "exact",
    "geo_method": "asal",
    "source": "asal",
    "type": "source",
    "temperature_c": 50,
    "debit_l_s": 100,
    "altitude_m": 188,
    "minerality": "CHLORUREE SODIQUE"
  },
  {
    "id": "149",
    "name": "HAI NASSER",
    "wilaya_code": "30",
    "commune_code": null,
    "commune": "OUARGLA",
    "lat": 31.974402,
    "lng": 5.232434,
    "geo_precision": "exact",
    "geo_method": "asal",
    "source": "asal",
    "type": "source",
    "temperature_c": 53,
    "debit_l_s": 160,
    "altitude_m": 221,
    "minerality": "CHLORUREE SODIQUE"
  },
  {
    "id": "15",
    "name": "AIN KERMA",
    "wilaya_code": "44",
    "commune_code": null,
    "commune": "AIN LECHIEKH",
    "lat": 36.075241,
    "lng": 2.445344,
    "geo_precision": "exact",
    "geo_method": "asal",
    "source": "asal",
    "type": "ain",
    "temperature_c": 20,
    "debit_l_s": 1,
    "altitude_m": 747,
    "minerality": "BICARBONATEE CALCIQUE"
  },
  {
    "id": "150",
    "name": "KHECHEM ERRIH GCA 0",
    "wilaya_code": "55",
    "commune_code": null,
    "commune": "HASSI BEN ABDELLAH",
    "lat": 32.307097,
    "lng": 5.700746,
    "geo_precision": "exact",
    "geo_method": "asal",
    "source": "asal",
    "type": "source",
    "temperature_c": 54,
    "debit_l_s": 150,
    "altitude_m": 122,
    "minerality": "CHLORUREE SODIQUE"
  },
  {
    "id": "151",
    "name": "KHECHEM ERRIH",
    "wilaya_code": "30",
    "commune_code": null,
    "commune": "HASSI BEN ABDELLAH",
    "lat": 32.256438,
    "lng": 5.6573,
    "geo_precision": "exact",
    "geo_method": "asal",
    "source": "asal",
    "type": "source",
    "temperature_c": 52,
    "debit_l_s": 250,
    "altitude_m": 130,
    "minerality": "CHLORUREE SODIQUE"
  },
  {
    "id": "152",
    "name": "SIDI MEHDI IV",
    "wilaya_code": "55",
    "commune_code": null,
    "commune": "NEZLA",
    "lat": 33.060161,
    "lng": 6.108672,
    "geo_precision": "exact",
    "geo_method": "asal",
    "source": "asal",
    "type": "source",
    "temperature_c": 56,
    "debit_l_s": 200,
    "altitude_m": 82,
    "minerality": "CHLORUREE SODIQUE"
  },
  {
    "id": "153",
    "name": "HAMMAM DEHAMCHA",
    "wilaya_code": "19",
    "commune_code": null,
    "commune": "DEHAMCHA",
    "lat": 36.3412778,
    "lng": 5.6166667,
    "geo_precision": "exact",
    "geo_method": "asal",
    "source": "asal",
    "type": "hammam",
    "temperature_c": 28,
    "debit_l_s": 180,
    "altitude_m": 742,
    "minerality": "CHLORUREE SODIQUE"
  },
  {
    "id": "154",
    "name": "HAMMAM NAKHLA",
    "wilaya_code": "19",
    "commune_code": null,
    "commune": "RASFA",
    "lat": 35.7327778,
    "lng": 5.1675,
    "geo_precision": "exact",
    "geo_method": "asal",
    "source": "asal",
    "type": "hammam",
    "temperature_c": 34.5,
    "debit_l_s": 0.4,
    "altitude_m": 844,
    "minerality": "CHLORUREE SODIQUE ET BICARBONATE CALCIQUE"
  },
  {
    "id": "155",
    "name": "HAMMAM SISI EL HADJ",
    "wilaya_code": "61",
    "commune_code": null,
    "commune": "EL OUTIA",
    "lat": 35.100087,
    "lng": 5.629255,
    "geo_precision": "exact",
    "geo_method": "asal",
    "source": "asal",
    "type": "hammam",
    "temperature_c": 40.7,
    "debit_l_s": 16,
    "altitude_m": 388,
    "minerality": "CHLORUREE SODIQUE ET CALCIQUE"
  },
  {
    "id": "156",
    "name": "AIN TAHMAMINT",
    "wilaya_code": "13",
    "commune_code": null,
    "commune": "CHETOUANE",
    "lat": 34.94607,
    "lng": -1.308288,
    "geo_precision": "exact",
    "geo_method": "asal",
    "source": "asal",
    "type": "ain",
    "temperature_c": 32,
    "debit_l_s": 2,
    "altitude_m": 365,
    "minerality": "CHLORUREE SODIQUE ET MAGNESIENNE"
  },
  {
    "id": "157",
    "name": "HAMMAM SIDI DJABALAH",
    "wilaya_code": "36",
    "commune_code": null,
    "commune": "LAC DES OISEAUX",
    "lat": 36.74,
    "lng": 8.1544444,
    "geo_precision": "exact",
    "geo_method": "asal",
    "source": "asal",
    "type": "hammam",
    "temperature_c": 37.2,
    "debit_l_s": 0.8,
    "altitude_m": 306,
    "minerality": "CHLORUREE SODIQUE, BICARBONATEE CALCIQUE"
  },
  {
    "id": "158",
    "name": "HAMMAM MEXA",
    "wilaya_code": "36",
    "commune_code": null,
    "commune": "BOUGOUS",
    "lat": 36.7,
    "lng": 8.39,
    "geo_precision": "exact",
    "geo_method": "asal",
    "source": "asal",
    "type": "hammam",
    "temperature_c": 38,
    "debit_l_s": 0.8,
    "altitude_m": 118,
    "minerality": "CHLORUREE SODIQUE, BICARBONATEE CALCIQUE"
  },
  {
    "id": "159",
    "name": "HAMMAM DELAA",
    "wilaya_code": "28",
    "commune_code": null,
    "commune": "HAMMAM DELAA",
    "lat": 35.600331,
    "lng": 4.379515,
    "geo_precision": "exact",
    "geo_method": "asal",
    "source": "asal",
    "type": "hammam",
    "temperature_c": 40,
    "debit_l_s": 2,
    "altitude_m": 758,
    "minerality": "CHLORUREE SULFATEE CALCIQUE ET SODIQUE"
  },
  {
    "id": "16",
    "name": "ZEGHAGHA LAGHROUS",
    "wilaya_code": "02",
    "commune_code": null,
    "commune": "TACHTA ZOUGAGHA",
    "lat": 36.366652,
    "lng": 1.629972,
    "geo_precision": "exact",
    "geo_method": "asal",
    "source": "asal",
    "type": "source",
    "temperature_c": 21,
    "debit_l_s": 0.12,
    "altitude_m": 754,
    "minerality": "BICARBONATEE CALCIQUE"
  },
  {
    "id": "160",
    "name": "BAKHLA",
    "wilaya_code": "01",
    "commune_code": null,
    "commune": "BOUDA",
    "lat": 28.010049,
    "lng": -0.448108,
    "geo_precision": "exact",
    "geo_method": "asal",
    "source": "asal",
    "type": "source",
    "temperature_c": 27,
    "debit_l_s": 3,
    "altitude_m": 238,
    "minerality": "CHLORUREE SULFATEE SODIQUE"
  },
  {
    "id": "161",
    "name": "HAMMAM OULED YELLES",
    "wilaya_code": "19",
    "commune_code": null,
    "commune": "MEZLOUG",
    "lat": 36.0638889,
    "lng": 5.2488889,
    "geo_precision": "exact",
    "geo_method": "asal",
    "source": "asal",
    "type": "hammam",
    "temperature_c": 43,
    "debit_l_s": 0,
    "altitude_m": 920,
    "minerality": "EAU CHLORO-SULFATEE CALCIQUE RICHE EN MAGNESIUM ET SODIUM"
  },
  {
    "id": "162",
    "name": "SOURCE AIN TINN",
    "wilaya_code": "43",
    "commune_code": null,
    "commune": "AIN TINN",
    "lat": 36.3863889,
    "lng": 6.3302778,
    "geo_precision": "exact",
    "geo_method": "asal",
    "source": "asal",
    "type": "source",
    "temperature_c": 32,
    "debit_l_s": 6,
    "altitude_m": 555,
    "minerality": "HYPER CHLORUREE CALCIQUE"
  },
  {
    "id": "163",
    "name": "SOURCE EL ABIAT",
    "wilaya_code": "43",
    "commune_code": null,
    "commune": "FERDJIOUA",
    "lat": 36.4536111,
    "lng": 5.9180556,
    "geo_precision": "exact",
    "geo_method": "asal",
    "source": "asal",
    "type": "source",
    "temperature_c": 37.1,
    "debit_l_s": 15,
    "altitude_m": 494,
    "minerality": "HYPER CHLORUREE CALCIQUE"
  },
  {
    "id": "164",
    "name": "HAMMAM BENI HAROUN",
    "wilaya_code": "18",
    "commune_code": null,
    "commune": "HAMALA",
    "lat": 36.6016667,
    "lng": 6.2836111,
    "geo_precision": "exact",
    "geo_method": "asal",
    "source": "asal",
    "type": "hammam",
    "temperature_c": 42,
    "debit_l_s": 43,
    "altitude_m": 88,
    "minerality": "HYPER CHLORUREE CALCIQUE"
  },
  {
    "id": "165",
    "name": "SOURCE AIN JRABE",
    "wilaya_code": "04",
    "commune_code": null,
    "commune": "BABAR",
    "lat": 35.9880556,
    "lng": 7.0891667,
    "geo_precision": "exact",
    "geo_method": "asal",
    "source": "asal",
    "type": "source",
    "temperature_c": 23,
    "debit_l_s": 0,
    "altitude_m": 978,
    "minerality": "HYPER CHLORUREE CALCIQUE ET SULFATEE CALCIQUE"
  },
  {
    "id": "166",
    "name": "HAMMAM BENI GUECHA",
    "wilaya_code": "43",
    "commune_code": null,
    "commune": "BENI GUECHA",
    "lat": 36.4194444,
    "lng": 5.9894444,
    "geo_precision": "exact",
    "geo_method": "asal",
    "source": "asal",
    "type": "hammam",
    "temperature_c": 48.2,
    "debit_l_s": 0.5,
    "altitude_m": 525,
    "minerality": "HYPER CHLORUREE ET SULFATEE CALCIQUE"
  },
  {
    "id": "167",
    "name": "HAMMAM OULED AISSA",
    "wilaya_code": "43",
    "commune_code": null,
    "commune": "TELEGHEMA",
    "lat": 36.1416667,
    "lng": 6.33,
    "geo_precision": "exact",
    "geo_method": "asal",
    "source": "asal",
    "type": "hammam",
    "temperature_c": 49,
    "debit_l_s": 7,
    "altitude_m": 775,
    "minerality": "HYPER CHLORUREE ET SULFATEE CALCIQUE"
  },
  {
    "id": "168",
    "name": "FORAGE DACHRA MANSOURAH EL KEBIRA",
    "wilaya_code": "34",
    "commune_code": null,
    "commune": "MANSOURAH",
    "lat": 36.0683333,
    "lng": 4.4611111,
    "geo_precision": "exact",
    "geo_method": "asal",
    "source": "asal",
    "type": "forage",
    "temperature_c": 46,
    "debit_l_s": 10,
    "altitude_m": 901,
    "minerality": "HYPER CHLORUREE SODIQUE"
  },
  {
    "id": "169",
    "name": "HAMMAM AIN EL DJRAB (OU AIN SIDI AHMED )",
    "wilaya_code": "34",
    "commune_code": null,
    "commune": "M'HIR",
    "lat": 36.1936111,
    "lng": 4.3783333,
    "geo_precision": "exact",
    "geo_method": "asal",
    "source": "asal",
    "type": "hammam",
    "temperature_c": 48,
    "debit_l_s": 0.34,
    "altitude_m": 495,
    "minerality": "HYPER CHLORUREE SODIQUE"
  },
  {
    "id": "17",
    "name": "EL MEHADJEBIA BEN HAROUN",
    "wilaya_code": "10",
    "commune_code": null,
    "commune": "DJEBAHIA",
    "lat": 36.598611,
    "lng": 3.590417,
    "geo_precision": "exact",
    "geo_method": "asal",
    "source": "asal",
    "type": "source",
    "temperature_c": 2,
    "debit_l_s": 20.5,
    "altitude_m": 394,
    "minerality": "BICARBONATEE CALCIQUE"
  },
  {
    "id": "170",
    "name": "HAMMAM IBAINEM",
    "wilaya_code": "34",
    "commune_code": null,
    "commune": "EL MAINE",
    "lat": 36.3725,
    "lng": 4.7822222,
    "geo_precision": "exact",
    "geo_method": "asal",
    "source": "asal",
    "type": "hammam",
    "temperature_c": 62,
    "debit_l_s": 1.28,
    "altitude_m": 450,
    "minerality": "HYPER CHLORUREE SODIQUE"
  },
  {
    "id": "171",
    "name": "HAMMAM EL BIBAN",
    "wilaya_code": "34",
    "commune_code": null,
    "commune": "M'HIR",
    "lat": 36.1994444,
    "lng": 4.39,
    "geo_precision": "exact",
    "geo_method": "asal",
    "source": "asal",
    "type": "hammam",
    "temperature_c": 80,
    "debit_l_s": 4,
    "altitude_m": 500,
    "minerality": "HYPER CHLORUREE SODIQUE"
  },
  {
    "id": "172",
    "name": "BOUTRIG",
    "wilaya_code": "44",
    "commune_code": null,
    "commune": "EL ATTAF",
    "lat": 36.214882,
    "lng": 1.639666,
    "geo_precision": "exact",
    "geo_method": "asal",
    "source": "asal",
    "type": "source",
    "temperature_c": 56,
    "debit_l_s": 100,
    "altitude_m": 150,
    "minerality": "HYPER CHLORUREE SODIQUE"
  },
  {
    "id": "173",
    "name": "AIN SELLAMA",
    "wilaya_code": "31",
    "commune_code": null,
    "commune": "MERS EL HADJAD",
    "lat": 35.751918,
    "lng": -0.164701,
    "geo_precision": "exact",
    "geo_method": "asal",
    "source": "asal",
    "type": "ain",
    "temperature_c": 24.5,
    "debit_l_s": 3,
    "altitude_m": 83,
    "minerality": "HYPER CHLORUREE SODIQUE"
  },
  {
    "id": "174",
    "name": "AIN MADAGH",
    "wilaya_code": "46",
    "commune_code": null,
    "commune": "AIN EL KERMA",
    "lat": 35.635804,
    "lng": -1.04171,
    "geo_precision": "exact",
    "geo_method": "asal",
    "source": "asal",
    "type": "ain",
    "temperature_c": 23.5,
    "debit_l_s": 2,
    "altitude_m": 22,
    "minerality": "HYPER CHLORUREE SODIQUE"
  },
  {
    "id": "175",
    "name": "HAMMAM BOURIM",
    "wilaya_code": "36",
    "commune_code": null,
    "commune": "CHIHANI",
    "lat": 36.6133333,
    "lng": 7.7966667,
    "geo_precision": "exact",
    "geo_method": "asal",
    "source": "asal",
    "type": "hammam",
    "temperature_c": 35,
    "debit_l_s": 1.5,
    "altitude_m": 39,
    "minerality": "HYPER CHLORUREE SODIQUE, SULFATEE ET BICARBONATEE CALCIQUE"
  },
  {
    "id": "176",
    "name": "AIN KARSA",
    "wilaya_code": "44",
    "commune_code": null,
    "commune": "HAMMAM RIGHA",
    "lat": 36.379789,
    "lng": 2.40011,
    "geo_precision": "exact",
    "geo_method": "asal",
    "source": "asal",
    "type": "ain",
    "temperature_c": 22,
    "debit_l_s": 1.2,
    "altitude_m": 518,
    "minerality": "HYPER SULFATEE BICARBONATEE CALCIQUE"
  },
  {
    "id": "177",
    "name": "SOURCE AIN DJARIR",
    "wilaya_code": "40",
    "commune_code": null,
    "commune": "BOUHMAMA",
    "lat": 35.28,
    "lng": 6.7888889,
    "geo_precision": "exact",
    "geo_method": "asal",
    "source": "asal",
    "type": "source",
    "temperature_c": 33.4,
    "debit_l_s": 4,
    "altitude_m": 1090,
    "minerality": "HYPER SULFATEE CALCIQUE"
  },
  {
    "id": "178",
    "name": "SOURCE KRIBSA",
    "wilaya_code": "43",
    "commune_code": null,
    "commune": "OUED ENDJA",
    "lat": 36.4783333,
    "lng": 6.1086111,
    "geo_precision": "exact",
    "geo_method": "asal",
    "source": "asal",
    "type": "source",
    "temperature_c": 27,
    "debit_l_s": 1,
    "altitude_m": 218,
    "minerality": "HYPER SULFATEE CALCIQUE"
  },
  {
    "id": "179",
    "name": "HAMMAM GUERDA",
    "wilaya_code": "43",
    "commune_code": null,
    "commune": "TIBERGUENT",
    "lat": 36.385,
    "lng": 6.0316667,
    "geo_precision": "exact",
    "geo_method": "asal",
    "source": "asal",
    "type": "hammam",
    "temperature_c": 28.6,
    "debit_l_s": 1,
    "altitude_m": 512,
    "minerality": "HYPER SULFATEE CALCIQUE"
  },
  {
    "id": "18",
    "name": "HAMMAM EL ANNASSER",
    "wilaya_code": "67",
    "commune_code": null,
    "commune": "SIDI DAMED",
    "lat": 35.857038,
    "lng": 3.349361,
    "geo_precision": "exact",
    "geo_method": "asal",
    "source": "asal",
    "type": "hammam",
    "temperature_c": 21,
    "debit_l_s": 7,
    "altitude_m": 802,
    "minerality": "BICARBONATEE CALCIQUE"
  },
  {
    "id": "180",
    "name": "SOURCE OULED ELGHOUL",
    "wilaya_code": "43",
    "commune_code": null,
    "commune": "TASSALA",
    "lat": 36.5352778,
    "lng": 6.0136111,
    "geo_precision": "exact",
    "geo_method": "asal",
    "source": "asal",
    "type": "source",
    "temperature_c": 30,
    "debit_l_s": 3,
    "altitude_m": 474,
    "minerality": "HYPER SULFATEE CALCIQUE"
  },
  {
    "id": "181",
    "name": "SOURCE OULED ACHOUR",
    "wilaya_code": "43",
    "commune_code": null,
    "commune": "EL AYADI BARBES",
    "lat": 36.4441667,
    "lng": 5.8944444,
    "geo_precision": "exact",
    "geo_method": "asal",
    "source": "asal",
    "type": "source",
    "temperature_c": 39.8,
    "debit_l_s": 10,
    "altitude_m": 478,
    "minerality": "HYPER SULFATEE CALCIQUE"
  },
  {
    "id": "182",
    "name": "HAMMAM OULED BOU HAMA (ABDALAH)",
    "wilaya_code": "43",
    "commune_code": null,
    "commune": "MILA",
    "lat": 36.3888889,
    "lng": 6.1972222,
    "geo_precision": "exact",
    "geo_method": "asal",
    "source": "asal",
    "type": "hammam",
    "temperature_c": 43,
    "debit_l_s": 1.4,
    "altitude_m": 500,
    "minerality": "HYPER SULFATEE CALCIQUE"
  },
  {
    "id": "183",
    "name": "SOURCE GROUZ",
    "wilaya_code": "43",
    "commune_code": null,
    "commune": "OUED ATHMANIA",
    "lat": 36.2352778,
    "lng": 6.2838889,
    "geo_precision": "exact",
    "geo_method": "asal",
    "source": "asal",
    "type": "source",
    "temperature_c": 45,
    "debit_l_s": 5,
    "altitude_m": 716,
    "minerality": "HYPER SULFATEE CALCIQUE"
  },
  {
    "id": "184",
    "name": "HAMMAM MAZZACHE",
    "wilaya_code": "43",
    "commune_code": null,
    "commune": "TELEGHEMA",
    "lat": 36.145,
    "lng": 6.3261111,
    "geo_precision": "exact",
    "geo_method": "asal",
    "source": "asal",
    "type": "hammam",
    "temperature_c": 47,
    "debit_l_s": 8,
    "altitude_m": 787,
    "minerality": "HYPER SULFATEE CALCIQUE"
  },
  {
    "id": "185",
    "name": "HAMMAM TELEGHEMA",
    "wilaya_code": "43",
    "commune_code": null,
    "commune": "TELEGHEMA",
    "lat": 36.1433333,
    "lng": 6.3277778,
    "geo_precision": "exact",
    "geo_method": "asal",
    "source": "asal",
    "type": "hammam",
    "temperature_c": 49,
    "debit_l_s": 10,
    "altitude_m": 777,
    "minerality": "HYPER SULFATEE CALCIQUE"
  },
  {
    "id": "186",
    "name": "HAMMAM FRERES CHAOUCHE",
    "wilaya_code": "43",
    "commune_code": null,
    "commune": "TELEGHEMA",
    "lat": 36.137,
    "lng": 6.3318333,
    "geo_precision": "exact",
    "geo_method": "asal",
    "source": "asal",
    "type": "hammam",
    "temperature_c": 49,
    "debit_l_s": 30,
    "altitude_m": 778,
    "minerality": "HYPER SULFATEE CALCIQUE"
  },
  {
    "id": "187",
    "name": "HAMMAM OULED DJALI",
    "wilaya_code": "43",
    "commune_code": null,
    "commune": "TELEGHEMA",
    "lat": 36.1346111,
    "lng": 6.3266667,
    "geo_precision": "exact",
    "geo_method": "asal",
    "source": "asal",
    "type": "hammam",
    "temperature_c": 49,
    "debit_l_s": 10,
    "altitude_m": 779,
    "minerality": "HYPER SULFATEE CALCIQUE"
  },
  {
    "id": "188",
    "name": "HAMMAM FRERES MENACER",
    "wilaya_code": "43",
    "commune_code": null,
    "commune": "TELEGHEMA",
    "lat": 36.1372222,
    "lng": 6.3341667,
    "geo_precision": "exact",
    "geo_method": "asal",
    "source": "asal",
    "type": "hammam",
    "temperature_c": 50,
    "debit_l_s": 6,
    "altitude_m": 771,
    "minerality": "HYPER SULFATEE CALCIQUE"
  },
  {
    "id": "189",
    "name": "HAMMAM MINANA",
    "wilaya_code": "43",
    "commune_code": null,
    "commune": "TELEGHEMA",
    "lat": 36.1375,
    "lng": 6.3336111,
    "geo_precision": "exact",
    "geo_method": "asal",
    "source": "asal",
    "type": "hammam",
    "temperature_c": 50,
    "debit_l_s": 18,
    "altitude_m": 772,
    "minerality": "HYPER SULFATEE CALCIQUE"
  },
  {
    "id": "19",
    "name": "HAMMAM MOULAY AHMED",
    "wilaya_code": "26",
    "commune_code": null,
    "commune": "AISSAOUIA",
    "lat": 36.416055,
    "lng": 3.192916,
    "geo_precision": "exact",
    "geo_method": "asal",
    "source": "asal",
    "type": "hammam",
    "temperature_c": 19.5,
    "debit_l_s": 3,
    "altitude_m": 688,
    "minerality": "BICARBONATEE CALCIQUE"
  },
  {
    "id": "190",
    "name": "HAMMAM TOUALI",
    "wilaya_code": "43",
    "commune_code": null,
    "commune": "TELEGHEMA",
    "lat": 36.1397222,
    "lng": 6.3255556,
    "geo_precision": "exact",
    "geo_method": "asal",
    "source": "asal",
    "type": "hammam",
    "temperature_c": 0,
    "debit_l_s": 50,
    "altitude_m": 766,
    "minerality": "HYPER SULFATEE CALCIQUE"
  },
  {
    "id": "191",
    "name": "HAMMAM ESSAFSSAF",
    "wilaya_code": "43",
    "commune_code": null,
    "commune": "TELEGHEMA",
    "lat": 36.1539167,
    "lng": 6.3179111,
    "geo_precision": "exact",
    "geo_method": "asal",
    "source": "asal",
    "type": "hammam",
    "temperature_c": 51,
    "debit_l_s": 15,
    "altitude_m": 774,
    "minerality": "HYPER SULFATEE CALCIQUE"
  },
  {
    "id": "192",
    "name": "HAMMAM ETOUAMA",
    "wilaya_code": "43",
    "commune_code": null,
    "commune": "AINE MELLOUK",
    "lat": 36.2411111,
    "lng": 6.19,
    "geo_precision": "exact",
    "geo_method": "asal",
    "source": "asal",
    "type": "hammam",
    "temperature_c": 51,
    "debit_l_s": 8,
    "altitude_m": 834,
    "minerality": "HYPER SULFATEE CALCIQUE"
  },
  {
    "id": "193",
    "name": "HAMMAM CHIFAA OUED ATHMANIA",
    "wilaya_code": "43",
    "commune_code": null,
    "commune": "OUED ATHMANIA",
    "lat": 36.2391667,
    "lng": 6.2905556,
    "geo_precision": "exact",
    "geo_method": "asal",
    "source": "asal",
    "type": "hammam",
    "temperature_c": 51,
    "debit_l_s": 7,
    "altitude_m": 793,
    "minerality": "HYPER SULFATEE CALCIQUE"
  },
  {
    "id": "194",
    "name": "HAMMAM FARFOUR",
    "wilaya_code": "21",
    "commune_code": null,
    "commune": "AZZABA",
    "lat": 36.7213889,
    "lng": 7.1450556,
    "geo_precision": "exact",
    "geo_method": "asal",
    "source": "asal",
    "type": "hammam",
    "temperature_c": 35,
    "debit_l_s": 1.5,
    "altitude_m": 146,
    "minerality": "HYPER SULFATEE CALCIQUE"
  },
  {
    "id": "195",
    "name": "HAMMAM SOUISSI ABDELMADJID",
    "wilaya_code": "21",
    "commune_code": null,
    "commune": "AIN CHERCHAR",
    "lat": 36.7203889,
    "lng": 7.1804722,
    "geo_precision": "exact",
    "geo_method": "asal",
    "source": "asal",
    "type": "hammam",
    "temperature_c": 38.6,
    "debit_l_s": 0.5,
    "altitude_m": 94,
    "minerality": "HYPER SULFATEE CALCIQUE"
  },
  {
    "id": "196",
    "name": "HAMMAM ABDELMALEK MEZGHICHE",
    "wilaya_code": "21",
    "commune_code": null,
    "commune": "BEN AZOUZ",
    "lat": 36.7911111,
    "lng": 7.2806389,
    "geo_precision": "exact",
    "geo_method": "asal",
    "source": "asal",
    "type": "hammam",
    "temperature_c": 40.2,
    "debit_l_s": 2.7,
    "altitude_m": 35.5,
    "minerality": "HYPER SULFATEE CALCIQUE"
  },
  {
    "id": "197",
    "name": "HAMMAM HADEF MILOUD",
    "wilaya_code": "21",
    "commune_code": null,
    "commune": "BEN AZOUZ",
    "lat": 36.796,
    "lng": 7.2785556,
    "geo_precision": "exact",
    "geo_method": "asal",
    "source": "asal",
    "type": "hammam",
    "temperature_c": 43,
    "debit_l_s": 3.2,
    "altitude_m": 23,
    "minerality": "HYPER SULFATEE CALCIQUE"
  },
  {
    "id": "198",
    "name": "HAMMAM HADEF ABBES",
    "wilaya_code": "21",
    "commune_code": null,
    "commune": "BEN AZOUZ",
    "lat": 36.7976111,
    "lng": 7.2763889,
    "geo_precision": "exact",
    "geo_method": "asal",
    "source": "asal",
    "type": "hammam",
    "temperature_c": 45,
    "debit_l_s": 3.5,
    "altitude_m": 30.3,
    "minerality": "HYPER SULFATEE CALCIQUE"
  },
  {
    "id": "199",
    "name": "HAMMAM EL SALHINE",
    "wilaya_code": "21",
    "commune_code": null,
    "commune": "AZZABA",
    "lat": 36.7207778,
    "lng": 7.1800556,
    "geo_precision": "exact",
    "geo_method": "asal",
    "source": "asal",
    "type": "hammam",
    "temperature_c": 48,
    "debit_l_s": 2,
    "altitude_m": 109,
    "minerality": "HYPER SULFATEE CALCIQUE"
  },
  {
    "id": "2",
    "name": "HAMMAM BOUHACHANA BEN TAHER",
    "wilaya_code": "24",
    "commune_code": null,
    "commune": "BOUHACHANA",
    "lat": 36.3088889,
    "lng": 7.5236111,
    "geo_precision": "exact",
    "geo_method": "asal",
    "source": "asal",
    "type": "hammam",
    "temperature_c": 25,
    "debit_l_s": 3,
    "altitude_m": 741.5,
    "minerality": "BICARBONATEE CALCIQUE"
  },
  {
    "id": "20",
    "name": "GROUG EL MIM",
    "wilaya_code": "26",
    "commune_code": null,
    "commune": "AISSAOUIA",
    "lat": 36.368753,
    "lng": 3.237067,
    "geo_precision": "exact",
    "geo_method": "asal",
    "source": "asal",
    "type": "source",
    "temperature_c": 20,
    "debit_l_s": 1,
    "altitude_m": 612,
    "minerality": "BICARBONATEE CALCIQUE"
  },
  {
    "id": "200",
    "name": "HAMMAM RIGHA",
    "wilaya_code": "44",
    "commune_code": null,
    "commune": "HAMMAM RIGHA",
    "lat": 36.379553,
    "lng": 2.388636,
    "geo_precision": "exact",
    "geo_method": "asal",
    "source": "asal",
    "type": "hammam",
    "temperature_c": 68.5,
    "debit_l_s": 7.3,
    "altitude_m": 584,
    "minerality": "HYPER SULFATEE CALCIQUE"
  },
  {
    "id": "201",
    "name": "AIN TOLBA",
    "wilaya_code": "44",
    "commune_code": null,
    "commune": "HAMMAM RIGHA",
    "lat": 36.373122,
    "lng": 2.38718,
    "geo_precision": "exact",
    "geo_method": "asal",
    "source": "asal",
    "type": "ain",
    "temperature_c": 36,
    "debit_l_s": 2.8,
    "altitude_m": 510,
    "minerality": "HYPER SULFATEE CALCIQUE"
  },
  {
    "id": "202",
    "name": "SOURCE KARNIA",
    "wilaya_code": "43",
    "commune_code": null,
    "commune": "TASSALA",
    "lat": 36.5352778,
    "lng": 5.9863889,
    "geo_precision": "exact",
    "geo_method": "asal",
    "source": "asal",
    "type": "source",
    "temperature_c": 31.2,
    "debit_l_s": 1.5,
    "altitude_m": 399,
    "minerality": "HYPER SULFATEE MAGNESIEN"
  },
  {
    "id": "203",
    "name": "BEN KAHLA",
    "wilaya_code": "30",
    "commune_code": null,
    "commune": "OUARGLA",
    "lat": 31.902689,
    "lng": 5.238765,
    "geo_precision": "exact",
    "geo_method": "asal",
    "source": "asal",
    "type": "source",
    "temperature_c": 50,
    "debit_l_s": 120,
    "altitude_m": 212,
    "minerality": "NON ANALYSEE"
  },
  {
    "id": "204",
    "name": "BLIDET AMOR",
    "wilaya_code": "55",
    "commune_code": null,
    "commune": "BLIDET AMOR",
    "lat": 32.952001,
    "lng": 5.990716,
    "geo_precision": "exact",
    "geo_method": "asal",
    "source": "asal",
    "type": "source",
    "temperature_c": 53,
    "debit_l_s": 200,
    "altitude_m": 80,
    "minerality": "NON ANALYSEE"
  },
  {
    "id": "205",
    "name": "EL HADJIRA",
    "wilaya_code": "55",
    "commune_code": null,
    "commune": "EL HADJIRA",
    "lat": 32.602645,
    "lng": 5.5042,
    "geo_precision": "exact",
    "geo_method": "asal",
    "source": "asal",
    "type": "source",
    "temperature_c": 55,
    "debit_l_s": 127,
    "altitude_m": 141,
    "minerality": "NON ANALYSEE"
  },
  {
    "id": "206",
    "name": "DOUCEN",
    "wilaya_code": "51",
    "commune_code": null,
    "commune": "DOUCEN",
    "lat": 34.612111,
    "lng": 5.082583,
    "geo_precision": "exact",
    "geo_method": "asal",
    "source": "asal",
    "type": "source",
    "temperature_c": 50.4,
    "debit_l_s": 30,
    "altitude_m": 165,
    "minerality": "SULFATE SODIQUE"
  },
  {
    "id": "207",
    "name": "EL GUEDDACHI2",
    "wilaya_code": "55",
    "commune_code": null,
    "commune": "EL HADJIRA",
    "lat": 32.582645,
    "lng": 5.678898,
    "geo_precision": "exact",
    "geo_method": "asal",
    "source": "asal",
    "type": "source",
    "temperature_c": 52,
    "debit_l_s": 150,
    "altitude_m": 118,
    "minerality": "SULFATEE  CHLORUREE SODIQUE"
  },
  {
    "id": "208",
    "name": "EL HADEB",
    "wilaya_code": "30",
    "commune_code": null,
    "commune": "ROUISSAT",
    "lat": 31.925874,
    "lng": 5.371443,
    "geo_precision": "exact",
    "geo_method": "asal",
    "source": "asal",
    "type": "source",
    "temperature_c": 51,
    "debit_l_s": 200,
    "altitude_m": 134,
    "minerality": "SULFATEE  CHLORUREE SODIQUE"
  },
  {
    "id": "209",
    "name": "SOURCE EL KOCHBI",
    "wilaya_code": "05",
    "commune_code": null,
    "commune": "OULED SI SLIMANE",
    "lat": 35.6051389,
    "lng": 5.6689889,
    "geo_precision": "exact",
    "geo_method": "asal",
    "source": "asal",
    "type": "source",
    "temperature_c": 29.9,
    "debit_l_s": 5,
    "altitude_m": 813,
    "minerality": "SULFATEE CALCIQUE"
  },
  {
    "id": "21",
    "name": "HAMMAM AIN EL GUESSISS",
    "wilaya_code": "26",
    "commune_code": null,
    "commune": "AISSAOUIA",
    "lat": 36.418562,
    "lng": 3.213154,
    "geo_precision": "exact",
    "geo_method": "asal",
    "source": "asal",
    "type": "hammam",
    "temperature_c": 20,
    "debit_l_s": 1,
    "altitude_m": 744,
    "minerality": "BICARBONATEE CALCIQUE"
  },
  {
    "id": "210",
    "name": "SOURCE GUERDJIMA",
    "wilaya_code": "05",
    "commune_code": null,
    "commune": "GOSBATE",
    "lat": 35.5334444,
    "lng": 5.4787778,
    "geo_precision": "exact",
    "geo_method": "asal",
    "source": "asal",
    "type": "source",
    "temperature_c": 41.6,
    "debit_l_s": 1,
    "altitude_m": 647,
    "minerality": "SULFATEE CALCIQUE"
  },
  {
    "id": "211",
    "name": "FORAGE DE SAIDA",
    "wilaya_code": "05",
    "commune_code": null,
    "commune": "N'GAOUS",
    "lat": 35.5675139,
    "lng": 5.5632222,
    "geo_precision": "exact",
    "geo_method": "asal",
    "source": "asal",
    "type": "forage",
    "temperature_c": 63,
    "debit_l_s": 13,
    "altitude_m": 694,
    "minerality": "SULFATEE CALCIQUE"
  },
  {
    "id": "212",
    "name": "FORAGE AOUINET EL KEBRIT",
    "wilaya_code": "34",
    "commune_code": null,
    "commune": "EL EUCH",
    "lat": 35.9530556,
    "lng": 4.67,
    "geo_precision": "exact",
    "geo_method": "asal",
    "source": "asal",
    "type": "forage",
    "temperature_c": 21,
    "debit_l_s": 10,
    "altitude_m": 945,
    "minerality": "SULFATEE CALCIQUE"
  },
  {
    "id": "213",
    "name": "SOURCE NAKHLAT OULED CHBIL",
    "wilaya_code": "34",
    "commune_code": null,
    "commune": "BENDAOUD",
    "lat": 36.0925,
    "lng": 4.2091667,
    "geo_precision": "exact",
    "geo_method": "asal",
    "source": "asal",
    "type": "source",
    "temperature_c": 25,
    "debit_l_s": 0.9,
    "altitude_m": 857,
    "minerality": "SULFATEE CALCIQUE"
  },
  {
    "id": "214",
    "name": "SOURCE ZERDANE",
    "wilaya_code": "28",
    "commune_code": null,
    "commune": "BENDAOUD",
    "lat": 36.0225,
    "lng": 4.0838889,
    "geo_precision": "exact",
    "geo_method": "asal",
    "source": "asal",
    "type": "source",
    "temperature_c": 25,
    "debit_l_s": 0.85,
    "altitude_m": 973,
    "minerality": "SULFATEE CALCIQUE"
  },
  {
    "id": "215",
    "name": "SOURCE NAKHLET LAAREF (AIN BOU NOUEL)",
    "wilaya_code": "34",
    "commune_code": null,
    "commune": "BENDAOUD",
    "lat": 36.0919444,
    "lng": 4.1419444,
    "geo_precision": "exact",
    "geo_method": "asal",
    "source": "asal",
    "type": "source",
    "temperature_c": 25,
    "debit_l_s": 0.4,
    "altitude_m": 1097,
    "minerality": "SULFATEE CALCIQUE"
  },
  {
    "id": "216",
    "name": "HAMMAM OULED  ALI DEFLA",
    "wilaya_code": "24",
    "commune_code": null,
    "commune": "HELIOPOLICE",
    "lat": 36.575,
    "lng": 7.3816667,
    "geo_precision": "exact",
    "geo_method": "asal",
    "source": "asal",
    "type": "hammam",
    "temperature_c": 55.3,
    "debit_l_s": 18.5,
    "altitude_m": 214,
    "minerality": "SULFATEE CALCIQUE"
  },
  {
    "id": "217",
    "name": "HAMMAM OULED ALI NAKHLA",
    "wilaya_code": "24",
    "commune_code": null,
    "commune": "HELIOPOLICE",
    "lat": 36.575,
    "lng": 7.3811111,
    "geo_precision": "exact",
    "geo_method": "asal",
    "source": "asal",
    "type": "hammam",
    "temperature_c": 55.7,
    "debit_l_s": 25,
    "altitude_m": 212,
    "minerality": "SULFATEE CALCIQUE"
  },
  {
    "id": "218",
    "name": "HAMMAM OULED ALI NAKHLATEIN",
    "wilaya_code": "24",
    "commune_code": null,
    "commune": "HELIOPOLICE",
    "lat": 36.575,
    "lng": 7.3808333,
    "geo_precision": "exact",
    "geo_method": "asal",
    "source": "asal",
    "type": "hammam",
    "temperature_c": 55.7,
    "debit_l_s": 20,
    "altitude_m": 212,
    "minerality": "SULFATEE CALCIQUE"
  },
  {
    "id": "219",
    "name": "HAMMAM GUERFA BELHACHANI",
    "wilaya_code": "41",
    "commune_code": null,
    "commune": "AIN LARBI",
    "lat": 36.2349833,
    "lng": 7.3372167,
    "geo_precision": "exact",
    "geo_method": "asal",
    "source": "asal",
    "type": "hammam",
    "temperature_c": 63,
    "debit_l_s": 3,
    "altitude_m": 710.3,
    "minerality": "SULFATEE CALCIQUE"
  },
  {
    "id": "22",
    "name": "HAMMAM CHEBEIKA",
    "wilaya_code": "26",
    "commune_code": null,
    "commune": "SOUAGUI",
    "lat": 36.069064,
    "lng": 3.221893,
    "geo_precision": "exact",
    "geo_method": "asal",
    "source": "asal",
    "type": "hammam",
    "temperature_c": 19,
    "debit_l_s": 0.5,
    "altitude_m": 861,
    "minerality": "BICARBONATEE CALCIQUE"
  },
  {
    "id": "220",
    "name": "HAMMAM GUERFA APC",
    "wilaya_code": "24",
    "commune_code": null,
    "commune": "AIN LARBI",
    "lat": 36.2463,
    "lng": 7.3394333,
    "geo_precision": "exact",
    "geo_method": "asal",
    "source": "asal",
    "type": "hammam",
    "temperature_c": 67,
    "debit_l_s": 4,
    "altitude_m": 688.7,
    "minerality": "SULFATEE CALCIQUE"
  },
  {
    "id": "221",
    "name": "HAMMAM ASSALHINE",
    "wilaya_code": "40",
    "commune_code": null,
    "commune": "EL HAMMA",
    "lat": 35.4380278,
    "lng": 7.0861944,
    "geo_precision": "exact",
    "geo_method": "asal",
    "source": "asal",
    "type": "hammam",
    "temperature_c": 60.1,
    "debit_l_s": 30,
    "altitude_m": 1086,
    "minerality": "SULFATEE CALCIQUE"
  },
  {
    "id": "222",
    "name": "HAMMAM GUERGOUR",
    "wilaya_code": "19",
    "commune_code": null,
    "commune": "HAMMAM GUERGUOUR",
    "lat": 36.3238889,
    "lng": 5.0552778,
    "geo_precision": "exact",
    "geo_method": "asal",
    "source": "asal",
    "type": "hammam",
    "temperature_c": 45,
    "debit_l_s": 18,
    "altitude_m": 695,
    "minerality": "SULFATEE CALCIQUE"
  },
  {
    "id": "223",
    "name": "SOURCE OULED TEBBENE ex SIDI MANSOUR",
    "wilaya_code": "19",
    "commune_code": null,
    "commune": "OULED TEBBENE",
    "lat": 35.7894444,
    "lng": 5.1255556,
    "geo_precision": "exact",
    "geo_method": "asal",
    "source": "asal",
    "type": "source",
    "temperature_c": 50,
    "debit_l_s": 25,
    "altitude_m": 1156,
    "minerality": "SULFATEE CALCIQUE"
  },
  {
    "id": "224",
    "name": "HAMMAM SIDI YAHIA BEN TALEB",
    "wilaya_code": "12",
    "commune_code": null,
    "commune": "EL MERIDJ",
    "lat": 35.9059722,
    "lng": 8.2463889,
    "geo_precision": "exact",
    "geo_method": "asal",
    "source": "asal",
    "type": "hammam",
    "temperature_c": 21,
    "debit_l_s": 1,
    "altitude_m": 504,
    "minerality": "SULFATEE CALCIQUE"
  },
  {
    "id": "225",
    "name": "THELLAT",
    "wilaya_code": "10",
    "commune_code": null,
    "commune": "AMMAL",
    "lat": 36.598611,
    "lng": 3.590417,
    "geo_precision": "exact",
    "geo_method": "asal",
    "source": "asal",
    "type": "source",
    "temperature_c": 34,
    "debit_l_s": 5.6,
    "altitude_m": 496,
    "minerality": "SULFATEE CALCIQUE"
  },
  {
    "id": "226",
    "name": "HAMMAM DJORDANI",
    "wilaya_code": "67",
    "commune_code": null,
    "commune": "AIN BOUCIF",
    "lat": 35.887686,
    "lng": 3.168333,
    "geo_precision": "exact",
    "geo_method": "asal",
    "source": "asal",
    "type": "hammam",
    "temperature_c": 20,
    "debit_l_s": 0.3,
    "altitude_m": 1105,
    "minerality": "SULFATEE CALCIQUE"
  },
  {
    "id": "227",
    "name": "AIN SIDI CHARFE",
    "wilaya_code": "29",
    "commune_code": null,
    "commune": "SIRAT",
    "lat": 35.721596,
    "lng": 0.1866,
    "geo_precision": "exact",
    "geo_method": "asal",
    "source": "asal",
    "type": "ain",
    "temperature_c": 38,
    "debit_l_s": 0.3,
    "altitude_m": 88,
    "minerality": "SULFATEE CALCIQUE"
  },
  {
    "id": "228",
    "name": "AIN BOUAAOKA",
    "wilaya_code": "20",
    "commune_code": null,
    "commune": "AIN SKHOUNA",
    "lat": 34.496671,
    "lng": 0.851651,
    "geo_precision": "exact",
    "geo_method": "asal",
    "source": "asal",
    "type": "ain",
    "temperature_c": 29.8,
    "debit_l_s": 3,
    "altitude_m": 995,
    "minerality": "SULFATEE CALCIQUE"
  },
  {
    "id": "229",
    "name": "BELQUEBOR",
    "wilaya_code": "33",
    "commune_code": null,
    "commune": "BORDJ OMAR IDRIS",
    "lat": 28.663198,
    "lng": 6.513355,
    "geo_precision": "exact",
    "geo_method": "asal",
    "source": "asal",
    "type": "source",
    "temperature_c": 41,
    "debit_l_s": 40,
    "altitude_m": 378,
    "minerality": "SULFATEE CALCIQUE"
  },
  {
    "id": "23",
    "name": "AIN HAMEDH",
    "wilaya_code": "26",
    "commune_code": null,
    "commune": "SIDI NAAMANE",
    "lat": 36.239642,
    "lng": 3.054097,
    "geo_precision": "exact",
    "geo_method": "asal",
    "source": "asal",
    "type": "ain",
    "temperature_c": 23,
    "debit_l_s": 0.4,
    "altitude_m": 725,
    "minerality": "BICARBONATEE CALCIQUE"
  },
  {
    "id": "230",
    "name": "TABANKOURT",
    "wilaya_code": "33",
    "commune_code": null,
    "commune": "BORDJ OMAR IDRIS",
    "lat": 28.618445,
    "lng": 7.086182,
    "geo_precision": "exact",
    "geo_method": "asal",
    "source": "asal",
    "type": "source",
    "temperature_c": 44,
    "debit_l_s": 20,
    "altitude_m": 405,
    "minerality": "SULFATEE CALCIQUE"
  },
  {
    "id": "231",
    "name": "ADJANDO",
    "wilaya_code": "33",
    "commune_code": null,
    "commune": "ILLIZI",
    "lat": 26.784741,
    "lng": 8.835276,
    "geo_precision": "exact",
    "geo_method": "asal",
    "source": "asal",
    "type": "source",
    "temperature_c": 43,
    "debit_l_s": 15,
    "altitude_m": 591,
    "minerality": "SULFATEE CALCIQUE"
  },
  {
    "id": "232",
    "name": "DJERABAA",
    "wilaya_code": "15",
    "commune_code": null,
    "commune": "SOUMAA",
    "lat": 35.600331,
    "lng": 4.655095,
    "geo_precision": "exact",
    "geo_method": "asal",
    "source": "asal",
    "type": "source",
    "temperature_c": 24.7,
    "debit_l_s": 1,
    "altitude_m": 420,
    "minerality": "SULFATEE CALCIQUE ET MAGNESIENNE"
  },
  {
    "id": "233",
    "name": "TAMARNA CHOUCHA",
    "wilaya_code": "57",
    "commune_code": null,
    "commune": "SIDI AMRANE",
    "lat": 33.45116,
    "lng": 5.981411,
    "geo_precision": "exact",
    "geo_method": "asal",
    "source": "asal",
    "type": "source",
    "temperature_c": 53,
    "debit_l_s": 200,
    "altitude_m": 54,
    "minerality": "SULFATEE CALCIQUE ET SODIQUE"
  },
  {
    "id": "234",
    "name": "HAMMAM OULED TEBBENE BENAKRI RACHID",
    "wilaya_code": "19",
    "commune_code": null,
    "commune": "OULED TEBBENE",
    "lat": 35.7969444,
    "lng": 5.1247222,
    "geo_precision": "exact",
    "geo_method": "asal",
    "source": "asal",
    "type": "hammam",
    "temperature_c": 48.6,
    "debit_l_s": 25,
    "altitude_m": 1172,
    "minerality": "SULFATEE CALCIQUE RICHE EN CHLOURES"
  },
  {
    "id": "235",
    "name": "SOUK DJAMAA",
    "wilaya_code": "26",
    "commune_code": null,
    "commune": "SOUAGUI",
    "lat": 36.112116,
    "lng": 3.240591,
    "geo_precision": "exact",
    "geo_method": "asal",
    "source": "asal",
    "type": "source",
    "temperature_c": 22,
    "debit_l_s": 3,
    "altitude_m": 823,
    "minerality": "SULFATEE CARBONATEE"
  },
  {
    "id": "236",
    "name": "KNIF FORAGE",
    "wilaya_code": "04",
    "commune_code": null,
    "commune": "BAGHAI",
    "lat": 35.4883056,
    "lng": 7.2516389,
    "geo_precision": "exact",
    "geo_method": "asal",
    "source": "asal",
    "type": "source",
    "temperature_c": 52,
    "debit_l_s": 8,
    "altitude_m": 1022,
    "minerality": "SULFATEE CHLORUREE CALCIQUE"
  },
  {
    "id": "237",
    "name": "SIDI MEHDI II",
    "wilaya_code": "55",
    "commune_code": null,
    "commune": "NEZLA",
    "lat": 33.056908,
    "lng": 6.105643,
    "geo_precision": "exact",
    "geo_method": "asal",
    "source": "asal",
    "type": "source",
    "temperature_c": 56,
    "debit_l_s": 200,
    "altitude_m": 73,
    "minerality": "SULFATEE ET CHLORUREE SODIQUE"
  },
  {
    "id": "238",
    "name": "SOUK LARBAA",
    "wilaya_code": "26",
    "commune_code": null,
    "commune": "BENI SLIMANE",
    "lat": 36.264532,
    "lng": 3.384797,
    "geo_precision": "exact",
    "geo_method": "asal",
    "source": "asal",
    "type": "source",
    "temperature_c": 36,
    "debit_l_s": 2,
    "altitude_m": 498,
    "minerality": "SULFATEE FERREE"
  },
  {
    "id": "239",
    "name": "BELARIBI",
    "wilaya_code": "28",
    "commune_code": null,
    "commune": "M'SILA",
    "lat": 35.827885,
    "lng": 4.569129,
    "geo_precision": "exact",
    "geo_method": "asal",
    "source": "asal",
    "type": "source",
    "temperature_c": 26.8,
    "debit_l_s": 20,
    "altitude_m": 555,
    "minerality": "SULFATEE MAGNESIENNE  ET CALCIQUE"
  },
  {
    "id": "24",
    "name": "HAMMAM EL FRIOUA",
    "wilaya_code": "67",
    "commune_code": null,
    "commune": "EL AOUINET",
    "lat": 35.888611,
    "lng": 3.112336,
    "geo_precision": "exact",
    "geo_method": "asal",
    "source": "asal",
    "type": "hammam",
    "temperature_c": 20,
    "debit_l_s": 0.3,
    "altitude_m": 1039,
    "minerality": "BICARBONATEE CALCIQUE"
  },
  {
    "id": "240",
    "name": "SOURCE BOUZANI",
    "wilaya_code": "05",
    "commune_code": null,
    "commune": "OULED FADHEL",
    "lat": 35.5480278,
    "lng": 6.5874167,
    "geo_precision": "exact",
    "geo_method": "asal",
    "source": "asal",
    "type": "source",
    "temperature_c": 19.9,
    "debit_l_s": 0.5,
    "altitude_m": 995,
    "minerality": "SULFATEE SODIQUE"
  },
  {
    "id": "241",
    "name": "SOURCE BOUGHENDJA",
    "wilaya_code": "05",
    "commune_code": null,
    "commune": "TIMGAD",
    "lat": 35.5080833,
    "lng": 6.5144167,
    "geo_precision": "exact",
    "geo_method": "asal",
    "source": "asal",
    "type": "source",
    "temperature_c": 19.9,
    "debit_l_s": 0.5,
    "altitude_m": 990,
    "minerality": "SULFATEE SODIQUE"
  },
  {
    "id": "242",
    "name": "SOURCE ZENZANE",
    "wilaya_code": "34",
    "commune_code": null,
    "commune": "BENDAOUD",
    "lat": 36.0816667,
    "lng": 4.1963889,
    "geo_precision": "exact",
    "geo_method": "asal",
    "source": "asal",
    "type": "source",
    "temperature_c": 25,
    "debit_l_s": 0.4,
    "altitude_m": 857,
    "minerality": "SULFATEE SODIQUE"
  },
  {
    "id": "243",
    "name": "SOURCE OULJET OUKHLIFA",
    "wilaya_code": "40",
    "commune_code": null,
    "commune": "KHEIRINE",
    "lat": 34.9880556,
    "lng": 6.7452778,
    "geo_precision": "exact",
    "geo_method": "asal",
    "source": "asal",
    "type": "source",
    "temperature_c": 25,
    "debit_l_s": 2,
    "altitude_m": 510,
    "minerality": "SULFATEE SODIQUE"
  },
  {
    "id": "244",
    "name": "SOURCE TAMARSSITE",
    "wilaya_code": "40",
    "commune_code": null,
    "commune": "EL OULJA",
    "lat": 35.0289444,
    "lng": 6.75125,
    "geo_precision": "exact",
    "geo_method": "asal",
    "source": "asal",
    "type": "source",
    "temperature_c": 29,
    "debit_l_s": 6,
    "altitude_m": 656,
    "minerality": "SULFATEE SODIQUE"
  },
  {
    "id": "245",
    "name": "HAMMAM MED BELAKHDAR",
    "wilaya_code": "26",
    "commune_code": null,
    "commune": "SOUAGUI",
    "lat": 36.109911,
    "lng": 3.247351,
    "geo_precision": "exact",
    "geo_method": "asal",
    "source": "asal",
    "type": "hammam",
    "temperature_c": 22,
    "debit_l_s": 4,
    "altitude_m": 841,
    "minerality": "SULFATEE SODIQUE"
  },
  {
    "id": "246",
    "name": "HAMMAM REBI",
    "wilaya_code": "20",
    "commune_code": null,
    "commune": "OULED KHALED",
    "lat": 34.929906,
    "lng": 0.181914,
    "geo_precision": "exact",
    "geo_method": "asal",
    "source": "asal",
    "type": "hammam",
    "temperature_c": 48,
    "debit_l_s": 7,
    "altitude_m": 706,
    "minerality": "SULFATEE SODIQUE"
  },
  {
    "id": "247",
    "name": "HAMMAM SIDI AISSA",
    "wilaya_code": "20",
    "commune_code": null,
    "commune": "SIDI AMAR",
    "lat": 34.959211,
    "lng": 0.16636,
    "geo_precision": "exact",
    "geo_method": "asal",
    "source": "asal",
    "type": "hammam",
    "temperature_c": 48,
    "debit_l_s": 7,
    "altitude_m": 630,
    "minerality": "SULFATEE SODIQUE"
  },
  {
    "id": "248",
    "name": "AIN SIDI BOUTAIBA",
    "wilaya_code": "29",
    "commune_code": null,
    "commune": "MAMOUNIA",
    "lat": 35.458237,
    "lng": 0.146927,
    "geo_precision": "exact",
    "geo_method": "asal",
    "source": "asal",
    "type": "ain",
    "temperature_c": 24,
    "debit_l_s": 0.8,
    "altitude_m": 402,
    "minerality": "SULFATEE SODIQUE"
  },
  {
    "id": "249",
    "name": "AIN CHAFIA",
    "wilaya_code": "29",
    "commune_code": null,
    "commune": "BOU-HENNI",
    "lat": 35.6595,
    "lng": -0.0432778,
    "geo_precision": "exact",
    "geo_method": "asal",
    "source": "asal",
    "type": "ain",
    "temperature_c": 38,
    "debit_l_s": 20,
    "altitude_m": 31,
    "minerality": "SULFATEE SODIQUE"
  },
  {
    "id": "25",
    "name": "AIN EL DJRAB",
    "wilaya_code": "09",
    "commune_code": null,
    "commune": "L'ARBA",
    "lat": 36.551639,
    "lng": 3.177122,
    "geo_precision": "exact",
    "geo_method": "asal",
    "source": "asal",
    "type": "ain",
    "temperature_c": 24,
    "debit_l_s": 0.6,
    "altitude_m": 250,
    "minerality": "BICARBONATEE CALCIQUE"
  },
  {
    "id": "250",
    "name": "ROKNET EL METHNAN",
    "wilaya_code": "20",
    "commune_code": null,
    "commune": "ROGASSA",
    "lat": 34.286982,
    "lng": 0.967406,
    "geo_precision": "exact",
    "geo_method": "asal",
    "source": "asal",
    "type": "source",
    "temperature_c": 30,
    "debit_l_s": 7,
    "altitude_m": 985,
    "minerality": "SULFATEE SODIQUE"
  },
  {
    "id": "251",
    "name": "HAOUD TMER",
    "wilaya_code": "30",
    "commune_code": null,
    "commune": "HASSI MESSAOUD",
    "lat": 31.693595,
    "lng": 5.816091,
    "geo_precision": "exact",
    "geo_method": "asal",
    "source": "asal",
    "type": "source",
    "temperature_c": 54,
    "debit_l_s": 80,
    "altitude_m": 160,
    "minerality": "SULFATEE SODIQUE"
  },
  {
    "id": "252",
    "name": "HAOUED EL AMER",
    "wilaya_code": "30",
    "commune_code": null,
    "commune": "NGOUSSA",
    "lat": 32.152642,
    "lng": 5.232413,
    "geo_precision": "exact",
    "geo_method": "asal",
    "source": "asal",
    "type": "source",
    "temperature_c": 55,
    "debit_l_s": 118,
    "altitude_m": 185,
    "minerality": "SULFATEE SODIQUE"
  },
  {
    "id": "253",
    "name": "HASSI BEN ADELLAH III",
    "wilaya_code": "30",
    "commune_code": null,
    "commune": "HASSI BEN ADELLAH",
    "lat": 32.048223,
    "lng": 5.504519,
    "geo_precision": "exact",
    "geo_method": "asal",
    "source": "asal",
    "type": "source",
    "temperature_c": 52,
    "debit_l_s": 200,
    "altitude_m": 150,
    "minerality": "SULFATEE SODIQUE"
  },
  {
    "id": "254",
    "name": "HASSI BEN ADELLAH IV",
    "wilaya_code": "30",
    "commune_code": null,
    "commune": "HASSI BEN ADELLAH",
    "lat": 31.997589,
    "lng": 5.467977,
    "geo_precision": "exact",
    "geo_method": "asal",
    "source": "asal",
    "type": "source",
    "temperature_c": 52,
    "debit_l_s": 200,
    "altitude_m": 148,
    "minerality": "SULFATEE SODIQUE"
  },
  {
    "id": "255",
    "name": "HASSI BEN ADELLAH",
    "wilaya_code": "30",
    "commune_code": null,
    "commune": "HASSI BEN ADELLAH",
    "lat": 32.023104,
    "lng": 5.466999,
    "geo_precision": "exact",
    "geo_method": "asal",
    "source": "asal",
    "type": "source",
    "temperature_c": 52,
    "debit_l_s": 200,
    "altitude_m": 135,
    "minerality": "SULFATEE SODIQUE"
  },
  {
    "id": "256",
    "name": "MEGGARINE",
    "wilaya_code": "55",
    "commune_code": null,
    "commune": "MEGGARINE",
    "lat": 33.189411,
    "lng": 6.079664,
    "geo_precision": "exact",
    "geo_method": "asal",
    "source": "asal",
    "type": "source",
    "temperature_c": 56,
    "debit_l_s": 200,
    "altitude_m": 60,
    "minerality": "SULFATEE SODIQUE"
  },
  {
    "id": "257",
    "name": "ROUISSAT",
    "wilaya_code": "30",
    "commune_code": null,
    "commune": "ROUISSAT",
    "lat": 31.906993,
    "lng": 5.377524,
    "geo_precision": "exact",
    "geo_method": "asal",
    "source": "asal",
    "type": "source",
    "temperature_c": 53,
    "debit_l_s": 200,
    "altitude_m": 0,
    "minerality": "SULFATEE SODIQUE"
  },
  {
    "id": "258",
    "name": "SIDI MEHDI III",
    "wilaya_code": "55",
    "commune_code": null,
    "commune": "NEZLA",
    "lat": 33.057634,
    "lng": 6.103512,
    "geo_precision": "exact",
    "geo_method": "asal",
    "source": "asal",
    "type": "source",
    "temperature_c": 56,
    "debit_l_s": 250,
    "altitude_m": 75,
    "minerality": "SULFATEE SODIQUE"
  },
  {
    "id": "259",
    "name": "SIDI SLIMANE",
    "wilaya_code": "55",
    "commune_code": null,
    "commune": "SIDI SLIMANE",
    "lat": 33.281795,
    "lng": 6.118318,
    "geo_precision": "exact",
    "geo_method": "asal",
    "source": "asal",
    "type": "source",
    "temperature_c": 56,
    "debit_l_s": 150,
    "altitude_m": 52,
    "minerality": "SULFATEE SODIQUE"
  },
  {
    "id": "26",
    "name": "AIN HAMMAM SIDI ALI",
    "wilaya_code": "29",
    "commune_code": null,
    "commune": "HACHEM",
    "lat": 35.393342,
    "lng": 0.480196,
    "geo_precision": "exact",
    "geo_method": "asal",
    "source": "asal",
    "type": "ain",
    "temperature_c": 28.5,
    "debit_l_s": 0,
    "altitude_m": 433,
    "minerality": "BICARBONATEE CALCIQUE"
  },
  {
    "id": "260",
    "name": "TAIBET",
    "wilaya_code": "55",
    "commune_code": null,
    "commune": "TAIBET",
    "lat": 33.096115,
    "lng": 6.379261,
    "geo_precision": "exact",
    "geo_method": "asal",
    "source": "asal",
    "type": "source",
    "temperature_c": 62,
    "debit_l_s": 200,
    "altitude_m": 105,
    "minerality": "SULFATEE SODIQUE"
  },
  {
    "id": "261",
    "name": "TIMACINE",
    "wilaya_code": "55",
    "commune_code": null,
    "commune": "TIMACINE",
    "lat": 32.99621,
    "lng": 5.995374,
    "geo_precision": "exact",
    "geo_method": "asal",
    "source": "asal",
    "type": "source",
    "temperature_c": 55,
    "debit_l_s": 200,
    "altitude_m": 75,
    "minerality": "SULFATEE SODIQUE"
  },
  {
    "id": "262",
    "name": "HAMMAM CHINIGUEL",
    "wilaya_code": "67",
    "commune_code": null,
    "commune": "CHENIGUEL",
    "lat": 35.916331,
    "lng": 3.598077,
    "geo_precision": "exact",
    "geo_method": "asal",
    "source": "asal",
    "type": "hammam",
    "temperature_c": 22,
    "debit_l_s": 0.4,
    "altitude_m": 743,
    "minerality": "SULFATEE SODIQUE"
  },
  {
    "id": "263",
    "name": "HAMMAM DIALEM",
    "wilaya_code": "28",
    "commune_code": null,
    "commune": "OULED ADI LAGBALA",
    "lat": 35.595833,
    "lng": 4.843389,
    "geo_precision": "exact",
    "geo_method": "asal",
    "source": "asal",
    "type": "hammam",
    "temperature_c": 30.7,
    "debit_l_s": 15,
    "altitude_m": 476,
    "minerality": "SULFATEE SODIQUE"
  },
  {
    "id": "264",
    "name": "AIN AMMAR",
    "wilaya_code": "30",
    "commune_code": null,
    "commune": "AIN BEIDA",
    "lat": 31.781366,
    "lng": 5.850417,
    "geo_precision": "exact",
    "geo_method": "asal",
    "source": "asal",
    "type": "ain",
    "temperature_c": 56,
    "debit_l_s": 100,
    "altitude_m": 170,
    "minerality": "SULFATEE SODIQUE"
  },
  {
    "id": "265",
    "name": "AIN MOUDJAHIDINE",
    "wilaya_code": "30",
    "commune_code": null,
    "commune": "HASSI MESSAOUD",
    "lat": 31.634559,
    "lng": 5.95043,
    "geo_precision": "exact",
    "geo_method": "asal",
    "source": "asal",
    "type": "ain",
    "temperature_c": 58,
    "debit_l_s": 150,
    "altitude_m": 169,
    "minerality": "SULFATEE SODIQUE"
  },
  {
    "id": "266",
    "name": "AIN SAHRA II",
    "wilaya_code": "55",
    "commune_code": null,
    "commune": "NEZLA",
    "lat": 33.080059,
    "lng": 6.03694,
    "geo_precision": "exact",
    "geo_method": "asal",
    "source": "asal",
    "type": "ain",
    "temperature_c": 56,
    "debit_l_s": 152,
    "altitude_m": 77,
    "minerality": "SULFATEE SODIQUE"
  },
  {
    "id": "267",
    "name": "AIN SAHRA",
    "wilaya_code": "55",
    "commune_code": null,
    "commune": "NEZLA",
    "lat": 33.076422,
    "lng": 6.048134,
    "geo_precision": "exact",
    "geo_method": "asal",
    "source": "asal",
    "type": "ain",
    "temperature_c": 53,
    "debit_l_s": 200,
    "altitude_m": 85,
    "minerality": "SULFATEE SODIQUE"
  },
  {
    "id": "268",
    "name": "BEN NACER",
    "wilaya_code": "55",
    "commune_code": null,
    "commune": "BEN NACER",
    "lat": 33.102999,
    "lng": 6.441082,
    "geo_precision": "exact",
    "geo_method": "asal",
    "source": "asal",
    "type": "source",
    "temperature_c": 60,
    "debit_l_s": 160,
    "altitude_m": 70,
    "minerality": "SULFATEE SODIQUE"
  },
  {
    "id": "269",
    "name": "HASSI EL BAADJ",
    "wilaya_code": "55",
    "commune_code": null,
    "commune": "HASSI BEN ABDELAH",
    "lat": 32.403557,
    "lng": 6.049807,
    "geo_precision": "exact",
    "geo_method": "asal",
    "source": "asal",
    "type": "source",
    "temperature_c": 53,
    "debit_l_s": 80,
    "altitude_m": 116,
    "minerality": "SULFATEE SODIQUE"
  },
  {
    "id": "27",
    "name": "AIN SIDI AHMED BEN KHEDDA",
    "wilaya_code": "29",
    "commune_code": null,
    "commune": "HACHEM",
    "lat": 35.410564,
    "lng": 0.562997,
    "geo_precision": "exact",
    "geo_method": "asal",
    "source": "asal",
    "type": "ain",
    "temperature_c": 27,
    "debit_l_s": 0,
    "altitude_m": 430,
    "minerality": "BICARBONATEE CALCIQUE"
  },
  {
    "id": "270",
    "name": "EL GUEDDACHI1",
    "wilaya_code": "55",
    "commune_code": null,
    "commune": "EL HADJIRA",
    "lat": 32.575107,
    "lng": 5.69323,
    "geo_precision": "exact",
    "geo_method": "asal",
    "source": "asal",
    "type": "source",
    "temperature_c": 55,
    "debit_l_s": 150,
    "altitude_m": 140,
    "minerality": "SULFATEE SODIQUE"
  },
  {
    "id": "271",
    "name": "EL HADEB II",
    "wilaya_code": "30",
    "commune_code": null,
    "commune": "ROUISSAT",
    "lat": 31.921684,
    "lng": 5.375597,
    "geo_precision": "exact",
    "geo_method": "asal",
    "source": "asal",
    "type": "source",
    "temperature_c": 53,
    "debit_l_s": 200,
    "altitude_m": 150,
    "minerality": "SULFATEE SODIQUE"
  },
  {
    "id": "272",
    "name": "EL  HARHIRA",
    "wilaya_code": "55",
    "commune_code": null,
    "commune": "MEGGARINE",
    "lat": 33.226156,
    "lng": 6.055499,
    "geo_precision": "exact",
    "geo_method": "asal",
    "source": "asal",
    "type": "source",
    "temperature_c": 52,
    "debit_l_s": 150,
    "altitude_m": 60,
    "minerality": "SULFATEE SODIQUE"
  },
  {
    "id": "273",
    "name": "EL MIR",
    "wilaya_code": "55",
    "commune_code": null,
    "commune": "EL HADJIRA",
    "lat": 32.662509,
    "lng": 5.503023,
    "geo_precision": "exact",
    "geo_method": "asal",
    "source": "asal",
    "type": "source",
    "temperature_c": 56,
    "debit_l_s": 150,
    "altitude_m": 132,
    "minerality": "SULFATEE SODIQUE"
  },
  {
    "id": "274",
    "name": "EL MOUSTAKBEL",
    "wilaya_code": "55",
    "commune_code": null,
    "commune": "TOGGOURT",
    "lat": 33.120898,
    "lng": 6.066995,
    "geo_precision": "exact",
    "geo_method": "asal",
    "source": "asal",
    "type": "source",
    "temperature_c": 58,
    "debit_l_s": 166,
    "altitude_m": 70,
    "minerality": "SULFATEE SODIQUE"
  },
  {
    "id": "275",
    "name": "EL ALIA",
    "wilaya_code": "55",
    "commune_code": null,
    "commune": "EL ALIA",
    "lat": 32.673886,
    "lng": 5.443318,
    "geo_precision": "exact",
    "geo_method": "asal",
    "source": "asal",
    "type": "source",
    "temperature_c": 50,
    "debit_l_s": 175,
    "altitude_m": 139,
    "minerality": "SULFATEE SODIQUE"
  },
  {
    "id": "276",
    "name": "GASSI TOUIL 3",
    "wilaya_code": "30",
    "commune_code": null,
    "commune": "HASSI MESSAOUD",
    "lat": 30.867953,
    "lng": 6.510134,
    "geo_precision": "exact",
    "geo_method": "asal",
    "source": "asal",
    "type": "source",
    "temperature_c": 21,
    "debit_l_s": 130,
    "altitude_m": 173,
    "minerality": "SULFATEE SODIQUE"
  },
  {
    "id": "277",
    "name": "GASSI TOUIL 4",
    "wilaya_code": "30",
    "commune_code": null,
    "commune": "HASSI MESSAOUD",
    "lat": 30.908213,
    "lng": 6.486645,
    "geo_precision": "exact",
    "geo_method": "asal",
    "source": "asal",
    "type": "source",
    "temperature_c": 48,
    "debit_l_s": 180,
    "altitude_m": 172,
    "minerality": "SULFATEE SODIQUE"
  },
  {
    "id": "278",
    "name": "HAMMAM OULED BOUSHAB",
    "wilaya_code": "34",
    "commune_code": null,
    "commune": "EL HAMADIA",
    "lat": 36.0033333,
    "lng": 4.7322222,
    "geo_precision": "exact",
    "geo_method": "asal",
    "source": "asal",
    "type": "hammam",
    "temperature_c": 20.5,
    "debit_l_s": 0.3,
    "altitude_m": 868,
    "minerality": "SULFATEE SODIQUE ET CHLORUREE CALCIQUE"
  },
  {
    "id": "279",
    "name": "KNIF (VAPEUR)",
    "wilaya_code": "04",
    "commune_code": null,
    "commune": "BAGHAI",
    "lat": 35.4864167,
    "lng": 7.2555278,
    "geo_precision": "exact",
    "geo_method": "asal",
    "source": "asal",
    "type": "source",
    "temperature_c": 0,
    "debit_l_s": 0,
    "altitude_m": 1066
  },
  {
    "id": "28",
    "name": "TAMEKREST",
    "wilaya_code": "11",
    "commune_code": null,
    "commune": "TAMANRASSET",
    "lat": 22.784177,
    "lng": 5.816546,
    "geo_precision": "exact",
    "geo_method": "asal",
    "source": "asal",
    "type": "source",
    "temperature_c": 5,
    "debit_l_s": 20,
    "altitude_m": 927,
    "minerality": "BICARBONATEE CALCIQUE"
  },
  {
    "id": "280",
    "name": "AIN FEZZA",
    "wilaya_code": "13",
    "commune_code": null,
    "commune": "AIN FEZZA",
    "lat": 34.883749,
    "lng": -1.23811,
    "geo_precision": "exact",
    "geo_method": "asal",
    "source": "asal",
    "type": "ain",
    "temperature_c": 17,
    "debit_l_s": 10,
    "altitude_m": 846
  },
  {
    "id": "281",
    "name": "AIN LALLA SETTI",
    "wilaya_code": "31",
    "commune_code": null,
    "commune": "ARZEW",
    "lat": 35.862956,
    "lng": -0.319784,
    "geo_precision": "exact",
    "geo_method": "asal",
    "source": "asal",
    "type": "ain",
    "temperature_c": 0,
    "debit_l_s": 0,
    "altitude_m": 0
  },
  {
    "id": "282",
    "name": "HAMMAM METAHRA",
    "wilaya_code": "48",
    "commune_code": null,
    "commune": "HAD ECHAKALA",
    "lat": 35.666142,
    "lng": 1.10974,
    "geo_precision": "exact",
    "geo_method": "asal",
    "source": "asal",
    "type": "hammam",
    "temperature_c": 28,
    "debit_l_s": 4,
    "altitude_m": 0
  },
  {
    "id": "29",
    "name": "ISKEIFAF",
    "wilaya_code": "33",
    "commune_code": null,
    "commune": "ILLIZI",
    "lat": 27.1339,
    "lng": 8.75853,
    "geo_precision": "exact",
    "geo_method": "asal",
    "source": "asal",
    "type": "source",
    "temperature_c": 60,
    "debit_l_s": 3.5,
    "altitude_m": 512,
    "minerality": "BICARBONATEE CALCIQUE"
  },
  {
    "id": "3",
    "name": "HAMMAM BOUHACHANA ASSASLA",
    "wilaya_code": "24",
    "commune_code": null,
    "commune": "BOUHACHANA",
    "lat": 36.3325,
    "lng": 7.5380556,
    "geo_precision": "exact",
    "geo_method": "asal",
    "source": "asal",
    "type": "hammam",
    "temperature_c": 35.4,
    "debit_l_s": 6,
    "altitude_m": 460.5,
    "minerality": "BICARBONATEE CALCIQUE"
  },
  {
    "id": "30",
    "name": "INDABIRAN",
    "wilaya_code": "56",
    "commune_code": null,
    "commune": "DJANET",
    "lat": 24.461203,
    "lng": 9.497703,
    "geo_precision": "exact",
    "geo_method": "asal",
    "source": "asal",
    "type": "source",
    "temperature_c": 28,
    "debit_l_s": 2,
    "altitude_m": 633,
    "minerality": "BICARBONATEE CALCIQUE"
  },
  {
    "id": "31",
    "name": "HAMMAM KIRIA",
    "wilaya_code": "15",
    "commune_code": null,
    "commune": "ADEKAR",
    "lat": 36.723052,
    "lng": 4.5696,
    "geo_precision": "exact",
    "geo_method": "asal",
    "source": "asal",
    "type": "hammam",
    "temperature_c": 45.3,
    "debit_l_s": 0.3,
    "altitude_m": 700,
    "minerality": "BICARBONATEE CALCIQUE"
  },
  {
    "id": "32",
    "name": "AIN TEMDA",
    "wilaya_code": "48",
    "commune_code": null,
    "commune": "MAZOUNA",
    "lat": 36.122186,
    "lng": 0.898575,
    "geo_precision": "exact",
    "geo_method": "asal",
    "source": "asal",
    "type": "ain",
    "temperature_c": 25,
    "debit_l_s": 6,
    "altitude_m": 332,
    "minerality": "BICARBONATEE CALCIQUE"
  },
  {
    "id": "33",
    "name": "AIN EL BAHRI",
    "wilaya_code": "48",
    "commune_code": null,
    "commune": "EL OULDJA",
    "lat": 35.91445,
    "lng": 1.18235,
    "geo_precision": "exact",
    "geo_method": "asal",
    "source": "asal",
    "type": "ain",
    "temperature_c": 37,
    "debit_l_s": 3,
    "altitude_m": 292,
    "minerality": "BICARBONATEE CALCIQUE"
  },
  {
    "id": "34",
    "name": "AIN ERRAMKA",
    "wilaya_code": "48",
    "commune_code": null,
    "commune": "RAMKA",
    "lat": 35.848373,
    "lng": 1.363155,
    "geo_precision": "exact",
    "geo_method": "asal",
    "source": "asal",
    "type": "ain",
    "temperature_c": 28,
    "debit_l_s": 2,
    "altitude_m": 390,
    "minerality": "BICARBONATEE CALCIQUE"
  },
  {
    "id": "35",
    "name": "HAMMAM AIN EL FOUAR",
    "wilaya_code": "67",
    "commune_code": null,
    "commune": "EL AOUINET",
    "lat": 35.892414,
    "lng": 3.061778,
    "geo_precision": "exact",
    "geo_method": "asal",
    "source": "asal",
    "type": "hammam",
    "temperature_c": 18,
    "debit_l_s": 1,
    "altitude_m": 993,
    "minerality": "BICARBONATEE CALCIQUE ET MAGNESIENNE"
  },
  {
    "id": "36",
    "name": "HAMMAM SOUARI",
    "wilaya_code": "26",
    "commune_code": null,
    "commune": "EL AOUINET",
    "lat": 35.867168,
    "lng": 3.047429,
    "geo_precision": "exact",
    "geo_method": "asal",
    "source": "asal",
    "type": "hammam",
    "temperature_c": 20,
    "debit_l_s": 0.1,
    "altitude_m": 928,
    "minerality": "BICARBONATEE CALCIQUE ET MAGNESIENNE"
  },
  {
    "id": "37",
    "name": "BOURAMROUM",
    "wilaya_code": "09",
    "commune_code": null,
    "commune": "OUED EL ALLEUG",
    "lat": 36.572817,
    "lng": 2.757983,
    "geo_precision": "exact",
    "geo_method": "asal",
    "source": "asal",
    "type": "source",
    "temperature_c": 39,
    "debit_l_s": 11,
    "altitude_m": 53,
    "minerality": "BICARBONATEE CALCIQUE ET MAGNESIENNE"
  },
  {
    "id": "38",
    "name": "HAMMAM BOUHACHANA ROUMIA",
    "wilaya_code": "24",
    "commune_code": null,
    "commune": "BOUHACHANA",
    "lat": 36.3208333,
    "lng": 7.5438889,
    "geo_precision": "exact",
    "geo_method": "asal",
    "source": "asal",
    "type": "hammam",
    "temperature_c": 34.3,
    "debit_l_s": 8,
    "altitude_m": 519,
    "minerality": "BICARBONATEE MAGNESIENNE"
  },
  {
    "id": "39",
    "name": "HAMMAM BOUHACHANA ENAKHLA",
    "wilaya_code": "24",
    "commune_code": null,
    "commune": "BOUHACHANA",
    "lat": 36.315,
    "lng": 7.5322222,
    "geo_precision": "exact",
    "geo_method": "asal",
    "source": "asal",
    "type": "hammam",
    "temperature_c": 37,
    "debit_l_s": 2,
    "altitude_m": 623.7,
    "minerality": "BICARBONATEE MAGNESIENNE"
  },
  {
    "id": "4",
    "name": "EL KROUMA",
    "wilaya_code": "41",
    "commune_code": null,
    "commune": "SIDI FRADJ",
    "lat": 36.12155,
    "lng": 8.2324667,
    "geo_precision": "exact",
    "geo_method": "asal",
    "source": "asal",
    "type": "source",
    "temperature_c": 22,
    "debit_l_s": 0,
    "altitude_m": 290,
    "minerality": "BICARBONATEE CALCIQUE"
  },
  {
    "id": "40",
    "name": "AIN BOUZAROUR",
    "wilaya_code": "02",
    "commune_code": null,
    "commune": "LABIODH MEDJADJA",
    "lat": 36.270091,
    "lng": 1.380117,
    "geo_precision": "exact",
    "geo_method": "asal",
    "source": "asal",
    "type": "ain",
    "temperature_c": 19,
    "debit_l_s": 0.2,
    "altitude_m": 497,
    "minerality": "BICARBONATEE MAGNESIENNE"
  },
  {
    "id": "41",
    "name": "IMIHROU",
    "wilaya_code": "33",
    "commune_code": null,
    "commune": "ILLIZI",
    "lat": 25.950583,
    "lng": 8.746182,
    "geo_precision": "exact",
    "geo_method": "asal",
    "source": "asal",
    "type": "source",
    "temperature_c": 37,
    "debit_l_s": 20,
    "altitude_m": 667,
    "minerality": "BICARBONATEE POTASSIQUE"
  },
  {
    "id": "42",
    "name": "KBALTIA",
    "wilaya_code": "41",
    "commune_code": null,
    "commune": "HENANACHA",
    "lat": 36.2155333,
    "lng": 7.7342333,
    "geo_precision": "exact",
    "geo_method": "asal",
    "source": "asal",
    "type": "source",
    "temperature_c": 25,
    "debit_l_s": 0,
    "altitude_m": 750.7,
    "minerality": "BICARBONATEE SODIQUE"
  },
  {
    "id": "43",
    "name": "HMAMIN",
    "wilaya_code": "36",
    "commune_code": null,
    "commune": "MECHROUHA",
    "lat": 36.4372667,
    "lng": 7.9909,
    "geo_precision": "exact",
    "geo_method": "asal",
    "source": "asal",
    "type": "source",
    "temperature_c": 36.2,
    "debit_l_s": 3,
    "altitude_m": 398.5,
    "minerality": "BICARBONATEE SODIQUE"
  },
  {
    "id": "44",
    "name": "TOUAITIA",
    "wilaya_code": "12",
    "commune_code": null,
    "commune": "SIDI FRADJ",
    "lat": 36.0048833,
    "lng": 8.2782167,
    "geo_precision": "exact",
    "geo_method": "asal",
    "source": "asal",
    "type": "source",
    "temperature_c": 37,
    "debit_l_s": 3,
    "altitude_m": 495,
    "minerality": "BICARBONATEE SODIQUE"
  },
  {
    "id": "45",
    "name": "HAMMAM KSENA",
    "wilaya_code": "10",
    "commune_code": null,
    "commune": "EL HACHEMIA",
    "lat": 36.598611,
    "lng": 3.590417,
    "geo_precision": "exact",
    "geo_method": "asal",
    "source": "asal",
    "type": "hammam",
    "temperature_c": 8,
    "debit_l_s": 90,
    "altitude_m": 610,
    "minerality": "BICARBONATEE SODIQUE"
  },
  {
    "id": "46",
    "name": "HAMMAM SALHINE",
    "wilaya_code": "26",
    "commune_code": null,
    "commune": "BERROUAGHIA",
    "lat": 36.152419,
    "lng": 2.971516,
    "geo_precision": "exact",
    "geo_method": "asal",
    "source": "asal",
    "type": "hammam",
    "temperature_c": 39.5,
    "debit_l_s": 3.1,
    "altitude_m": 804,
    "minerality": "BICARBONATEE SODIQUE"
  },
  {
    "id": "47",
    "name": "HAMMAM KAMORA",
    "wilaya_code": "67",
    "commune_code": null,
    "commune": "BOGHAR",
    "lat": 35.893567,
    "lng": 2.734694,
    "geo_precision": "exact",
    "geo_method": "asal",
    "source": "asal",
    "type": "hammam",
    "temperature_c": 36,
    "debit_l_s": 3,
    "altitude_m": 641,
    "minerality": "BICARBONATEE SODIQUE"
  },
  {
    "id": "48",
    "name": "AIN PALMIER N 1",
    "wilaya_code": "29",
    "commune_code": null,
    "commune": "BOUHANIFIA",
    "lat": 35.3163111,
    "lng": -0.0491667,
    "geo_precision": "exact",
    "geo_method": "asal",
    "source": "asal",
    "type": "ain",
    "temperature_c": 65,
    "debit_l_s": 1.5,
    "altitude_m": 241,
    "minerality": "BICARBONATEE SODIQUE"
  },
  {
    "id": "49",
    "name": "AIN SIDI ALI N 3",
    "wilaya_code": "29",
    "commune_code": null,
    "commune": "BOUHANIFIA",
    "lat": 35.3163889,
    "lng": -0.0483333,
    "geo_precision": "exact",
    "geo_method": "asal",
    "source": "asal",
    "type": "ain",
    "temperature_c": 67,
    "debit_l_s": 0.5,
    "altitude_m": 258,
    "minerality": "BICARBONATEE SODIQUE"
  },
  {
    "id": "5",
    "name": "KHENGUET EL HAMAM",
    "wilaya_code": "41",
    "commune_code": null,
    "commune": "ZAAROURIA",
    "lat": 36.1960667,
    "lng": 7.9054667,
    "geo_precision": "exact",
    "geo_method": "asal",
    "source": "asal",
    "type": "source",
    "temperature_c": 25,
    "debit_l_s": 6,
    "altitude_m": 674,
    "minerality": "BICARBONATEE CALCIQUE"
  },
  {
    "id": "50",
    "name": "AIN EL HAMMAM N 6",
    "wilaya_code": "29",
    "commune_code": null,
    "commune": "BOUHANIFIA",
    "lat": 35.3141667,
    "lng": -0.0505556,
    "geo_precision": "exact",
    "geo_method": "asal",
    "source": "asal",
    "type": "ain",
    "temperature_c": 48,
    "debit_l_s": 2,
    "altitude_m": 229,
    "minerality": "BICARBONATEE SODIQUE"
  },
  {
    "id": "51",
    "name": "DUPONT",
    "wilaya_code": "29",
    "commune_code": null,
    "commune": "BOUHANIFIA",
    "lat": 35.3147222,
    "lng": -0.0508333,
    "geo_precision": "exact",
    "geo_method": "asal",
    "source": "asal",
    "type": "source",
    "temperature_c": 53,
    "debit_l_s": 5,
    "altitude_m": 224,
    "minerality": "BICARBONATEE SODIQUE"
  },
  {
    "id": "52",
    "name": "AIN EL HAMMAMAT",
    "wilaya_code": "29",
    "commune_code": null,
    "commune": "BOUHANIFIA",
    "lat": 35.3411111,
    "lng": -0.1055556,
    "geo_precision": "exact",
    "geo_method": "asal",
    "source": "asal",
    "type": "ain",
    "temperature_c": 53,
    "debit_l_s": 2,
    "altitude_m": 322,
    "minerality": "BICARBONATEE SODIQUE"
  },
  {
    "id": "53",
    "name": "FOUSSA",
    "wilaya_code": "47",
    "commune_code": null,
    "commune": "GUERRARA",
    "lat": 32.78797,
    "lng": 4.494584,
    "geo_precision": "exact",
    "geo_method": "asal",
    "source": "asal",
    "type": "source",
    "temperature_c": 45,
    "debit_l_s": 65,
    "altitude_m": 0,
    "minerality": "BICARBONATEE SODIQUE"
  },
  {
    "id": "54",
    "name": "TAMESGUIDA",
    "wilaya_code": "53",
    "commune_code": null,
    "commune": "FOUGARET EZZOUA",
    "lat": 27.301992,
    "lng": 3.729817,
    "geo_precision": "exact",
    "geo_method": "asal",
    "source": "asal",
    "type": "source",
    "temperature_c": 0,
    "debit_l_s": 74,
    "altitude_m": 364,
    "minerality": "BICARBONATEE SODIQUE"
  },
  {
    "id": "55",
    "name": "IN TAHABORT",
    "wilaya_code": "11",
    "commune_code": null,
    "commune": "TAMANRASSET",
    "lat": 22.838886,
    "lng": 5.630499,
    "geo_precision": "exact",
    "geo_method": "asal",
    "source": "asal",
    "type": "source",
    "temperature_c": 5,
    "debit_l_s": 24,
    "altitude_m": 869,
    "minerality": "BICARBONATEE SODIQUE"
  },
  {
    "id": "56",
    "name": "TIT-NOUDAD",
    "wilaya_code": "11",
    "commune_code": null,
    "commune": "TAMANRASSET",
    "lat": 23.113003,
    "lng": 6.079285,
    "geo_precision": "exact",
    "geo_method": "asal",
    "source": "asal",
    "type": "source",
    "temperature_c": 6,
    "debit_l_s": 20,
    "altitude_m": 1147,
    "minerality": "BICARBONATEE SODIQUE"
  },
  {
    "id": "57",
    "name": "LAARACHE",
    "wilaya_code": "33",
    "commune_code": null,
    "commune": "ILLIZI",
    "lat": 27.403925,
    "lng": 8.841154,
    "geo_precision": "exact",
    "geo_method": "asal",
    "source": "asal",
    "type": "source",
    "temperature_c": 32,
    "debit_l_s": 1.5,
    "altitude_m": 567,
    "minerality": "BICARBONATEE SODIQUE"
  },
  {
    "id": "58",
    "name": "ADJAHIL",
    "wilaya_code": "56",
    "commune_code": null,
    "commune": "DJANET",
    "lat": 24.536487,
    "lng": 9.481322,
    "geo_precision": "exact",
    "geo_method": "asal",
    "source": "asal",
    "type": "source",
    "temperature_c": 29,
    "debit_l_s": 1,
    "altitude_m": 1037,
    "minerality": "BICARBONATEE SODIQUE"
  },
  {
    "id": "59",
    "name": "HAMMAM GHOBNCHALA",
    "wilaya_code": "36",
    "commune_code": null,
    "commune": "OULED ZITOUN",
    "lat": 36.4536111,
    "lng": 8.0686111,
    "geo_precision": "exact",
    "geo_method": "asal",
    "source": "asal",
    "type": "hammam",
    "temperature_c": 25,
    "debit_l_s": 1.5,
    "altitude_m": 467,
    "minerality": "BICARBONATEE SODIQUE, CHLORUREE (SULFATEE) CALCIQUE"
  },
  {
    "id": "6",
    "name": "HAMMAM ZAID",
    "wilaya_code": "41",
    "commune_code": null,
    "commune": "OULED DRISS",
    "lat": 36.3594444,
    "lng": 8.012778,
    "geo_precision": "exact",
    "geo_method": "asal",
    "source": "asal",
    "type": "hammam",
    "temperature_c": 39.2,
    "debit_l_s": 6,
    "altitude_m": 837,
    "minerality": "BICARBONATEE CALCIQUE"
  },
  {
    "id": "60",
    "name": "HAMMAM ZAID (SIDI ZID)",
    "wilaya_code": "36",
    "commune_code": null,
    "commune": "BOUHADJAR",
    "lat": 36.4677778,
    "lng": 8.1505556,
    "geo_precision": "exact",
    "geo_method": "asal",
    "source": "asal",
    "type": "hammam",
    "temperature_c": 43,
    "debit_l_s": 0.6,
    "altitude_m": 385,
    "minerality": "BICARBONATEE SODIQUE, CHLORUREE (SULFATEE) CALCIQUE"
  },
  {
    "id": "61",
    "name": "HAMMAM BEN SALAH",
    "wilaya_code": "36",
    "commune_code": null,
    "commune": "BENI SALEH",
    "lat": 36.52,
    "lng": 8.0369444,
    "geo_precision": "exact",
    "geo_method": "asal",
    "source": "asal",
    "type": "hammam",
    "temperature_c": 49.3,
    "debit_l_s": 3,
    "altitude_m": 306,
    "minerality": "BICARBONATEE SODIQUE, CHLORUREE (SULFATEE) CALCIQUE"
  },
  {
    "id": "62",
    "name": "HAMMAM SIDI TRAD",
    "wilaya_code": "36",
    "commune_code": null,
    "commune": "ZITOUNA",
    "lat": 36.57,
    "lng": 8.31,
    "geo_precision": "exact",
    "geo_method": "asal",
    "source": "asal",
    "type": "hammam",
    "temperature_c": 63.2,
    "debit_l_s": 2.5,
    "altitude_m": 428,
    "minerality": "BICARBONATEE SODIQUE, CHLORUREE (SULFATEE) CALCIQUE"
  },
  {
    "id": "63",
    "name": "HAMMAM KAF N'SOUR",
    "wilaya_code": "36",
    "commune_code": null,
    "commune": "CHAFFIA",
    "lat": 36.605,
    "lng": 8.0311111,
    "geo_precision": "exact",
    "geo_method": "asal",
    "source": "asal",
    "type": "hammam",
    "temperature_c": 31,
    "debit_l_s": 2,
    "altitude_m": 123,
    "minerality": "BICARBONATEE SODIQUE, CHLORUREE CALCIQUE"
  },
  {
    "id": "64",
    "name": "HAMMAM ZATOUT",
    "wilaya_code": "36",
    "commune_code": null,
    "commune": "BOUHADJAR",
    "lat": 36.47,
    "lng": 8.14,
    "geo_precision": "exact",
    "geo_method": "asal",
    "source": "asal",
    "type": "hammam",
    "temperature_c": 48.2,
    "debit_l_s": 1.5,
    "altitude_m": 309,
    "minerality": "BICARBONATEE SODIQUE, CHLORUREE CALCIQUE"
  },
  {
    "id": "65",
    "name": "SIDI SAFI",
    "wilaya_code": "29",
    "commune_code": null,
    "commune": "TIGHENIF",
    "lat": 35.374567,
    "lng": 0.375561,
    "geo_precision": "exact",
    "geo_method": "asal",
    "source": "asal",
    "type": "source",
    "temperature_c": 42,
    "debit_l_s": 20,
    "altitude_m": 500,
    "minerality": "CARBONATE CALCIQUE"
  },
  {
    "id": "66",
    "name": "SOURCE HAMMAM SIDI AMOR HAMMAM BOUTALEB",
    "wilaya_code": "19",
    "commune_code": null,
    "commune": "EL HAMMA",
    "lat": 35.7238889,
    "lng": 5.3719444,
    "geo_precision": "exact",
    "geo_method": "asal",
    "source": "asal",
    "type": "source",
    "temperature_c": 51.6,
    "debit_l_s": 1.5,
    "altitude_m": 1148,
    "minerality": "CHLORO-SULFATEE CALCIQUE RICHE EN MAGNESIUM ET SODIUM"
  },
  {
    "id": "67",
    "name": "DJEMAA",
    "wilaya_code": "57",
    "commune_code": null,
    "commune": "DJEMAA",
    "lat": 33.54825,
    "lng": 5.891972,
    "geo_precision": "exact",
    "geo_method": "asal",
    "source": "asal",
    "type": "source",
    "temperature_c": 53,
    "debit_l_s": 200,
    "altitude_m": 28,
    "minerality": "CHLORURE ET SULFATEE CALCIQUE"
  },
  {
    "id": "68",
    "name": "GOUIRET CHOHEB",
    "wilaya_code": "30",
    "commune_code": null,
    "commune": "HASSI BEN ABDELAH",
    "lat": 32.137557,
    "lng": 5.557267,
    "geo_precision": "exact",
    "geo_method": "asal",
    "source": "asal",
    "type": "source",
    "temperature_c": 52,
    "debit_l_s": 200,
    "altitude_m": 135,
    "minerality": "CHLORURE ET SULFATEE SODIQUE"
  },
  {
    "id": "69",
    "name": "ZELFANA",
    "wilaya_code": "47",
    "commune_code": null,
    "commune": "ZELFANA",
    "lat": 32.393315,
    "lng": 4.222364,
    "geo_precision": "exact",
    "geo_method": "asal",
    "source": "asal",
    "type": "source",
    "temperature_c": 41,
    "debit_l_s": 35,
    "altitude_m": 0,
    "minerality": "CHLORURE ET SULFATEE SODIQUE"
  },
  {
    "id": "7",
    "name": "HAMMAM (2014)",
    "wilaya_code": "12",
    "commune_code": null,
    "commune": "HAMMAMAT",
    "lat": 35.4547222,
    "lng": 7.9575,
    "geo_precision": "exact",
    "geo_method": "asal",
    "source": "asal",
    "type": "hammam",
    "temperature_c": 35,
    "debit_l_s": 2,
    "altitude_m": 880,
    "minerality": "BICARBONATEE CALCIQUE"
  },
  {
    "id": "70",
    "name": "HAMMAM EL BETHEM",
    "wilaya_code": "26",
    "commune_code": null,
    "commune": "OUAMRI",
    "lat": 36.206124,
    "lng": 2.554359,
    "geo_precision": "exact",
    "geo_method": "asal",
    "source": "asal",
    "type": "hammam",
    "temperature_c": 20,
    "debit_l_s": 0.8,
    "altitude_m": 408,
    "minerality": "CHLORUREE CALCIQUE"
  },
  {
    "id": "71",
    "name": "AIN SKHOUNA",
    "wilaya_code": "20",
    "commune_code": null,
    "commune": "AIN SKHOUNA",
    "lat": 34.499255,
    "lng": 0.848206,
    "geo_precision": "exact",
    "geo_method": "asal",
    "source": "asal",
    "type": "ain",
    "temperature_c": 31,
    "debit_l_s": 50,
    "altitude_m": 991,
    "minerality": "CHLORUREE CALCIQUE"
  },
  {
    "id": "72",
    "name": "FORAGE AIN ZEOUI",
    "wilaya_code": "20",
    "commune_code": null,
    "commune": "AIN SKHOUNA",
    "lat": 34.463671,
    "lng": 0.821151,
    "geo_precision": "exact",
    "geo_method": "asal",
    "source": "asal",
    "type": "forage",
    "temperature_c": 34.8,
    "debit_l_s": 40,
    "altitude_m": 996,
    "minerality": "CHLORUREE CALCIQUE"
  },
  {
    "id": "73",
    "name": "FORAGE AIN MELAH",
    "wilaya_code": "20",
    "commune_code": null,
    "commune": "AIN SKHOUNA",
    "lat": 34.526448,
    "lng": 0.848179,
    "geo_precision": "exact",
    "geo_method": "asal",
    "source": "asal",
    "type": "forage",
    "temperature_c": 28,
    "debit_l_s": 25,
    "altitude_m": 0,
    "minerality": "CHLORUREE CALCIQUE"
  },
  {
    "id": "74",
    "name": "EL MKABERTA",
    "wilaya_code": "14",
    "commune_code": null,
    "commune": "OUED ESSLEM",
    "lat": 35.492226,
    "lng": 0.77751,
    "geo_precision": "exact",
    "geo_method": "asal",
    "source": "asal",
    "type": "source",
    "temperature_c": 35,
    "debit_l_s": 8,
    "altitude_m": 318,
    "minerality": "CHLORUREE CALCIQUE"
  },
  {
    "id": "75",
    "name": "HAMMAM ELBOUADJEN",
    "wilaya_code": "48",
    "commune_code": null,
    "commune": "HAD ECHAKALA",
    "lat": 35.68139,
    "lng": 1.171187,
    "geo_precision": "exact",
    "geo_method": "asal",
    "source": "asal",
    "type": "hammam",
    "temperature_c": 22,
    "debit_l_s": 7,
    "altitude_m": 0,
    "minerality": "CHLORUREE CALCIQUE"
  },