[
 {
  "name_ar": "المتحف الوطني للفنون و التقاليد الشعبية",
  "name_fr": "Musée National des Arts et Traditions Populaire",
  "layer": "museum",
  "lat": 36.787508,
  "lng": 3.062275,
  "wilaya_code": "16",
  "wilaya_name_ar": "الجزائر",
  "wilaya_name_fr": "Alger",
  "nid_ar": "48",
  "nid_fr": "3",
  "match_m": 0,
  "source": "patrimoineculturelalgerien.org",
  "name": "Musée National des Arts et Traditions Populaire",
  "has_virtual_tour": false
 },
 {
  "name_ar": "آثار تيبازة",
  "name_fr": "Site de Tipasa",
  "layer": "protected-cultural-property",
  "lat": 36.594712,
  "lng": 2.444023,
  "wilaya_code": "42",
  "wilaya_name_ar": "تيبازة",
  "wilaya_name_fr": "Tipaza",
  "nid_ar": "120",
  "nid_fr": "66",
  "match_m": 0,
  "source": "patrimoineculturelalgerien.org",
  "name": "Site de Tipasa",
  "has_virtual_tour": false
 },
 {
  "name_ar": "تيمقاد",
  "name_fr": "Timgad",
  "layer": "protected-cultural-property",
  "lat": 35.484187,
  "lng": 6.468884,
  "wilaya_code": "05",
  "wilaya_name_ar": "باتنة",
  "wilaya_name_fr": "Batna",
  "nid_ar": "121",
  "nid_fr": "65",
  "match_m": 74,
  "source": "patrimoineculturelalgerien.org",
  "name": "Timgad",
  "has_virtual_tour": false
 },
 {
  "name_ar": "المقبرة الميغالتية لبونوارة",
  "name_fr": "Nécropole mégalithique de Bounouara",
  "layer": "protected-cultural-property",
  "lat": 36.222176,
  "lng": 6.799716,
  "wilaya_code": "25",
  "wilaya_name_ar": "قسنطينة",
  "wilaya_name_fr": "Constantine",
  "nid_ar": "128",
  "nid_fr": null,
  "match_m": null,
  "source": "patrimoineculturelalgerien.org",
  "name": "Nécropole mégalithique de Bounouara",
  "has_virtual_tour": false
 },
 {
  "name_ar": "الموقع الأثري تيديس",
  "name_fr": "Site archéologique de Tiddis",
  "layer": "protected-cultural-property",
  "lat": 36.462911,
  "lng": 6.483054,
  "wilaya_code": "25",
  "wilaya_name_ar": "قسنطينة",
  "wilaya_name_fr": "Constantine",
  "nid_ar": "129",
  "nid_fr": null,
  "match_m": null,
  "source": "patrimoineculturelalgerien.org",
  "name": "Site archéologique de Tiddis",
  "has_virtual_tour": false
 },
 {
  "name_ar": "متحف موقع جميلة",
  "name_fr": "Djémila",
  "layer": "museum",
  "lat": 36.320675,
  "lng": 5.735759,
  "wilaya_code": "19",
  "wilaya_name_ar": "سطيف",
  "wilaya_name_fr": "Sétif",
  "nid_ar": "132",
  "nid_fr": "64",
  "match_m": 0,
  "source": "patrimoineculturelalgerien.org",
  "name": "Djémila",
  "has_virtual_tour": false
 },
 {
  "name_ar": "إيمدغاسن",
  "name_fr": "Tombeau Imedghassen",
  "layer": "protected-cultural-property",
  "lat": 35.70709,
  "lng": 6.434445,
  "wilaya_code": "05",
  "wilaya_name_ar": "باتنة",
  "wilaya_name_fr": "Batna",
  "nid_ar": "133",
  "nid_fr": "106",
  "match_m": 0,
  "source": "patrimoineculturelalgerien.org",
  "name": "Tombeau Imedghassen",
  "has_virtual_tour": false
 },
 {
  "name_ar": "وادي مزاب",
  "name_fr": "La vallée du mzab",
  "layer": "protected-cultural-property",
  "lat": 32.483797,
  "lng": 3.68293,
  "wilaya_code": "47",
  "wilaya_name_ar": "غرداية",
  "wilaya_name_fr": "Ghardaïa",
  "nid_ar": "134",
  "nid_fr": "61",
  "match_m": 0,
  "source": "patrimoineculturelalgerien.org",
  "name": "La vallée du mzab",
  "has_virtual_tour": false
 },
 {
  "name_ar": "قلعة بني حماد",
  "name_fr": "La Kalâa des Béni Hammad",
  "layer": "protected-cultural-property",
  "lat": 35.822427,
  "lng": 4.789549,
  "wilaya_code": "28",
  "wilaya_name_ar": "المسيلة",
  "wilaya_name_fr": "M'Sila",
  "nid_ar": "135",
  "nid_fr": "63",
  "match_m": 142,
  "source": "patrimoineculturelalgerien.org",
  "name": "La Kalâa des Béni Hammad",
  "has_virtual_tour": false
 },
 {
  "name_ar": "طاسيلي ناجر",
  "name_fr": "Le Parc National du Tassili (N'Ajjer)",
  "layer": "protected-cultural-property",
  "lat": 25.813595,
  "lng": 8.133856,
  "wilaya_code": "33",
  "wilaya_name_ar": "إليزي",
  "wilaya_name_fr": "Illizi",
  "nid_ar": "136",
  "nid_fr": "62",
  "match_m": 0,
  "source": "patrimoineculturelalgerien.org",
  "name": "Le Parc National du Tassili (N'Ajjer)",
  "has_virtual_tour": true
 },
 {
  "name_ar": "جامع كتشاوة",
  "name_fr": "Mosquée Ketchaoua",
  "layer": "protected-cultural-property",
  "lat": 36.785047,
  "lng": 3.060767,
  "wilaya_code": "16",
  "wilaya_name_ar": "الجزائر",
  "wilaya_name_fr": "Alger",
  "nid_ar": "137",
  "nid_fr": "58",
  "match_m": 0,
  "source": "patrimoineculturelalgerien.org",
  "name": "Mosquée Ketchaoua",
  "has_virtual_tour": false
 },
 {
  "name_ar": "المتحف الوطني سطيف",
  "name_fr": "Musée National de Setif",
  "layer": "museum",
  "lat": 36.19196,
  "lng": 5.409965,
  "wilaya_code": "19",
  "wilaya_name_ar": "سطيف",
  "wilaya_name_fr": "Sétif",
  "nid_ar": "138",
  "nid_fr": "100",
  "match_m": 0,
  "source": "patrimoineculturelalgerien.org",
  "name": "Musée National de Setif",
  "has_virtual_tour": true
 },
 {
  "name_ar": "المسرح الوطني محي الدين بشطارزي",
  "name_fr": "Théâtre National Mahieddine Bachtarzi",
  "layer": "theatre",
  "lat": 36.781183,
  "lng": 3.060202,
  "wilaya_code": "16",
  "wilaya_name_ar": "الجزائر",
  "wilaya_name_fr": "Alger",
  "nid_ar": "145",
  "nid_fr": "38",
  "match_m": 0,
  "source": "patrimoineculturelalgerien.org",
  "name": "Théâtre National Mahieddine Bachtarzi",
  "has_virtual_tour": false
 },
 {
  "name_ar": "قصـر تيـــوت",
  "name_fr": "Ksar de Tiout",
  "layer": "protected-cultural-property",
  "lat": 32.771069,
  "lng": -0.417302,
  "wilaya_code": "45",
  "wilaya_name_ar": "النعامة",
  "wilaya_name_fr": "Naâma",
  "nid_ar": "157",
  "nid_fr": null,
  "match_m": null,
  "source": "patrimoineculturelalgerien.org",
  "name": "Ksar de Tiout",
  "has_virtual_tour": false
 },
 {
  "name_ar": "قصـر مغرار التحتاني (قلعة الشيخ بوعمامة)",
  "name_fr": "Ksar de Moghrar Tahtani (citadelle de Cheikh Bouamama)",
  "layer": "protected-cultural-property",
  "lat": 32.493226,
  "lng": -0.466872,
  "wilaya_code": "45",
  "wilaya_name_ar": "النعامة",
  "wilaya_name_fr": "Naâma",
  "nid_ar": "158",
  "nid_fr": null,
  "match_m": null,
  "source": "patrimoineculturelalgerien.org",
  "name": "Ksar de Moghrar Tahtani (citadelle de Cheikh Bouamama)",
  "has_virtual_tour": false
 },
 {
  "name_ar": "قصـر عسلة(صامر)",
  "name_fr": "Ksar d'Asla (Samer)",
  "layer": "protected-cultural-property",
  "lat": 33.012071,
  "lng": -0.081151,
  "wilaya_code": "45",
  "wilaya_name_ar": "النعامة",
  "wilaya_name_fr": "Naâma",
  "nid_ar": "159",
  "nid_fr": null,
  "match_m": null,
  "source": "patrimoineculturelalgerien.org",
  "name": "Ksar d'Asla (Samer)",
  "has_virtual_tour": false
 },
 {
  "name_ar": "المسجد المريني العتيق",
  "name_fr": "Grande Mosquée Al-Merini",
  "layer": "protected-cultural-property",
  "lat": 35.93625,
  "lng": 0.091861,
  "wilaya_code": "27",
  "wilaya_name_ar": "مستغانم",
  "wilaya_name_fr": "Mostaganem",
  "nid_ar": "190",
  "nid_fr": "1364",
  "match_m": 6,
  "source": "patrimoineculturelalgerien.org",
  "name": "Grande Mosquée Al-Merini",
  "has_virtual_tour": false
 },
 {
  "name_ar": "حي العرصة",
  "name_fr": "Quartier d'El Arsa",
  "layer": "protected-cultural-property",
  "lat": 35.934912,
  "lng": 0.099796,
  "wilaya_code": "27",
  "wilaya_name_ar": "مستغانم",
  "wilaya_name_fr": "Mostaganem",
  "nid_ar": "191",
  "nid_fr": null,
  "match_m": null,
  "source": "patrimoineculturelalgerien.org",
  "name": "Quartier d'El Arsa",
  "has_virtual_tour": false
 },
 {
  "name_ar": "دار القايد \"قصبة درب –طبانة \"",
  "name_fr": "dar el kaid",
  "layer": "protected-cultural-property",
  "lat": 35.936242,
  "lng": 0.092952,
  "wilaya_code": "27",
  "wilaya_name_ar": "مستغانم",
  "wilaya_name_fr": "Mostaganem",
  "nid_ar": "192",
  "nid_fr": "1514",
  "match_m": 0,
  "source": "patrimoineculturelalgerien.org",
  "name": "dar el kaid",
  "has_virtual_tour": false
 },
 {
  "name_ar": "ضريح الباي بوشلاغم",
  "name_fr": "Mausolée du bey Mostapha Bouchlaghem",
  "layer": "protected-cultural-property",
  "lat": 35.933104,
  "lng": 0.094787,
  "wilaya_code": "27",
  "wilaya_name_ar": "مستغانم",
  "wilaya_name_fr": "Mostaganem",
  "nid_ar": "193",
  "nid_fr": "1515",
  "match_m": 0,
  "source": "patrimoineculturelalgerien.org",
  "name": "Mausolée du bey Mostapha Bouchlaghem",
  "has_virtual_tour": false
 },
 {
  "name_ar": "المتحف العمومي الوطني خنشلة",
  "name_fr": "Laboratoire de préservation et de promotion - KHENCHELA -",
  "layer": "museum",
  "lat": 35.432268,
  "lng": 7.136422,
  "wilaya_code": "40",
  "wilaya_name_ar": "خنشلة",
  "wilaya_name_fr": "Khenchela",
  "nid_ar": "208",
  "nid_fr": "1332",
  "match_m": 39,
  "source": "patrimoineculturelalgerien.org",
  "name": "Laboratoire de préservation et de promotion - KHENCHELA -",
  "has_virtual_tour": false
 },
 {
  "name_ar": "المتحف العمومي الوطني للفن والتاريخ لمدينة تلمسان",
  "name_fr": "Musée Public National d’Art et d’Histoire de la ville de Tlemcen",
  "layer": "museum",
  "lat": 34.882923,
  "lng": -1.310548,
  "wilaya_code": "13",
  "wilaya_name_ar": "تلمسان",
  "wilaya_name_fr": "Tlemcen",
  "nid_ar": "209",
  "nid_fr": "198",
  "match_m": 60,
  "source": "patrimoineculturelalgerien.org",
  "name": "Musée Public National d’Art et d’Histoire de la ville de Tlemcen",
  "has_virtual_tour": false
 },
 {
  "name_ar": "المتحف العمومي الوطني للاثار الاسلامية تلمسان",
  "name_fr": "Musée Public National d’Archéologie islamique",
  "layer": "museum",
  "lat": 34.88093,
  "lng": -1.31461,
  "wilaya_code": "13",
  "wilaya_name_ar": "تلمسان",
  "wilaya_name_fr": "Tlemcen",
  "nid_ar": "213",
  "nid_fr": "37",
  "match_m": 0,
  "source": "patrimoineculturelalgerien.org",
  "name": "Musée Public National d’Archéologie islamique",
  "has_virtual_tour": false
 },
 {
  "name_ar": "المسرح الجهوي العلمة",
  "name_fr": "Théâtre régional d'El Eulma",
  "layer": "theatre",
  "lat": 36.147506,
  "lng": 5.676709,
  "wilaya_code": "19",
  "wilaya_name_ar": "سطيف",
  "wilaya_name_fr": "Sétif",
  "nid_ar": "214",
  "nid_fr": null,
  "match_m": null,
  "source": "patrimoineculturelalgerien.org",
  "name": "Théâtre régional d'El Eulma",
  "has_virtual_tour": false
 },
 {
  "name_ar": "المسرح الجهوي للجلفة",
  "name_fr": "Théâtre Djelfa",
  "layer": "theatre",
  "lat": 34.658357,
  "lng": 3.263677,
  "wilaya_code": "17",
  "wilaya_name_ar": "الجلفة",
  "wilaya_name_fr": "Djelfa",
  "nid_ar": "215",
  "nid_fr": "110",
  "match_m": 49,
  "source": "patrimoineculturelalgerien.org",
  "name": "Théâtre Djelfa",
  "has_virtual_tour": false
 },
 {
  "name_ar": "موقع ومتحف هيبون الأثري",
  "name_fr": "Musée des Ruines d'Hippone",
  "layer": "protected-cultural-property",
  "lat": 36.881788,
  "lng": 7.750959,
  "wilaya_code": "23",
  "wilaya_name_ar": "عنابة",
  "wilaya_name_fr": "Annaba",
  "nid_ar": "216",
  "nid_fr": "31",
  "match_m": 103,
  "source": "patrimoineculturelalgerien.org",
  "name": "Musée des Ruines d'Hippone",
  "has_virtual_tour": false
 },
 {
  "name_ar": "المكتبة الرئيسية للمطالعة العمومية لولاية خنشلة",
  "name_fr": "La principale bibliothèque de lecture publique",
  "layer": "library",
  "lat": 35.437191,
  "lng": 7.135182,
  "wilaya_code": "40",
  "wilaya_name_ar": "خنشلة",
  "wilaya_name_fr": "Khenchela",
  "nid_ar": "217",
  "nid_fr": "1354",
  "match_m": 0,
  "source": "patrimoineculturelalgerien.org",
  "name": "La principale bibliothèque de lecture publique",
  "has_virtual_tour": false
 },
 {
  "name_ar": "المتحف العمومي الوطني سيرتا",
  "name_fr": "Musée public national Cirta",
  "layer": "museum",
  "lat": 36.362871,
  "lng": 6.607123,
  "wilaya_code": "25",
  "wilaya_name_ar": "قسنطينة",
  "wilaya_name_fr": "Constantine",
  "nid_ar": "219",
  "nid_fr": null,
  "match_m": null,
  "source": "patrimoineculturelalgerien.org",
  "name": "Musée public national Cirta",
  "has_virtual_tour": false
 },
 {
  "name_ar": "محطة النقوش الصخرية تيوت",
  "name_fr": "Station de gravures rupestres de Tiout",
  "layer": "protected-cultural-property",
  "lat": 32.76665,
  "lng": -0.39919,
  "wilaya_code": "45",
  "wilaya_name_ar": "النعامة",
  "wilaya_name_fr": "Naâma",
  "nid_ar": "220",
  "nid_fr": null,
  "match_m": null,
  "source": "patrimoineculturelalgerien.org",
  "name": "Station de gravures rupestres de Tiout",
  "has_virtual_tour": false
 },
 {
  "name_ar": "المسرح الجهوي قالمة",
  "name_fr": "Théâtre régional de Guelma",
  "layer": "theatre",
  "lat": 36.464656,
  "lng": 7.431815,
  "wilaya_code": "24",
  "wilaya_name_ar": "قالمة",
  "wilaya_name_fr": "Guelma",
  "nid_ar": "221",
  "nid_fr": "222",
  "match_m": 0,
  "source": "patrimoineculturelalgerien.org",
  "name": "Théâtre régional de Guelma",
  "has_virtual_tour": false
 },
 {
  "name_ar": "المسرح الجهوي لوهران",
  "name_fr": "Théâtre Régional d'Oran",
  "layer": "theatre",
  "lat": 35.70338,
  "lng": -0.650243,
  "wilaya_code": "31",
  "wilaya_name_ar": "وهران",
  "wilaya_name_fr": "Oran",
  "nid_ar": "224",
  "nid_fr": "41",
  "match_m": 0,
  "source": "patrimoineculturelalgerien.org",
  "name": "Théâtre Régional d'Oran",
  "has_virtual_tour": false
 },
 {
  "name_ar": "المسرح الجهوي سيدي بلعباس",
  "name_fr": "Théâtre régional de Sidi Bel Abbes",
  "layer": "theatre",
  "lat": 35.191043,
  "lng": -0.633242,
  "wilaya_code": "22",
  "wilaya_name_ar": "سيدي بلعباس",
  "wilaya_name_fr": "Sidi Bel Abbès",
  "nid_ar": "225",
  "nid_fr": "226",
  "match_m": 0,
  "source": "patrimoineculturelalgerien.org",
  "name": "Théâtre régional de Sidi Bel Abbes",
  "has_virtual_tour": false
 },
 {
  "name_ar": "قصر المشرية الصغرى ولاية البيّض",
  "name_fr": "Ksar d'El Mecheria Soghra – wilaya d'El Bayadh",
  "layer": "protected-cultural-property",
  "lat": 33.576784,
  "lng": 1.014623,
  "wilaya_code": "32",
  "wilaya_name_ar": "البيض",
  "wilaya_name_fr": "El Bayadh",
  "nid_ar": "228",
  "nid_fr": null,
  "match_m": null,
  "source": "patrimoineculturelalgerien.org",
  "name": "Ksar d'El Mecheria Soghra – wilaya d'El Bayadh",
  "has_virtual_tour": false
 },
 {
  "name_ar": "المسرح الجهوي سوق اهراس(في طور التجهيز)",
  "name_fr": "Théâtre régional de Souk Ahras (en cours d'équipement)",
  "layer": "theatre",
  "lat": 36.283722,
  "lng": 7.957964,
  "wilaya_code": "41",
  "wilaya_name_ar": "سوق أهراس",
  "wilaya_name_fr": "Souk Ahras",
  "nid_ar": "230",
  "nid_fr": null,
  "match_m": null,
  "source": "patrimoineculturelalgerien.org",
  "name": "Théâtre régional de Souk Ahras (en cours d'équipement)",
  "has_virtual_tour": false
 },
 {
  "name_ar": "فسيفساء سيدي زروق",
  "name_fr": "Mosaïque Sidi Zerrouk",
  "layer": "protected-cultural-property",
  "lat": 36.477419,
  "lng": 5.997181,
  "wilaya_code": "43",
  "wilaya_name_ar": "ميلة",
  "wilaya_name_fr": "Mila",
  "nid_ar": "231",
  "nid_fr": "1408",
  "match_m": 0,
  "source": "patrimoineculturelalgerien.org",
  "name": "Mosaïque Sidi Zerrouk",
  "has_virtual_tour": false
 },
 {
  "name_ar": "قصر الغاسول",
  "name_fr": "Ksar d'El Ghassoul",
  "layer": "protected-cultural-property",
  "lat": 33.386833,
  "lng": 1.195194,
  "wilaya_code": "32",
  "wilaya_name_ar": "البيض",
  "wilaya_name_fr": "El Bayadh",
  "nid_ar": "232",
  "nid_fr": null,
  "match_m": null,
  "source": "patrimoineculturelalgerien.org",
  "name": "Ksar d'El Ghassoul",
  "has_virtual_tour": false
 },
 {
  "name_ar": "القصر الأسعد",
  "name_fr": "Ksar El Asaad",
  "layer": "protected-cultural-property",
  "lat": 32.876306,
  "lng": -0.001194,
  "wilaya_code": "32",
  "wilaya_name_ar": "البيض",
  "wilaya_name_fr": "El Bayadh",
  "nid_ar": "233",
  "nid_fr": null,
  "match_m": null,
  "source": "patrimoineculturelalgerien.org",
  "name": "Ksar El Asaad",
  "has_virtual_tour": false
 },
 {
  "name_ar": "قصر عين حشيفة بالشلالة الڨبلية",
  "name_fr": "Ksar d'Aïn Hachifa à Chellala Gueblia",
  "layer": "protected-cultural-property",
  "lat": 33.030818,
  "lng": 0.168945,
  "wilaya_code": "32",
  "wilaya_name_ar": "البيض",
  "wilaya_name_fr": "El Bayadh",
  "nid_ar": "234",
  "nid_fr": null,
  "match_m": null,
  "source": "patrimoineculturelalgerien.org",
  "name": "Ksar d'Aïn Hachifa à Chellala Gueblia",
  "has_virtual_tour": false
 },
 {
  "name_ar": "مسجد سيدي غانم ( أبو المهاجر دينار )",
  "name_fr": "Mosquée Sidi Ghanem",
  "layer": "protected-cultural-property",
  "lat": 36.450339,
  "lng": 6.271525,
  "wilaya_code": "43",
  "wilaya_name_ar": "ميلة",
  "wilaya_name_fr": "Mila",
  "nid_ar": "235",
  "nid_fr": "1361",
  "match_m": 0,
  "source": "patrimoineculturelalgerien.org",
  "name": "Mosquée Sidi Ghanem",
  "has_virtual_tour": false
 },
 {
  "name_ar": "المسرح الجهوي باتنة",
  "name_fr": "Théâtre Régional Batna",
  "layer": "theatre",
  "lat": 35.553554,
  "lng": 6.175859,
  "wilaya_code": "05",
  "wilaya_name_ar": "باتنة",
  "wilaya_name_fr": "Batna",
  "nid_ar": "236",
  "nid_fr": "42",
  "match_m": 0,
  "source": "patrimoineculturelalgerien.org",
  "name": "Théâtre Régional Batna",
  "has_virtual_tour": false
 },
 {
  "name_ar": "المكتبة الرئيسية للمطالعة العمومية الشهيدة فرنسواز لويز",
  "name_fr": "Bibliothèque principale de lecture publique martyre Françoise Louise",
  "layer": "library",
  "lat": 36.761173,
  "lng": 8.3142,
  "wilaya_code": "36",
  "wilaya_name_ar": "الطارف",
  "wilaya_name_fr": "El Tarf",
  "nid_ar": "237",
  "nid_fr": null,
  "match_m": null,
  "source": "patrimoineculturelalgerien.org",
  "name": "Bibliothèque principale de lecture publique martyre Françoise Louise",
  "has_virtual_tour": false
 },
 {
  "name_ar": "المكتبة الرئيسية للمطالعة العمومية لولاية باتنة",
  "name_fr": "Bibliothèque principale de lecture publique de la wilaya de Batna",
  "layer": "library",
  "lat": 35.5439,
  "lng": 6.1234,
  "wilaya_code": "05",
  "wilaya_name_ar": "باتنة",
  "wilaya_name_fr": "Batna",
  "nid_ar": "239",
  "nid_fr": null,
  "match_m": null,
  "source": "patrimoineculturelalgerien.org",
  "name": "Bibliothèque principale de lecture publique de la wilaya de Batna",
  "has_virtual_tour": false
 },
 {
  "name_ar": "المكتبة الوطنية الحامة",
  "name_fr": "Bibliothèque nationale d'El Hamma",
  "layer": "library",
  "lat": 36.748636,
  "lng": 3.071795,
  "wilaya_code": "16",
  "wilaya_name_ar": "الجزائر",
  "wilaya_name_fr": "Alger",
  "nid_ar": "240",
  "nid_fr": null,
  "match_m": null,
  "source": "patrimoineculturelalgerien.org",
  "name": "Bibliothèque nationale d'El Hamma",
  "has_virtual_tour": true
 },
 {
  "name_ar": "البرج التركي (برج حمزة)",
  "name_fr": "BORDJ HAMZA",
  "layer": "protected-cultural-property",
  "lat": 36.369623,
  "lng": 3.892806,
  "wilaya_code": "10",
  "wilaya_name_ar": "البويرة",
  "wilaya_name_fr": "Bouira",
  "nid_ar": "242",
  "nid_fr": "440",
  "match_m": 2,
  "source": "patrimoineculturelalgerien.org",
  "name": "BORDJ HAMZA",
  "has_virtual_tour": true
 },
 {
  "name_ar": "المسرح الجهوي مستغانم",
  "name_fr": "Théâtre Régional de Mostaganem",
  "layer": "theatre",
  "lat": 35.926013,
  "lng": 0.076682,
  "wilaya_code": "27",
  "wilaya_name_ar": "مستغانم",
  "wilaya_name_fr": "Mostaganem",
  "nid_ar": "243",
  "nid_fr": "47",
  "match_m": 0,
  "source": "patrimoineculturelalgerien.org",
  "name": "Théâtre Régional de Mostaganem",
  "has_virtual_tour": false
 },
 {
  "name_ar": "صهاريج هيبون",
  "name_fr": "Basilique Saint Augustin",
  "layer": "protected-cultural-property",
  "lat": 36.881922,
  "lng": 7.744932,
  "wilaya_code": "23",
  "wilaya_name_ar": "عنابة",
  "wilaya_name_fr": "Annaba",
  "nid_ar": "245",
  "nid_fr": "105",
  "match_m": 21,
  "source": "patrimoineculturelalgerien.org",
  "name": "Basilique Saint Augustin",
  "has_virtual_tour": false
 },
 {
  "name_ar": "القلعة الحفصية",
  "name_fr": "Citadelle hafside",
  "layer": "protected-cultural-property",
  "lat": 36.905739,
  "lng": 7.765767,
  "wilaya_code": "23",
  "wilaya_name_ar": "عنابة",
  "wilaya_name_fr": "Annaba",
  "nid_ar": "246",
  "nid_fr": null,
  "match_m": null,
  "source": "patrimoineculturelalgerien.org",
  "name": "Citadelle hafside",
  "has_virtual_tour": false
 },
 {
  "name_ar": "محطة الميلق",
  "name_fr": "Station d'El Milok",
  "layer": "protected-cultural-property",
  "lat": 33.862778,
  "lng": 2.749722,
  "wilaya_code": "03",
  "wilaya_name_ar": "الأغواط",
  "wilaya_name_fr": "Laghouat",
  "nid_ar": "247",
  "nid_fr": null,
  "match_m": null,
  "source": "patrimoineculturelalgerien.org",
  "name": "Station d'El Milok",
  "has_virtual_tour": false
 },
 {
  "name_ar": "الساعة القديمة",
  "name_fr": "Ancienne horloge",
  "layer": "protected-cultural-property",
  "lat": 33.805966,
  "lng": 2.883319,
  "wilaya_code": "03",
  "wilaya_name_ar": "الأغواط",
  "wilaya_name_fr": "Laghouat",
  "nid_ar": "248",
  "nid_fr": null,
  "match_m": null,
  "source": "patrimoineculturelalgerien.org",
  "name": "Ancienne horloge",
  "has_virtual_tour": false
 },
 {
  "name_ar": "زاوية سيدي إبراهيم بن تومي",
  "name_fr": "Zaouïa Sidi Brahim Ben Toumi",
  "layer": "protected-cultural-property",
  "lat": 36.88928,
  "lng": 7.748787,
  "wilaya_code": "23",
  "wilaya_name_ar": "عنابة",
  "wilaya_name_fr": "Annaba",
  "nid_ar": "249",
  "nid_fr": null,
  "match_m": null,
  "source": "patrimoineculturelalgerien.org",
  "name": "Zaouïa Sidi Brahim Ben Toumi",
  "has_virtual_tour": false
 },
 {
  "name_ar": "المسجد العتيق الأغواط",
  "name_fr": "Mosquée antique de Laghouat",
  "layer": "protected-cultural-property",
  "lat": 33.804569,
  "lng": 2.881035,
  "wilaya_code": "03",
  "wilaya_name_ar": "الأغواط",
  "wilaya_name_fr": "Laghouat",
  "nid_ar": "250",
  "nid_fr": null,
  "match_m": null,
  "source": "patrimoineculturelalgerien.org",
  "name": "Mosquée antique de Laghouat",
  "has_virtual_tour": false
 },
 {
  "name_ar": "جامع الباي",
  "name_fr": "Mosquée du Bey",
  "layer": "protected-cultural-property",
  "lat": 36.899122,
  "lng": 7.76243,
  "wilaya_code": "23",
  "wilaya_name_ar": "عنابة",
  "wilaya_name_fr": "Annaba",
  "nid_ar": "251",
  "nid_fr": null,
  "match_m": null,
  "source": "patrimoineculturelalgerien.org",
  "name": "Mosquée du Bey",
  "has_virtual_tour": false
 },
 {
  "name_ar": "حصن المعذبين",
  "name_fr": "Fort des Supplicés (Fort El Moâdhabine)",
  "layer": "protected-cultural-property",
  "lat": 36.901793,
  "lng": 7.755404,
  "wilaya_code": "23",
  "wilaya_name_ar": "عنابة",
  "wilaya_name_fr": "Annaba",
  "nid_ar": "252",
  "nid_fr": null,
  "match_m": null,
  "source": "patrimoineculturelalgerien.org",
  "name": "Fort des Supplicés (Fort El Moâdhabine)",
  "has_virtual_tour": false
 },
 {
  "name_ar": "مسجد الصفاح",
  "name_fr": "Mosquée Es Saffah",
  "layer": "protected-cultural-property",
  "lat": 33.804784,
  "lng": 2.881817,
  "wilaya_code": "03",
  "wilaya_name_ar": "الأغواط",
  "wilaya_name_fr": "Laghouat",
  "nid_ar": "253",
  "nid_fr": null,
  "match_m": null,
  "source": "patrimoineculturelalgerien.org",
  "name": "Mosquée Es Saffah",
  "has_virtual_tour": false
 },
 {
  "name_ar": "مسجد أبو مروان الشريف",
  "name_fr": "Mosquée Abou Marouane Echérif",
  "layer": "protected-cultural-property",
  "lat": 36.898679,
  "lng": 7.76411,
  "wilaya_code": "23",
  "wilaya_name_ar": "عنابة",
  "wilaya_name_fr": "Annaba",
  "nid_ar": "254",
  "nid_fr": null,
  "match_m": null,
  "source": "patrimoineculturelalgerien.org",
  "name": "Mosquée Abou Marouane Echérif",
  "has_virtual_tour": false
 },
 {
  "name_ar": "مسجد التاوتي",
  "name_fr": "Mosquée Et Taouti",
  "layer": "protected-cultural-property",
  "lat": 33.805496,
  "lng": 2.879343,
  "wilaya_code": "03",
  "wilaya_name_ar": "الأغواط",
  "wilaya_name_fr": "Laghouat",
  "nid_ar": "255",
  "nid_fr": null,
  "match_m": null,
  "source": "patrimoineculturelalgerien.org",
  "name": "Mosquée Et Taouti",
  "has_virtual_tour": false
 },
 {
  "name_ar": "المدينة القديمة \"بونة\"",
  "name_fr": "Vieille ville (Bône)",
  "layer": "protected-cultural-property",
  "lat": 36.899541,
  "lng": 7.762828,
  "wilaya_code": "23",
  "wilaya_name_ar": "عنابة",
  "wilaya_name_fr": "Annaba",
  "nid_ar": "256",
  "nid_fr": null,
  "match_m": null,
  "source": "patrimoineculturelalgerien.org",
  "name": "Vieille ville (Bône)",
  "has_virtual_tour": false
 },
 {
  "name_ar": "مسجد الشاذلية",
  "name_fr": "Mosquée Ech Chadhilia",
  "layer": "protected-cultural-property",
  "lat": 33.80646,
  "lng": 2.884176,
  "wilaya_code": "03",
  "wilaya_name_ar": "الأغواط",
  "wilaya_name_fr": "Laghouat",
  "nid_ar": "257",
  "nid_fr": null,
  "match_m": null,
  "source": "patrimoineculturelalgerien.org",
  "name": "Mosquée Ech Chadhilia",
  "has_virtual_tour": false
 },
 {
  "name_ar": "مسجد سيدي عبد القادر",
  "name_fr": "Mosquée Sidi Abdelkader",
  "layer": "protected-cultural-property",
  "lat": 33.807223,
  "lng": 2.883948,
  "wilaya_code": "03",
  "wilaya_name_ar": "الأغواط",
  "wilaya_name_fr": "Laghouat",
  "nid_ar": "258",
  "nid_fr": null,
  "match_m": null,
  "source": "patrimoineculturelalgerien.org",
  "name": "Mosquée Sidi Abdelkader",
  "has_virtual_tour": false
 },
 {
  "name_ar": "مسجد الخليفة",
  "name_fr": "Mosquée El Khalifa",
  "layer": "protected-cultural-property",
  "lat": 33.806675,
  "lng": 2.883531,
  "wilaya_code": "03",
  "wilaya_name_ar": "الأغواط",
  "wilaya_name_fr": "Laghouat",
  "nid_ar": "259",
  "nid_fr": null,
  "match_m": null,
  "source": "patrimoineculturelalgerien.org",
  "name": "Mosquée El Khalifa",
  "has_virtual_tour": false
 },
 {
  "name_ar": "دار الولي الصالح سيدي الحاج عيسى",
  "name_fr": "Demeure du saint Sidi El Hadj Aïssa",
  "layer": "protected-cultural-property",
  "lat": 33.807646,
  "lng": 2.883413,
  "wilaya_code": "03",
  "wilaya_name_ar": "الأغواط",
  "wilaya_name_fr": "Laghouat",
  "nid_ar": "260",
  "nid_fr": null,
  "match_m": null,
  "source": "patrimoineculturelalgerien.org",
  "name": "Demeure du saint Sidi El Hadj Aïssa",
  "has_virtual_tour": false
 },
 {
  "name_ar": "دار بوعامر",
  "name_fr": "Dar Bouamer",
  "layer": "protected-cultural-property",
  "lat": 33.804736,
  "lng": 2.880221,
  "wilaya_code": "03",
  "wilaya_name_ar": "الأغواط",
  "wilaya_name_fr": "Laghouat",
  "nid_ar": "261",
  "nid_fr": null,
  "match_m": null,
  "source": "patrimoineculturelalgerien.org",
  "name": "Dar Bouamer",
  "has_virtual_tour": false
 },
 {
  "name_ar": "المتحف العمومي الوطني تبسة",
  "name_fr": "Musée Public National de Tébessa",
  "layer": "museum",
  "lat": 35.420901,
  "lng": 8.116796,
  "wilaya_code": "12",
  "wilaya_name_ar": "تبسة",
  "wilaya_name_fr": "Tébessa",
  "nid_ar": "263",
  "nid_fr": "262",
  "match_m": 0,
  "source": "patrimoineculturelalgerien.org",
  "name": "Musée Public National de Tébessa",
  "has_virtual_tour": false
 },
 {
  "name_ar": "قصر العسافية",
  "name_fr": "Ksar d'El Assafia",
  "layer": "protected-cultural-property",
  "lat": 33.824996,
  "lng": 2.991532,
  "wilaya_code": "03",
  "wilaya_name_ar": "الأغواط",
  "wilaya_name_fr": "Laghouat",
  "nid_ar": "264",
  "nid_fr": null,
  "match_m": null,
  "source": "patrimoineculturelalgerien.org",
  "name": "Ksar d'El Assafia",
  "has_virtual_tour": false
 },
 {
  "name_ar": "مسرح قسنطينة الجهوي محمد الطاهر الفرقاني",
  "name_fr": "Théâtre Régional de Constantine",
  "layer": "theatre",
  "lat": 36.365428,
  "lng": 6.610487,
  "wilaya_code": "25",
  "wilaya_name_ar": "قسنطينة",
  "wilaya_name_fr": "Constantine",
  "nid_ar": "265",
  "nid_fr": "43",
  "match_m": 38,
  "source": "patrimoineculturelalgerien.org",
  "name": "Théâtre Régional de Constantine",
  "has_virtual_tour": false
 },
 {
  "name_ar": "البرج القديم بسيدي مخلوف",
  "name_fr": "Ancien bordj de Sidi Makhlouf",
  "layer": "protected-cultural-property",
  "lat": 34.129266,
  "lng": 3.020563,
  "wilaya_code": "03",
  "wilaya_name_ar": "الأغواط",
  "wilaya_name_fr": "Laghouat",
  "nid_ar": "266",
  "nid_fr": null,
  "match_m": null,
  "source": "patrimoineculturelalgerien.org",
  "name": "Ancien bordj de Sidi Makhlouf",
  "has_virtual_tour": false
 },
 {
  "name_ar": "محطة كعلان",
  "name_fr": "Station de Kaâlan",
  "layer": "protected-cultural-property",
  "lat": 34.199236,
  "lng": 3.057526,
  "wilaya_code": "03",
  "wilaya_name_ar": "الأغواط",
  "wilaya_name_fr": "Laghouat",
  "nid_ar": "267",
  "nid_fr": null,
  "match_m": null,
  "source": "patrimoineculturelalgerien.org",
  "name": "Station de Kaâlan",
  "has_virtual_tour": false
 },
 {
  "name_ar": "قصر تاجرونة",
  "name_fr": "Ksar de Tadjrouna",
  "layer": "protected-cultural-property",
  "lat": 33.501751,
  "lng": 2.104216,
  "wilaya_code": "03",
  "wilaya_name_ar": "الأغواط",
  "wilaya_name_fr": "Laghouat",
  "nid_ar": "269",
  "nid_fr": null,
  "match_m": null,
  "source": "patrimoineculturelalgerien.org",
  "name": "Ksar de Tadjrouna",
  "has_virtual_tour": false
 },
 {
  "name_ar": "المسرح الجهوي أم البواقـي",
  "name_fr": "Théâtre régional d'Oum El Bouaghi",
  "layer": "theatre",
  "lat": 35.796348,
  "lng": 7.390996,
  "wilaya_code": "04",
  "wilaya_name_ar": "أم البواقي",
  "wilaya_name_fr": "Oum El Bouaghi",
  "nid_ar": "270",
  "nid_fr": null,
  "match_m": null,
  "source": "patrimoineculturelalgerien.org",
  "name": "Théâtre régional d'Oum El Bouaghi",
  "has_virtual_tour": false
 },
 {
  "name_ar": "مدينة اسلامية تيحمامين",
  "name_fr": "Cité islamique de Tihmamine",
  "layer": "protected-cultural-property",
  "lat": 35.933778,
  "lng": 4.663917,
  "wilaya_code": "34",
  "wilaya_name_ar": "برج بوعريريج",
  "wilaya_name_fr": "Bordj Bou Arreridj",
  "nid_ar": "273",
  "nid_fr": null,
  "match_m": null,
  "source": "patrimoineculturelalgerien.org",
  "name": "Cité islamique de Tihmamine",
  "has_virtual_tour": false
 },
 {
  "name_ar": "خربة زمبيا",
  "name_fr": "Khirbet Zembia",
  "layer": "protected-cultural-property",
  "lat": 35.986056,
  "lng": 4.881833,
  "wilaya_code": "34",
  "wilaya_name_ar": "برج بوعريريج",
  "wilaya_name_fr": "Bordj Bou Arreridj",
  "nid_ar": "274",
  "nid_fr": null,
  "match_m": null,
  "source": "patrimoineculturelalgerien.org",
  "name": "Khirbet Zembia",
  "has_virtual_tour": false
 },
 {
  "name_ar": "برج المقراني",
  "name_fr": "Bordj El Mokrani",
  "layer": "protected-cultural-property",
  "lat": 36.072549,
  "lng": 4.761553,
  "wilaya_code": "34",
  "wilaya_name_ar": "برج بوعريريج",
  "wilaya_name_fr": "Bordj Bou Arreridj",
  "nid_ar": "275",
  "nid_fr": null,
  "match_m": null,
  "source": "patrimoineculturelalgerien.org",
  "name": "Bordj El Mokrani",
  "has_virtual_tour": false
 },
 {
  "name_ar": "قصر عزيزة",
  "name_fr": "Palais Aziza",
  "layer": "protected-cultural-property",
  "lat": 36.540239,
  "lng": 2.829378,
  "wilaya_code": "09",
  "wilaya_name_ar": "البليدة",
  "wilaya_name_fr": "Blida",
  "nid_ar": "277",
  "nid_fr": null,
  "match_m": null,
  "source": "patrimoineculturelalgerien.org",
  "name": "Palais Aziza",
  "has_virtual_tour": false
 },
 {
  "name_ar": "المكتبة العمومية للمطالعة عين الدفلى",
  "name_fr": "Bibliothèque publique de lecture d'Aïn Defla",
  "layer": "library",
  "lat": 36.261496,
  "lng": 1.95752,
  "wilaya_code": "44",
  "wilaya_name_ar": "عين الدفلى",
  "wilaya_name_fr": "Aïn Defla",
  "nid_ar": "278",
  "nid_fr": null,
  "match_m": null,
  "source": "patrimoineculturelalgerien.org",
  "name": "Bibliothèque publique de lecture d'Aïn Defla",
  "has_virtual_tour": false
 },
 {
  "name_ar": "ضريح الولي الصالح سيدي أحمد الكبير",
  "name_fr": "Mausolée du saint Sidi Ahmed El Kébir",
  "layer": "protected-cultural-property",
  "lat": 36.459774,
  "lng": 2.849169,
  "wilaya_code": "09",
  "wilaya_name_ar": "البليدة",
  "wilaya_name_fr": "Blida",
  "nid_ar": "279",
  "nid_fr": null,
  "match_m": null,
  "source": "patrimoineculturelalgerien.org",
  "name": "Mausolée du saint Sidi Ahmed El Kébir",
  "has_virtual_tour": false
 },
 {
  "name_ar": "ضريح الولي الصالح سيدي يعقوب الشريف",
  "name_fr": "Mausolée du saint Sidi Yaâkoub Echérif",
  "layer": "protected-cultural-property",
  "lat": 36.469149,
  "lng": 2.821178,
  "wilaya_code": "09",
  "wilaya_name_ar": "البليدة",
  "wilaya_name_fr": "Blida",
  "nid_ar": "280",
  "nid_fr": null,
  "match_m": null,
  "source": "patrimoineculturelalgerien.org",
  "name": "Mausolée du saint Sidi Yaâkoub Echérif",
  "has_virtual_tour": false
 },
 {
  "name_ar": "المكتبة الرئيسية للمطالعة العمومية برادعي احمد تامنغست",
  "name_fr": "Bibliothèque principale de lecture publique Beradaï Ahmed – Tamanrasset",
  "layer": "library",
  "lat": 22.791308,
  "lng": 5.525744,
  "wilaya_code": "11",
  "wilaya_name_ar": "تمنراست",
  "wilaya_name_fr": "Tamanrasset",
  "nid_ar": "281",
  "nid_fr": null,
  "match_m": null,
  "source": "patrimoineculturelalgerien.org",
  "name": "Bibliothèque principale de lecture publique Beradaï Ahmed – Tamanrasset",
  "has_virtual_tour": false
 },
 {
  "name_ar": "المسجد الحنفي التركي",
  "name_fr": "Mosquée hanéfite turque",
  "layer": "protected-cultural-property",
  "lat": 36.471093,
  "lng": 2.829209,
  "wilaya_code": "09",
  "wilaya_name_ar": "البليدة",
  "wilaya_name_fr": "Blida",
  "nid_ar": "282",
  "nid_fr": null,
  "match_m": null,
  "source": "patrimoineculturelalgerien.org",
  "name": "Mosquée hanéfite turque",
  "has_virtual_tour": false
 },
 {
  "name_ar": "مسجد بن سعدون بن بابا علي",
  "name_fr": "Mosquée Ben Saâdoun Ben Baba Ali",
  "layer": "protected-cultural-property",
  "lat": 36.47166,
  "lng": 2.828832,
  "wilaya_code": "09",
  "wilaya_name_ar": "البليدة",
  "wilaya_name_fr": "Blida",
  "nid_ar": "283",
  "nid_fr": null,
  "match_m": null,
  "source": "patrimoineculturelalgerien.org",
  "name": "Mosquée Ben Saâdoun Ben Baba Ali",
  "has_virtual_tour": false
 },
 {
  "name_ar": "المكتبة الرئيسية للمطالعة العمومية وانزار عبد الكريم",
  "name_fr": "Bibliothèque principale de lecture publique Ouanzar Abdelkrim",
  "layer": "library",
  "lat": 34.836756,
  "lng": 0.147872,
  "wilaya_code": "20",
  "wilaya_name_ar": "سعيدة",
  "wilaya_name_fr": "Saïda",
  "nid_ar": "285",
  "nid_fr": null,
  "match_m": null,
  "source": "patrimoineculturelalgerien.org",
  "name": "Bibliothèque principale de lecture publique Ouanzar Abdelkrim",
  "has_virtual_tour": false
 },
 {
  "name_ar": "الحجرة المكتوبة بلدية تيوت",
  "name_fr": "El Hadjra El Maktouba (pierre gravée) – commune de Tiout",
  "layer": "protected-cultural-property",
  "lat": 32.78019,
  "lng": -0.41064,
  "wilaya_code": "45",
  "wilaya_name_ar": "النعامة",
  "wilaya_name_fr": "Naâma",
  "nid_ar": "287",
  "nid_fr": null,
  "match_m": null,
  "source": "patrimoineculturelalgerien.org",
  "name": "El Hadjra El Maktouba (pierre gravée) – commune de Tiout",
  "has_virtual_tour": false
 },
 {
  "name_ar": "المسرح الجهوي الأغواط",
  "name_fr": "Théâtre régional de Laghouat",
  "layer": "theatre",
  "lat": 33.805733,
  "lng": 2.860203,
  "wilaya_code": "03",
  "wilaya_name_ar": "الأغواط",
  "wilaya_name_fr": "Laghouat",
  "nid_ar": "288",
  "nid_fr": null,
  "match_m": null,
  "source": "patrimoineculturelalgerien.org",
  "name": "Théâtre régional de Laghouat",
  "has_virtual_tour": false
 },
 {
  "name_ar": "مكتبة المطالعة بلدية الرقاصة",
  "name_fr": "Bibliothèque de lecture publique – commune d'El Reggassa",
  "layer": "library",
  "lat": 34.017083,
  "lng": 0.927904,
  "wilaya_code": "32",
  "wilaya_name_ar": "البيض",
  "wilaya_name_fr": "El Bayadh",
  "nid_ar": "289",
  "nid_fr": null,
  "match_m": null,
  "source": "patrimoineculturelalgerien.org",
  "name": "Bibliothèque de lecture publique – commune d'El Reggassa",
  "has_virtual_tour": false
 },
 {
  "name_ar": "مكتبة المطالعة بوقطب",
  "name_fr": "Bibliothèque de lecture publique de Bougtoub",
  "layer": "library",
  "lat": 34.044092,
  "lng": 0.089507,
  "wilaya_code": "32",
  "wilaya_name_ar": "البيض",
  "wilaya_name_fr": "El Bayadh",
  "nid_ar": "290",
  "nid_fr": null,
  "match_m": null,
  "source": "patrimoineculturelalgerien.org",
  "name": "Bibliothèque de lecture publique de Bougtoub",
  "has_virtual_tour": false
 },
 {
  "name_ar": "مكتبة المطالعة العمومية مالك بن نبي لبلدية سيدي بوبكر",
  "name_fr": "Bibliothèque de lecture publique Malek Bennabi – commune de Sidi Boubekeur",
  "layer": "library",
  "lat": 35.027964,
  "lng": 0.058807,
  "wilaya_code": "20",
  "wilaya_name_ar": "سعيدة",
  "wilaya_name_fr": "Saïda",
  "nid_ar": "291",
  "nid_fr": null,
  "match_m": null,
  "source": "patrimoineculturelalgerien.org",
  "name": "Bibliothèque de lecture publique Malek Bennabi – commune de Sidi Boubekeur",
  "has_virtual_tour": false
 },
 {
  "name_ar": "مكتبة المطالعة بريزينة",
  "name_fr": "Bibliothèque de lecture publique de Brézina",
  "layer": "library",
  "lat": 33.101985,
  "lng": 1.268961,
  "wilaya_code": "32",
  "wilaya_name_ar": "البيض",
  "wilaya_name_fr": "El Bayadh",
  "nid_ar": "292",
  "nid_fr": null,
  "match_m": null,
  "source": "patrimoineculturelalgerien.org",
  "name": "Bibliothèque de lecture publique de Brézina",
  "has_virtual_tour": false
 },
 {
  "name_ar": "مكتبة المطالعة العمومية د.أحمد عروة",
  "name_fr": "Bibliothèque de lecture publique Dr Ahmed Aroua",
  "layer": "library",
  "lat": 35.119845,
  "lng": -0.149415,
  "wilaya_code": "20",
  "wilaya_name_ar": "سعيدة",
  "wilaya_name_fr": "Saïda",
  "nid_ar": "293",
  "nid_fr": null,
  "match_m": null,
  "source": "patrimoineculturelalgerien.org",
  "name": "Bibliothèque de lecture publique Dr Ahmed Aroua",
  "has_virtual_tour": false
 },
 {
  "name_ar": "مكتبة الشهيد سعودي جلول",
  "name_fr": "Bibliothèque martyr Saoudi Djeloul",
  "layer": "library",
  "lat": 36.065876,
  "lng": 3.333123,
  "wilaya_code": "26",
  "wilaya_name_ar": "المدية",
  "wilaya_name_fr": "Médéa",
  "nid_ar": "294",
  "nid_fr": null,
  "match_m": null,
  "source": "patrimoineculturelalgerien.org",
  "name": "Bibliothèque martyr Saoudi Djeloul",
  "has_virtual_tour": false
 },
 {
  "name_ar": "لغرانيق بلدية تيوت1",
  "name_fr": "Les Grues (Lagharaniq) – commune de Tiout 1",
  "layer": "protected-cultural-property",
  "lat": 32.77126,
  "lng": -0.35735,
  "wilaya_code": "45",
  "wilaya_name_ar": "النعامة",
  "wilaya_name_fr": "Naâma",
  "nid_ar": "298",
  "nid_fr": null,
  "match_m": null,
  "source": "patrimoineculturelalgerien.org",
  "name": "Les Grues (Lagharaniq) – commune de Tiout 1",
  "has_virtual_tour": false
 },
 {
  "name_ar": "المكتبة الرئيسية للمطالعة العموممية الرق الحاج بن عامر",
  "name_fr": "Bibliothèque principale de lecture publique Hadj Ben Amer",
  "layer": "library",
  "lat": 33.670388,
  "lng": 1.025464,
  "wilaya_code": "32",
  "wilaya_name_ar": "البيض",
  "wilaya_name_fr": "El Bayadh",
  "nid_ar": "300",
  "nid_fr": null,
  "match_m": null,
  "source": "patrimoineculturelalgerien.org",
  "name": "Bibliothèque principale de lecture publique Hadj Ben Amer",
  "has_virtual_tour": false
 },
 {
  "name_ar": "مكتبة المطالعة العمومية أبو القاسم سعد الله",
  "name_fr": "Bibliothèque de lecture publique Abou El Kacem Saâdallah",
  "layer": "library",
  "lat": 34.920304,
  "lng": -0.211388,
  "wilaya_code": "20",
  "wilaya_name_ar": "سعيدة",
  "wilaya_name_fr": "Saïda",
  "nid_ar": "301",
  "nid_fr": null,
  "match_m": null,
  "source": "patrimoineculturelalgerien.org",
  "name": "Bibliothèque de lecture publique Abou El Kacem Saâdallah",
  "has_virtual_tour": false
 },
 {
  "name_ar": "المكتبة الرئيسية للمطالعة العمومية مولاي بلحميسي",
  "name_fr": "Bibliothèque principale de lecture publique Moulay Belhamissi",
  "layer": "library",
  "lat": 35.927505,
  "lng": 0.0792,
  "wilaya_code": "27",
  "wilaya_name_ar": "مستغانم",
  "wilaya_name_fr": "Mostaganem",
  "nid_ar": "303",
  "nid_fr": null,
  "match_m": null,
  "source": "patrimoineculturelalgerien.org",
  "name": "Bibliothèque principale de lecture publique Moulay Belhamissi",
  "has_virtual_tour": false
 },
 {
  "name_ar": "مكتبة المجاهد العربي محمد ببلدية جواب",
  "name_fr": "Bibliothèque Moudjahid El Arbi Mohamed – commune de Djouab",
  "layer": "library",
  "lat": 36.139461,
  "lng": 3.424249,
  "wilaya_code": "26",
  "wilaya_name_ar": "المدية",
  "wilaya_name_fr": "Médéa",
  "nid_ar": "304",
  "nid_fr": null,
  "match_m": null,
  "source": "patrimoineculturelalgerien.org",
  "name": "Bibliothèque Moudjahid El Arbi Mohamed – commune de Djouab",
  "has_virtual_tour": false
 },
 {
  "name_ar": "مكتبة الشهيد ابراهيمي محمد ببلدية جواب",
  "name_fr": "Bibliothèque martyr Brahimi Mohamed – commune de Djouab",
  "layer": "library",
  "lat": 36.137452,
  "lng": 3.433355,
  "wilaya_code": "26",
  "wilaya_name_ar": "المدية",
  "wilaya_name_fr": "Médéa",
  "nid_ar": "307",
  "nid_fr": null,
  "match_m": null,
  "source": "patrimoineculturelalgerien.org",
  "name": "Bibliothèque martyr Brahimi Mohamed – commune de Djouab",
  "has_virtual_tour": false
 },
 {
  "name_ar": "مكتبة المطالعة العمومية مالك حداد",
  "name_fr": "Bibliothèque de lecture publique Malek Haddad",
  "layer": "library",
  "lat": 34.893774,
  "lng": -0.078502,
  "wilaya_code": "20",
  "wilaya_name_ar": "سعيدة",
  "wilaya_name_fr": "Saïda",
  "nid_ar": "308",
  "nid_fr": null,
  "match_m": null,
  "source": "patrimoineculturelalgerien.org",
  "name": "Bibliothèque de lecture publique Malek Haddad",
  "has_virtual_tour": false
 },
 {
  "name_ar": "المكتبة الرئيسية للمطالعة العمومية \"الشيخ البشيرالإبراهيمي\"",
  "name_fr": "Bibliothèque principale de lecture publique Cheikh El Bachir El Ibrahimi",
  "layer": "library",
  "lat": 33.79678,
  "lng": 2.852791,
  "wilaya_code": "03",
  "wilaya_name_ar": "الأغواط",
  "wilaya_name_fr": "Laghouat",
  "nid_ar": "310",
  "nid_fr": null,
  "match_m": null,
  "source": "patrimoineculturelalgerien.org",
  "name": "Bibliothèque principale de lecture publique Cheikh El Bachir El Ibrahimi",
  "has_virtual_tour": false
 },
 {
  "name_ar": "مكتبة بلدية قصر البخاري",
  "name_fr": "Bibliothèque communale de Ksar El Boukhari",
  "layer": "library",
  "lat": 35.87592,
  "lng": 2.747389,
  "wilaya_code": "26",
  "wilaya_name_ar": "المدية",
  "wilaya_name_fr": "Médéa",
  "nid_ar": "311",
  "nid_fr": null,
  "match_m": null,
  "source": "patrimoineculturelalgerien.org",
  "name": "Bibliothèque communale de Ksar El Boukhari",
  "has_virtual_tour": false
 },
 {
  "name_ar": "مكتبة بليل",
  "name_fr": "Bibliothèque de Bellil",
  "layer": "library",
  "lat": 33.266758,
  "lng": 3.200949,
  "wilaya_code": "03",
  "wilaya_name_ar": "الأغواط",
  "wilaya_name_fr": "Laghouat",
  "nid_ar": "313",
  "nid_fr": null,
  "match_m": null,
  "source": "patrimoineculturelalgerien.org",
  "name": "Bibliothèque de Bellil",
  "has_virtual_tour": false
 },
 {
  "name_ar": "مكتبة المجاهد لوصيف عمار المفاتحة",
  "name_fr": "Bibliothèque Moudjahid Loucif Ammar – El Mfatha",
  "layer": "library",
  "lat": 35.884068,
  "lng": 2.935359,
  "wilaya_code": "26",
  "wilaya_name_ar": "المدية",
  "wilaya_name_fr": "Médéa",
  "nid_ar": "314",
  "nid_fr": null,
  "match_m": null,
  "source": "patrimoineculturelalgerien.org",
  "name": "Bibliothèque Moudjahid Loucif Ammar – El Mfatha",
  "has_virtual_tour": false
 },
 {
  "name_ar": "متحف عبان رمضان",
  "name_fr": "Musée Abbane Ramdane",
  "layer": "museum",
  "lat": 36.641613,
  "lng": 4.174233,
  "wilaya_code": "15",
  "wilaya_name_ar": "تيزي وزو",
  "wilaya_name_fr": "Tizi Ouzou",
  "nid_ar": "317",
  "nid_fr": "206",
  "match_m": 0,
  "source": "patrimoineculturelalgerien.org",
  "name": "Musée Abbane Ramdane",
  "has_virtual_tour": true
 },
 {
  "name_ar": "المكتبة الحضرية \"الفنان محمد الصغير\"",
  "name_fr": "Bibliothèque urbaine Artiste Mohamed Seghir",
  "layer": "library",
  "lat": 33.794209,
  "lng": 2.880549,
  "wilaya_code": "03",
  "wilaya_name_ar": "الأغواط",
  "wilaya_name_fr": "Laghouat",
  "nid_ar": "318",
  "nid_fr": null,
  "match_m": null,
  "source": "patrimoineculturelalgerien.org",
  "name": "Bibliothèque urbaine Artiste Mohamed Seghir",
  "has_virtual_tour": false
 },
 {
  "name_ar": "مكتبة الشيخ البشير الابراهيمي ببلدية سانق",
  "name_fr": "Bibliothèque Cheikh El Bachir El Ibrahimi – commune de Saneg",
  "layer": "library",
  "lat": 35.84788,
  "lng": 2.889219,
  "wilaya_code": "26",
  "wilaya_name_ar": "المدية",
  "wilaya_name_fr": "Médéa",
  "nid_ar": "319",
  "nid_fr": null,
  "match_m": null,
  "source": "patrimoineculturelalgerien.org",
  "name": "Bibliothèque Cheikh El Bachir El Ibrahimi – commune de Saneg",
  "has_virtual_tour": false
 },
 {
  "name_ar": "مكتبة عين ماضي ”العلامة الشيخ دهسي أحمد لعناية“",
  "name_fr": "Zaouia Tidjania",
  "layer": "library",
  "lat": 33.795698,
  "lng": 2.304893,
  "wilaya_code": "03",
  "wilaya_name_ar": "الأغواط",
  "wilaya_name_fr": "Laghouat",
  "nid_ar": "320",
  "nid_fr": "52",
  "match_m": 107,
  "source": "patrimoineculturelalgerien.org",
  "name": "Zaouia Tidjania",
  "has_virtual_tour": false
 },
 {
  "name_ar": "محطة لمحيصرات عين الصفراء",
  "name_fr": "Station de Lemhaïsrat – Aïn Sefra",
  "layer": "protected-cultural-property",
  "lat": 32.771947,
  "lng": -0.525801,
  "wilaya_code": "45",
  "wilaya_name_ar": "النعامة",
  "wilaya_name_fr": "Naâma",
  "nid_ar": "321",
  "nid_fr": null,
  "match_m": null,
  "source": "patrimoineculturelalgerien.org",
  "name": "Station de Lemhaïsrat – Aïn Sefra",
  "has_virtual_tour": false
 },
 {
  "name_ar": "المكتبة الرئيسية للمطالعة العمومية سعد دحلب",
  "name_fr": "Bibliothèque principale de lecture publique Saâd Dahlab",
  "layer": "library",
  "lat": 35.357241,
  "lng": 1.325522,
  "wilaya_code": "14",
  "wilaya_name_ar": "تيارت",
  "wilaya_name_fr": "Tiaret",
  "nid_ar": "322",
  "nid_fr": null,
  "match_m": null,
  "source": "patrimoineculturelalgerien.org",
  "name": "Bibliothèque principale de lecture publique Saâd Dahlab",
  "has_virtual_tour": false
 },
 {
  "name_ar": "المكتبة الرئيسية للمطالعة العمومية المجاهد خمايس بكتة",
  "name_fr": "Bibliothèque principale de lecture publique Moudjahid Khemaïs Bekta",
  "layer": "library",
  "lat": 26.5169,
  "lng": 8.479701,
  "wilaya_code": "33",
  "wilaya_name_ar": "إليزي",
  "wilaya_name_fr": "Illizi",
  "nid_ar": "323",
  "nid_fr": null,
  "match_m": null,
  "source": "patrimoineculturelalgerien.org",
  "name": "Bibliothèque principale de lecture publique Moudjahid Khemaïs Bekta",
  "has_virtual_tour": false
 },
 {
  "name_ar": "مكتبة الشهيد حواسين قاسي بلدية الشهبونية",
  "name_fr": "Bibliothèque martyr Haouassine Kaci – commune de Chahbounia",
  "layer": "library",
  "lat": 35.54267,
  "lng": 2.60533,
  "wilaya_code": "26",
  "wilaya_name_ar": "المدية",
  "wilaya_name_fr": "Médéa",
  "nid_ar": "324",
  "nid_fr": null,
  "match_m": null,
  "source": "patrimoineculturelalgerien.org",
  "name": "Bibliothèque martyr Haouassine Kaci – commune de Chahbounia",
  "has_virtual_tour": false
 },
 {
  "name_ar": "مكتبة الغيشة ”المجاهد المرحوم ناهي الشيخ“",
  "name_fr": "Bibliothèque d'El Ghicha – Moudjahid feu Nahi Cheikh",
  "layer": "library",
  "lat": 33.932211,
  "lng": 2.142199,
  "wilaya_code": "03",
  "wilaya_name_ar": "الأغواط",
  "wilaya_name_fr": "Laghouat",
  "nid_ar": "325",
  "nid_fr": null,
  "match_m": null,
  "source": "patrimoineculturelalgerien.org",
  "name": "Bibliothèque d'El Ghicha – Moudjahid feu Nahi Cheikh",
  "has_virtual_tour": false
 },
 {
  "name_ar": "قصر الآغا - فرجيوة",
  "name_fr": "Le palais d'El-Agha",
  "layer": "protected-cultural-property",
  "lat": 36.406825,
  "lng": 5.943828,
  "wilaya_code": "43",
  "wilaya_name_ar": "ميلة",
  "wilaya_name_fr": "Mila",
  "nid_ar": "326",
  "nid_fr": "1427",
  "match_m": 0,
  "source": "patrimoineculturelalgerien.org",
  "name": "Le palais d'El-Agha",
  "has_virtual_tour": false
 },
 {
  "name_ar": "المكتبة الرئيسية للمطالعة العمومية معمري علي بن سعيد سوق أهراس",
  "name_fr": "Bibliothèque principale de la lecture publique martyr Maamri Ali Ben Said Souk Ahras",
  "layer": "library",
  "lat": 36.282354,
  "lng": 7.935515,
  "wilaya_code": "41",
  "wilaya_name_ar": "سوق أهراس",
  "wilaya_name_fr": "Souk Ahras",
  "nid_ar": "327",
  "nid_fr": "1353",
  "match_m": 0,
  "source": "patrimoineculturelalgerien.org",
  "name": "Bibliothèque principale de la lecture publique martyr Maamri Ali Ben Said Souk Ahras",
  "has_virtual_tour": false
 },
 {
  "name_ar": "مكتبة المجاهد حميدي محمد ببلدية بوغزول",
  "name_fr": "Bibliothèque Moudjahid Hamidi Mohamed – commune de Boughezoul",
  "layer": "library",
  "lat": 35.703481,
  "lng": 2.857018,
  "wilaya_code": "26",
  "wilaya_name_ar": "المدية",
  "wilaya_name_fr": "Médéa",
  "nid_ar": "328",
  "nid_fr": null,
  "match_m": null,
  "source": "patrimoineculturelalgerien.org",
  "name": "Bibliothèque Moudjahid Hamidi Mohamed – commune de Boughezoul",
  "has_virtual_tour": false
 },
 {
  "name_ar": "المكتبة البلدية 02 البواعيش",
  "name_fr": "Bibliothèque communale n°2 – El Bouaïch",
  "layer": "library",
  "lat": 35.553257,
  "lng": 2.358615,
  "wilaya_code": "26",
  "wilaya_name_ar": "المدية",
  "wilaya_name_fr": "Médéa",
  "nid_ar": "330",
  "nid_fr": null,
  "match_m": null,
  "source": "patrimoineculturelalgerien.org",
  "name": "Bibliothèque communale n°2 – El Bouaïch",
  "has_virtual_tour": false
 },
 {
  "name_ar": "حصن سانتاكروز",
  "name_fr": "Santa Cruz",
  "layer": "protected-cultural-property",
  "lat": 35.709501,
  "lng": -0.664473,
  "wilaya_code": "31",
  "wilaya_name_ar": "وهران",
  "wilaya_name_fr": "Oran",
  "nid_ar": "332",
  "nid_fr": "107",
  "match_m": 20,
  "source": "patrimoineculturelalgerien.org",
  "name": "Santa Cruz",
  "has_virtual_tour": false
 },
 {
  "name_ar": "المكتبة الريفية \"الشهيد سعيدي قدور\"",
  "name_fr": "Bibliothèque rurale martyr Saïdi Kaddour",
  "layer": "library",
  "lat": 33.906355,
  "lng": 1.786558,
  "wilaya_code": "03",
  "wilaya_name_ar": "الأغواط",
  "wilaya_name_fr": "Laghouat",
  "nid_ar": "335",
  "nid_fr": null,
  "match_m": null,
  "source": "patrimoineculturelalgerien.org",
  "name": "Bibliothèque rurale martyr Saïdi Kaddour",
  "has_virtual_tour": false
 },
 {
  "name_ar": "مكتبة بلدية عزيز",
  "name_fr": "Bibliothèque communale d'Aziz",
  "layer": "library",
  "lat": 35.826497,
  "lng": 2.456258,
  "wilaya_code": "26",
  "wilaya_name_ar": "المدية",
  "wilaya_name_fr": "Médéa",
  "nid_ar": "336",
  "nid_fr": null,
  "match_m": null,
  "source": "patrimoineculturelalgerien.org",
  "name": "Bibliothèque communale d'Aziz",
  "has_virtual_tour": false
 },
 {
  "name_ar": "مكتبة الشهيد تافيفت احمد دراق",
  "name_fr": "Bibliothèque martyr Tafift Ahmed Derrag",
  "layer": "library",
  "lat": 35.862107,
  "lng": 2.3617,
  "wilaya_code": "26",
  "wilaya_name_ar": "المدية",
  "wilaya_name_fr": "Médéa",
  "nid_ar": "337",
  "nid_fr": null,
  "match_m": null,
  "source": "patrimoineculturelalgerien.org",
  "name": "Bibliothèque martyr Tafift Ahmed Derrag",
  "has_virtual_tour": false
 },
 {
  "name_ar": "مكتبة بلدية أم الجليل",
  "name_fr": "Bibliothèque communale d'Oum El Djelil",
  "layer": "library",
  "lat": 35.830911,
  "lng": 2.621139,
  "wilaya_code": "26",
  "wilaya_name_ar": "المدية",
  "wilaya_name_fr": "Médéa",
  "nid_ar": "339",
  "nid_fr": null,
  "match_m": null,
  "source": "patrimoineculturelalgerien.org",
  "name": "Bibliothèque communale d'Oum El Djelil",
  "has_virtual_tour": false
 },
 {
  "name_ar": "قصر تيوت العتيق",
  "name_fr": "Ksar antique de Tiout",
  "layer": "protected-cultural-property",
  "lat": 32.750296,
  "lng": -0.427866,
  "wilaya_code": "45",
  "wilaya_name_ar": "النعامة",
  "wilaya_name_fr": "Naâma",
  "nid_ar": "341",
  "nid_fr": null,
  "match_m": null,
  "source": "patrimoineculturelalgerien.org",
  "name": "Ksar antique de Tiout",
  "has_virtual_tour": false
 },
 {
  "name_ar": "العين الرومانية \"عين البلد\"",
  "name_fr": "La fontaine romaine Ain el-Bled",
  "layer": "protected-cultural-property",
  "lat": 36.451928,
  "lng": 6.274097,
  "wilaya_code": "43",
  "wilaya_name_ar": "ميلة",
  "wilaya_name_fr": "Mila",
  "nid_ar": "342",
  "nid_fr": "1411",
  "match_m": 0,
  "source": "patrimoineculturelalgerien.org",
  "name": "La fontaine romaine Ain el-Bled",
  "has_virtual_tour": false
 },
 {
  "name_ar": "المتحف العمومي الوطني للخط الإسلامي لمدينة تلمسان",
  "name_fr": "Musée Public National de la Calligraphie Islamique",
  "layer": "museum",
  "lat": 34.882921,
  "lng": -1.311297,
  "wilaya_code": "13",
  "wilaya_name_ar": "تلمسان",
  "wilaya_name_fr": "Tlemcen",
  "nid_ar": "343",
  "nid_fr": "199",
  "match_m": 0,
  "source": "patrimoineculturelalgerien.org",
  "name": "Musée Public National de la Calligraphie Islamique",
  "has_virtual_tour": false
 },
 {
  "name_ar": "مكتبة الشاعر مفدي زكريا بلدية عين بوسيف",
  "name_fr": "Bibliothèque du poète Moufdi Zakaria – commune d'Aïn Boucif",
  "layer": "library",
  "lat": 35.891107,
  "lng": 3.139023,
  "wilaya_code": "26",
  "wilaya_name_ar": "المدية",
  "wilaya_name_fr": "Médéa",
  "nid_ar": "344",
  "nid_fr": null,
  "match_m": null,
  "source": "patrimoineculturelalgerien.org",
  "name": "Bibliothèque du poète Moufdi Zakaria – commune d'Aïn Boucif",
  "has_virtual_tour": false
 },
 {
  "name_ar": "قصبة دلس العتيقة",
  "name_fr": "Casbah antique de Dellys",
  "layer": "protected-cultural-property",
  "lat": 36.913216,
  "lng": 3.902011,
  "wilaya_code": "35",
  "wilaya_name_ar": "بومرداس",
  "wilaya_name_fr": "Boumerdès",
  "nid_ar": "345",
  "nid_fr": null,
  "match_m": null,
  "source": "patrimoineculturelalgerien.org",
  "name": "Casbah antique de Dellys",
  "has_virtual_tour": false
 },
 {
  "name_ar": "مكتبة الشهيد ملاح لخضر بلدية العوينات",
  "name_fr": "Bibliothèque martyr Mellah Lakhdar – commune d'El Ouinet",
  "layer": "library",
  "lat": 35.89348,
  "lng": 3.034761,
  "wilaya_code": "26",
  "wilaya_name_ar": "المدية",
  "wilaya_name_fr": "Médéa",
  "nid_ar": "346",
  "nid_fr": null,
  "match_m": null,
  "source": "patrimoineculturelalgerien.org",
  "name": "Bibliothèque martyr Mellah Lakhdar – commune d'El Ouinet",
  "has_virtual_tour": false
 },
 {
  "name_ar": "مكتبة المجاهد شريفي محمد بلدية الكاف لخضر",
  "name_fr": "Bibliothèque Moudjahid Chrifi Mohamed – commune d'El Kaf Lakhdar",
  "layer": "library",
  "lat": 35.929504,
  "lng": 3.29127,
  "wilaya_code": "26",
  "wilaya_name_ar": "المدية",
  "wilaya_name_fr": "Médéa",
  "nid_ar": "347",
  "nid_fr": null,
  "match_m": null,
  "source": "patrimoineculturelalgerien.org",
  "name": "Bibliothèque Moudjahid Chrifi Mohamed – commune d'El Kaf Lakhdar",
  "has_virtual_tour": false
 },
 {
  "name_ar": "الموقع الأثري لمشتة البعالة",
  "name_fr": "Site archéologique d'El-Baala",
  "layer": "protected-cultural-property",
  "lat": 36.2977,
  "lng": 6.224736,
  "wilaya_code": "43",
  "wilaya_name_ar": "ميلة",
  "wilaya_name_fr": "Mila",
  "nid_ar": "348",
  "nid_fr": "1433",
  "match_m": 0,
  "source": "patrimoineculturelalgerien.org",
  "name": "Site archéologique d'El-Baala",
  "has_virtual_tour": false
 },
 {
  "name_ar": "مكتبة الشهيد العيد بوعبعوب بلدية الشنيقل",
  "name_fr": "Bibliothèque martyr El Aïd Bouabboub – commune de Chéniguel",
  "layer": "library",
  "lat": 35.921005,
  "lng": 3.564298,
  "wilaya_code": "26",
  "wilaya_name_ar": "المدية",
  "wilaya_name_fr": "Médéa",
  "nid_ar": "350",
  "nid_fr": null,
  "match_m": null,
  "source": "patrimoineculturelalgerien.org",
  "name": "Bibliothèque martyr El Aïd Bouabboub – commune de Chéniguel",
  "has_virtual_tour": false
 },
 {
  "name_ar": "مكتبة الشهيد عبدي محمود بلدية ذراع السمار",
  "name_fr": "Bibliothèque martyr Abdi Mahmoud – commune de Draâ Essemar",
  "layer": "library",
  "lat": 36.275029,
  "lng": 2.71645,
  "wilaya_code": "26",
  "wilaya_name_ar": "المدية",
  "wilaya_name_fr": "Médéa",
  "nid_ar": "351",
  "nid_fr": null,
  "match_m": null,
  "source": "patrimoineculturelalgerien.org",
  "name": "Bibliothèque martyr Abdi Mahmoud – commune de Draâ Essemar",
  "has_virtual_tour": false
 },
 {
  "name_ar": "المتحف الوطني العمومي للفنون والتقاليد والشعبية بالمدية",
  "name_fr": "Musée public national des Arts et Traditions populaires de Médéa",
  "layer": "museum",
  "lat": 36.261554,
  "lng": 2.751416,
  "wilaya_code": "26",
  "wilaya_name_ar": "المدية",
  "wilaya_name_fr": "Médéa",
  "nid_ar": "353",
  "nid_fr": null,
  "match_m": null,
  "source": "patrimoineculturelalgerien.org",
  "name": "Musée public national des Arts et Traditions populaires de Médéa",
  "has_virtual_tour": false
 },
 {
  "name_ar": "قصر اربوات",
  "name_fr": "Ksar d'Arbaouat",
  "layer": "protected-cultural-property",
  "lat": 33.089579,
  "lng": 0.580182,
  "wilaya_code": "32",
  "wilaya_name_ar": "البيض",
  "wilaya_name_fr": "El Bayadh",
  "nid_ar": "354",
  "nid_fr": null,
  "match_m": null,
  "source": "patrimoineculturelalgerien.org",
  "name": "Ksar d'Arbaouat",
  "has_virtual_tour": false
 },
 {
  "name_ar": "مكتبة \"الشهيد شريط محمد\"",
  "name_fr": "Bibliothèque martyr Cherit Mohamed",
  "layer": "library",
  "lat": 34.116897,
  "lng": 2.107789,
  "wilaya_code": "03",
  "wilaya_name_ar": "الأغواط",
  "wilaya_name_fr": "Laghouat",
  "nid_ar": "355",
  "nid_fr": null,
  "match_m": null,
  "source": "patrimoineculturelalgerien.org",
  "name": "Bibliothèque martyr Cherit Mohamed",
  "has_virtual_tour": false
 },
 {
  "name_ar": "قوس النصر كاراكلا",
  "name_fr": "Arc de triomphe de Caracalla",
  "layer": "protected-cultural-property",
  "lat": 35.404729,
  "lng": 8.123109,
  "wilaya_code": "12",
  "wilaya_name_ar": "تبسة",
  "wilaya_name_fr": "Tébessa",
  "nid_ar": "356",
  "nid_fr": null,
  "match_m": null,
  "source": "patrimoineculturelalgerien.org",
  "name": "Arc de triomphe de Caracalla",
  "has_virtual_tour": false
 },
 {
  "name_ar": "باب سولومو",
  "name_fr": "Porte de Solomon",
  "layer": "protected-cultural-property",
  "lat": 35.402695,
  "lng": 8.122879,
  "wilaya_code": "12",
  "wilaya_name_ar": "تبسة",
  "wilaya_name_fr": "Tébessa",
  "nid_ar": "357",
  "nid_fr": null,
  "match_m": null,
  "source": "patrimoineculturelalgerien.org",
  "name": "Porte de Solomon",
  "has_virtual_tour": false
 },
 {
  "name_ar": "باب شالة",
  "name_fr": "Porte de Chala",
  "layer": "protected-cultural-property",
  "lat": 35.402752,
  "lng": 8.12124,
  "wilaya_code": "12",
  "wilaya_name_ar": "تبسة",
  "wilaya_name_fr": "Tébessa",
  "nid_ar": "358",
  "nid_fr": null,
  "match_m": null,
  "source": "patrimoineculturelalgerien.org",
  "name": "Porte de Chala",
  "has_virtual_tour": false
 },
 {
  "name_ar": "باب قسنطينة",
  "name_fr": "Porte de Constantine",
  "layer": "protected-cultural-property",
  "lat": 35.404252,
  "lng": 8.120227,
  "wilaya_code": "12",
  "wilaya_name_ar": "تبسة",
  "wilaya_name_fr": "Tébessa",
  "nid_ar": "360",
  "nid_fr": null,
  "match_m": null,
  "source": "patrimoineculturelalgerien.org",
  "name": "Porte de Constantine",
  "has_virtual_tour": false
 },
 {
  "name_ar": "السور البزنطي",
  "name_fr": "Rempart byzantin",
  "layer": "protected-cultural-property",
  "lat": 35.405409,
  "lng": 8.121968,
  "wilaya_code": "12",
  "wilaya_name_ar": "تبسة",
  "wilaya_name_fr": "Tébessa",
  "nid_ar": "361",
  "nid_fr": null,
  "match_m": null,
  "source": "patrimoineculturelalgerien.org",
  "name": "Rempart byzantin",
  "has_virtual_tour": false
 },
 {
  "name_ar": "سيدي عبد الله",
  "name_fr": "Sidi Abdallah",
  "layer": "protected-cultural-property",
  "lat": 35.672453,
  "lng": 8.012443,
  "wilaya_code": "12",
  "wilaya_name_ar": "تبسة",
  "wilaya_name_fr": "Tébessa",
  "nid_ar": "362",
  "nid_fr": null,
  "match_m": null,
  "source": "patrimoineculturelalgerien.org",
  "name": "Sidi Abdallah",
  "has_virtual_tour": false
 },
 {
  "name_ar": "الحديقة الأثرية",
  "name_fr": "Jardin archéologique",
  "layer": "protected-cultural-property",
  "lat": 35.404974,
  "lng": 8.119441,
  "wilaya_code": "12",
  "wilaya_name_ar": "تبسة",
  "wilaya_name_fr": "Tébessa",
  "nid_ar": "363",
  "nid_fr": null,
  "match_m": null,
  "source": "patrimoineculturelalgerien.org",
  "name": "Jardin archéologique",
  "has_virtual_tour": false
 },
 {
  "name_ar": "الكنيسة المسيحية",
  "name_fr": "Église chrétienne",
  "layer": "protected-cultural-property",
  "lat": 35.405232,
  "lng": 8.121503,
  "wilaya_code": "12",
  "wilaya_name_ar": "تبسة",
  "wilaya_name_fr": "Tébessa",
  "nid_ar": "365",
  "nid_fr": null,
  "match_m": null,
  "source": "patrimoineculturelalgerien.org",
  "name": "Église chrétienne",
  "has_virtual_tour": false
 },
 {
  "name_ar": "المسرح الروماني المدرج",
  "name_fr": "Amphithéâtre romain",
  "layer": "protected-cultural-property",
  "lat": 35.401143,
  "lng": 8.123788,
  "wilaya_code": "12",
  "wilaya_name_ar": "تبسة",
  "wilaya_name_fr": "Tébessa",
  "nid_ar": "367",
  "nid_fr": null,
  "match_m": null,
  "source": "patrimoineculturelalgerien.org",
  "name": "Amphithéâtre romain",
  "has_virtual_tour": false
 },
 {
  "name_ar": "القصر القديم",
  "name_fr": "Vieux palais",
  "layer": "protected-cultural-property",
  "lat": 35.399394,
  "lng": 8.120594,
  "wilaya_code": "12",
  "wilaya_name_ar": "تبسة",
  "wilaya_name_fr": "Tébessa",
  "nid_ar": "369",
  "nid_fr": null,
  "match_m": null,
  "source": "patrimoineculturelalgerien.org",
  "name": "Vieux palais",
  "has_virtual_tour": false
 },
 {
  "name_ar": "تبسة الخالية",
  "name_fr": "Tébessa Khalia (cité antique)",
  "layer": "protected-cultural-property",
  "lat": 35.383173,
  "lng": 8.099902,
  "wilaya_code": "12",
  "wilaya_name_ar": "تبسة",
  "wilaya_name_fr": "Tébessa",
  "nid_ar": "370",
  "nid_fr": null,
  "match_m": null,
  "source": "patrimoineculturelalgerien.org",
  "name": "Tébessa Khalia (cité antique)",
  "has_virtual_tour": false
 },
 {
  "name_ar": "برج جبل مستيري",
  "name_fr": "Bordj de Djebel Mestiri",
  "layer": "protected-cultural-property",
  "lat": 35.417731,
  "lng": 7.991828,
  "wilaya_code": "12",
  "wilaya_name_ar": "تبسة",
  "wilaya_name_fr": "Tébessa",
  "nid_ar": "373",
  "nid_fr": null,
  "match_m": null,
  "source": "patrimoineculturelalgerien.org",
  "name": "Bordj de Djebel Mestiri",
  "has_virtual_tour": false
 },
 {
  "name_ar": "البازيليك المسيحية",
  "name_fr": "Basilique chrétienne",
  "layer": "protected-cultural-property",
  "lat": 35.409324,
  "lng": 8.126861,
  "wilaya_code": "12",
  "wilaya_name_ar": "تبسة",
  "wilaya_name_fr": "Tébessa",
  "nid_ar": "375",
  "nid_fr": null,
  "match_m": null,
  "source": "patrimoineculturelalgerien.org",
  "name": "Basilique chrétienne",
  "has_virtual_tour": false
 },
 {
  "name_ar": "المتحف البلدي (الكنيسة القديمة)",
  "name_fr": "Musée communal (ancienne église)",
  "layer": "protected-cultural-property",
  "lat": 33.806831,
  "lng": 2.882993,
  "wilaya_code": "03",
  "wilaya_name_ar": "الأغواط",
  "wilaya_name_fr": "Laghouat",
  "nid_ar": "376",
  "nid_fr": null,
  "match_m": null,
  "source": "patrimoineculturelalgerien.org",
  "name": "Musée communal (ancienne église)",
  "has_virtual_tour": false
 },
 {
  "name_ar": "مكتبة المطالعة العمومية عبد الله شريط",
  "name_fr": "Bibliothèque de lecture publique Abdallah Cherit",
  "layer": "library",
  "lat": 34.969496,
  "lng": 0.30315,
  "wilaya_code": "20",
  "wilaya_name_ar": "سعيدة",
  "wilaya_name_fr": "Saïda",
  "nid_ar": "377",
  "nid_fr": null,
  "match_m": null,
  "source": "patrimoineculturelalgerien.org",
  "name": "Bibliothèque de lecture publique Abdallah Cherit",
  "has_virtual_tour": false
 },
 {
  "name_ar": "معصرة برزقان",
  "name_fr": "Pressoir de Berzgane",
  "layer": "protected-cultural-property",
  "lat": 35.121296,
  "lng": 8.218144,
  "wilaya_code": "12",
  "wilaya_name_ar": "تبسة",
  "wilaya_name_fr": "Tébessa",
  "nid_ar": "378",
  "nid_fr": null,
  "match_m": null,
  "source": "patrimoineculturelalgerien.org",
  "name": "Pressoir de Berzgane",
  "has_virtual_tour": false
 },
 {
  "name_ar": "قصر كوردان",
  "name_fr": "Ksar de Kourdane",
  "layer": "protected-cultural-property",
  "lat": 33.849803,
  "lng": 2.340597,
  "wilaya_code": "03",
  "wilaya_name_ar": "الأغواط",
  "wilaya_name_fr": "Laghouat",
  "nid_ar": "379",
  "nid_fr": null,
  "match_m": null,
  "source": "patrimoineculturelalgerien.org",
  "name": "Ksar de Kourdane",
  "has_virtual_tour": false
 },
 {
  "name_ar": "قصور نقرين",
  "name_fr": "Ksour de Negrine",
  "layer": "protected-cultural-property",
  "lat": 34.476372,
  "lng": 7.506661,
  "wilaya_code": "12",
  "wilaya_name_ar": "تبسة",
  "wilaya_name_fr": "Tébessa",
  "nid_ar": "380",
  "nid_fr": null,
  "match_m": null,
  "source": "patrimoineculturelalgerien.org",
  "name": "Ksour de Negrine",
  "has_virtual_tour": false
 },
 {
  "name_ar": "محطة صفية البارود",
  "name_fr": "Station de Safiet El Baroud",
  "layer": "protected-cultural-property",
  "lat": 34.110944,
  "lng": 3.076543,
  "wilaya_code": "03",
  "wilaya_name_ar": "الأغواط",
  "wilaya_name_fr": "Laghouat",
  "nid_ar": "382",
  "nid_fr": null,
  "match_m": null,
  "source": "patrimoineculturelalgerien.org",
  "name": "Station de Safiet El Baroud",
  "has_virtual_tour": false
 },
 {
  "name_ar": "مقبرة الدكتور سعدان",
  "name_fr": "Tombeau du docteur Saâdane",
  "layer": "protected-cultural-property",
  "lat": 35.406346,
  "lng": 8.118244,
  "wilaya_code": "12",
  "wilaya_name_ar": "تبسة",
  "wilaya_name_fr": "Tébessa",
  "nid_ar": "383",
  "nid_fr": null,
  "match_m": null,
  "source": "patrimoineculturelalgerien.org",
  "name": "Tombeau du docteur Saâdane",
  "has_virtual_tour": false
 },
 {
  "name_ar": "معبد مينارف",
  "name_fr": "Temple de Minerve",
  "layer": "protected-cultural-property",
  "lat": 35.404663,
  "lng": 8.122497,
  "wilaya_code": "12",
  "wilaya_name_ar": "تبسة",
  "wilaya_name_fr": "Tébessa",
  "nid_ar": "384",
  "nid_fr": null,
  "match_m": null,
  "source": "patrimoineculturelalgerien.org",
  "name": "Temple de Minerve",
  "has_virtual_tour": false
 },
 {
  "name_ar": "الزاوية التجانية",
  "name_fr": "Zaouïa Tidjania",
  "layer": "protected-cultural-property",
  "lat": 33.794057,
  "lng": 2.301312,
  "wilaya_code": "03",
  "wilaya_name_ar": "الأغواط",
  "wilaya_name_fr": "Laghouat",
  "nid_ar": "385",
  "nid_fr": null,
  "match_m": null,
  "source": "patrimoineculturelalgerien.org",
  "name": "Zaouïa Tidjania",
  "has_virtual_tour": false
 },
 {
  "name_ar": "مكتبة المطالعة العمومية المجاهد هشماوي علي",
  "name_fr": "Bibliothèque de lecture publique Moudjahid Hechmaoui Ali",
  "layer": "library",
  "lat": 34.883739,
  "lng": 0.154458,
  "wilaya_code": "20",
  "wilaya_name_ar": "سعيدة",
  "wilaya_name_fr": "Saïda",
  "nid_ar": "386",
  "nid_fr": null,
  "match_m": null,
  "source": "patrimoineculturelalgerien.org",
  "name": "Bibliothèque de lecture publique Moudjahid Hechmaoui Ali",
  "has_virtual_tour": false
 },
 {
  "name_ar": "مكتبة المطالعة العمومية محمد الأخضر السائحي",
  "name_fr": "Bibliothèque de lecture publique Mohamed Lakhdar Essaïhi",
  "layer": "library",
  "lat": 34.85714,
  "lng": 0.15023,
  "wilaya_code": "20",
  "wilaya_name_ar": "سعيدة",
  "wilaya_name_fr": "Saïda",
  "nid_ar": "387",
  "nid_fr": null,
  "match_m": null,
  "source": "patrimoineculturelalgerien.org",
  "name": "Bibliothèque de lecture publique Mohamed Lakhdar Essaïhi",
  "has_virtual_tour": false
 },
 {
  "name_ar": "كنيسة القديس أوغستين",
  "name_fr": "Basilique Saint-Augustin",
  "layer": "protected-cultural-property",
  "lat": 36.881805,
  "lng": 7.744749,
  "wilaya_code": "23",
  "wilaya_name_ar": "عنابة",
  "wilaya_name_fr": "Annaba",
  "nid_ar": "388",
  "nid_fr": null,
  "match_m": null,
  "source": "patrimoineculturelalgerien.org",
  "name": "Basilique Saint-Augustin",
  "has_virtual_tour": true
 },
 {
  "name_ar": "مكتبة المطالعة العمومية محمد ذيب بلدية المعمورة",
  "name_fr": "Bibliothèque de lecture publique Mohamed Dib – commune d'El Maâmoura",
  "layer": "library",
  "lat": 34.685752,
  "lng": 0.502399,
  "wilaya_code": "20",
  "wilaya_name_ar": "سعيدة",
  "wilaya_name_fr": "Saïda",
  "nid_ar": "389",
  "nid_fr": null,
  "match_m": null,
  "source": "patrimoineculturelalgerien.org",
  "name": "Bibliothèque de lecture publique Mohamed Dib – commune d'El Maâmoura",
  "has_virtual_tour": false
 },
 {
  "name_ar": "قناة جلب المياه الرومانية لبوزيزي ببلدية سيرايدي",
  "name_fr": "Aqueduc romain de Bouzizi – commune de Séraïdi",
  "layer": "protected-cultural-property",
  "lat": 36.903488,
  "lng": 7.650338,
  "wilaya_code": "23",
  "wilaya_name_ar": "عنابة",
  "wilaya_name_fr": "Annaba",
  "nid_ar": "390",
  "nid_fr": null,
  "match_m": null,
  "source": "patrimoineculturelalgerien.org",
  "name": "Aqueduc romain de Bouzizi – commune de Séraïdi",
  "has_virtual_tour": false
 },
 {
  "name_ar": "مواقع تاريخية برأس الحمراء",
  "name_fr": "Sites historiques du Cap de Garde (Ras El Hamra)",
  "layer": "protected-cultural-property",
  "lat": 36.961301,
  "lng": 7.775893,
  "wilaya_code": "23",
  "wilaya_name_ar": "عنابة",
  "wilaya_name_fr": "Annaba",
  "nid_ar": "391",
  "nid_fr": null,
  "match_m": null,
  "source": "patrimoineculturelalgerien.org",
  "name": "Sites historiques du Cap de Garde (Ras El Hamra)",
  "has_virtual_tour": false
 },
 {
  "name_ar": "مكتبة المطالعة العمومية بلغزالي بن براهيم",
  "name_fr": "Bibliothèque de lecture publique Belghazali Benbrahim",
  "layer": "library",
  "lat": 34.986208,
  "lng": 0.471894,
  "wilaya_code": "20",
  "wilaya_name_ar": "سعيدة",
  "wilaya_name_fr": "Saïda",
  "nid_ar": "392",
  "nid_fr": null,
  "match_m": null,
  "source": "patrimoineculturelalgerien.org",
  "name": "Bibliothèque de lecture publique Belghazali Benbrahim",
  "has_virtual_tour": false
 },
 {
  "name_ar": "المسرح الجهوي عزالدين مجوبي",
  "name_fr": "Théatre Azzedine Medjoubi",
  "layer": "theatre",
  "lat": 36.899696,
  "lng": 7.759813,
  "wilaya_code": "23",
  "wilaya_name_ar": "عنابة",
  "wilaya_name_fr": "Annaba",
  "nid_ar": "393",
  "nid_fr": "39",
  "match_m": 0,
  "source": "patrimoineculturelalgerien.org",
  "name": "Théatre Azzedine Medjoubi",
  "has_virtual_tour": false
 },
 {
  "name_ar": "محطة القطار عنابة",
  "name_fr": "Gare ferroviaire d'Annaba",
  "layer": "protected-cultural-property",
  "lat": 36.896004,
  "lng": 7.758911,
  "wilaya_code": "23",
  "wilaya_name_ar": "عنابة",
  "wilaya_name_fr": "Annaba",
  "nid_ar": "394",
  "nid_fr": null,
  "match_m": null,
  "source": "patrimoineculturelalgerien.org",
  "name": "Gare ferroviaire d'Annaba",
  "has_virtual_tour": false
 },
 {
  "name_ar": "مكتبة المطالعة العمومية مصطفاي الطيب",
  "name_fr": "Bibliothèque de lecture publique Mostefaï Tayeb",
  "layer": "library",
  "lat": 35.024849,
  "lng": 0.107415,
  "wilaya_code": "20",
  "wilaya_name_ar": "سعيدة",
  "wilaya_name_fr": "Saïda",
  "nid_ar": "395",
  "nid_fr": null,
  "match_m": null,
  "source": "patrimoineculturelalgerien.org",
  "name": "Bibliothèque de lecture publique Mostefaï Tayeb",
  "has_virtual_tour": false
 },
 {
  "name_ar": "مكتبة المطالعة العمومية عبد الحميد بن هدوقة",
  "name_fr": "Bibliothèque de lecture publique Abdelhamid Benhedouga",
  "layer": "library",
  "lat": 34.902019,
  "lng": 0.557633,
  "wilaya_code": "20",
  "wilaya_name_ar": "سعيدة",
  "wilaya_name_fr": "Saïda",
  "nid_ar": "396",
  "nid_fr": null,
  "match_m": null,
  "source": "patrimoineculturelalgerien.org",
  "name": "Bibliothèque de lecture publique Abdelhamid Benhedouga",
  "has_virtual_tour": false
 },
 {
  "name_ar": "مكتبة المطالعة العمومية عبد الرحمان الجيلالي",
  "name_fr": "Bibliothèque de lecture publique Abderrahmane El Djilali",
  "layer": "library",
  "lat": 34.82317,
  "lng": 0.323475,
  "wilaya_code": "20",
  "wilaya_name_ar": "سعيدة",
  "wilaya_name_fr": "Saïda",
  "nid_ar": "397",
  "nid_fr": null,
  "match_m": null,
  "source": "patrimoineculturelalgerien.org",
  "name": "Bibliothèque de lecture publique Abderrahmane El Djilali",
  "has_virtual_tour": false
 },
 {
  "name_ar": "مكتبة المطالعة العمومية حاجي عيسى",
  "name_fr": "Bibliothèque de lecture publique Hadji Aïssa",
  "layer": "library",
  "lat": 34.647818,
  "lng": 0.013729,
  "wilaya_code": "20",
  "wilaya_name_ar": "سعيدة",
  "wilaya_name_fr": "Saïda",
  "nid_ar": "398",
  "nid_fr": null,
  "match_m": null,
  "source": "patrimoineculturelalgerien.org",
  "name": "Bibliothèque de lecture publique Hadji Aïssa",
  "has_virtual_tour": false
 },
 {
  "name_ar": "مكتبة المطالعة العمومية مصطفى الأشرف",
  "name_fr": "Bibliothèque de lecture publique Mostefa Lacheraf",
  "layer": "library",
  "lat": 34.761861,
  "lng": 0.143687,
  "wilaya_code": "20",
  "wilaya_name_ar": "سعيدة",
  "wilaya_name_fr": "Saïda",
  "nid_ar": "399",
  "nid_fr": null,
  "match_m": null,
  "source": "patrimoineculturelalgerien.org",
  "name": "Bibliothèque de lecture publique Mostefa Lacheraf",
  "has_virtual_tour": false
 },
 {
  "name_ar": "مكتبة المطالعة العمومية كاتب ياسين",
  "name_fr": "Bibliothèque de lecture publique Kateb Yacine",
  "layer": "library",
  "lat": 34.546111,
  "lng": 0.261785,
  "wilaya_code": "20",
  "wilaya_name_ar": "سعيدة",
  "wilaya_name_fr": "Saïda",
  "nid_ar": "400",
  "nid_fr": null,
  "match_m": null,
  "source": "patrimoineculturelalgerien.org",
  "name": "Bibliothèque de lecture publique Kateb Yacine",
  "has_virtual_tour": false
 },
 {
  "name_ar": "متحف المجاهد",
  "name_fr": "Musée du Moudjahid",
  "layer": "museum-moudjahid",
  "lat": 35.699419,
  "lng": -0.603395,
  "wilaya_code": "31",
  "wilaya_name_ar": "وهران",
  "wilaya_name_fr": "Oran",
  "nid_ar": "401",
  "nid_fr": null,
  "match_m": null,
  "source": "patrimoineculturelalgerien.org",
  "name": "Musée du Moudjahid",
  "has_virtual_tour": false
 },
 {
  "name_ar": "متحف المجاهد",
  "name_fr": "Musée du Moudjahid",
  "layer": "museum-moudjahid",
  "lat": 35.930839,
  "lng": 0.077745,
  "wilaya_code": "27",
  "wilaya_name_ar": "مستغانم",
  "wilaya_name_fr": "Mostaganem",
  "nid_ar": "402",
  "nid_fr": null,
  "match_m": null,
  "source": "patrimoineculturelalgerien.org",
  "name": "Musée du Moudjahid",
  "has_virtual_tour": false
 },
 {
  "name_ar": "متحف المجاهد",
  "name_fr": "Musée du Moudjahid",
  "layer": "museum-moudjahid",
  "lat": 35.40391,
  "lng": 0.140277,
  "wilaya_code": "29",
  "wilaya_name_ar": "معسكر",
  "wilaya_name_fr": "Mascara",
  "nid_ar": "403",
  "nid_fr": null,
  "match_m": null,
  "source": "patrimoineculturelalgerien.org",
  "name": "Musée du Moudjahid",
  "has_virtual_tour": false
 },
 {
  "name_ar": "متحف المجاهد",
  "name_fr": "Musée du Moudjahid",
  "layer": "museum-moudjahid",
  "lat": 35.356493,
  "lng": 1.325296,
  "wilaya_code": "14",
  "wilaya_name_ar": "تيارت",
  "wilaya_name_fr": "Tiaret",
  "nid_ar": "404",
  "nid_fr": null,
  "match_m": null,
  "source": "patrimoineculturelalgerien.org",
  "name": "Musée du Moudjahid",
  "has_virtual_tour": false
 },
 {
  "name_ar": "متحف المجاهد",
  "name_fr": "Musée du Moudjahid",
  "layer": "museum-moudjahid",
  "lat": 36.745324,
  "lng": 3.070754,
  "wilaya_code": "16",
  "wilaya_name_ar": "الجزائر",
  "wilaya_name_fr": "Alger",
  "nid_ar": "405",
  "nid_fr": null,
  "match_m": null,
  "source": "patrimoineculturelalgerien.org",
  "name": "Musée du Moudjahid",
  "has_virtual_tour": false
 },
 {
  "name_ar": "متحف المجاهد",
  "name_fr": "Musée du Moudjahid",
  "layer": "museum-moudjahid",
  "lat": 36.495316,
  "lng": 5.273158,
  "wilaya_code": "06",
  "wilaya_name_ar": "بجاية",
  "wilaya_name_fr": "Béjaïa",
  "nid_ar": "406",
  "nid_fr": null,
  "match_m": null,
  "source": "patrimoineculturelalgerien.org",
  "name": "Musée du Moudjahid",
  "has_virtual_tour": false
 },
 {
  "name_ar": "متحف المجاهد",
  "name_fr": "Musée du Moudjahid",
  "layer": "museum-moudjahid",
  "lat": 35.52562,
  "lng": 6.197866,
  "wilaya_code": "05",
  "wilaya_name_ar": "باتنة",
  "wilaya_name_fr": "Batna",
  "nid_ar": "407",
  "nid_fr": null,
  "match_m": null,
  "source": "patrimoineculturelalgerien.org",
  "name": "Musée du Moudjahid",
  "has_virtual_tour": false
 },
 {
  "name_ar": "متحف المجاهد",
  "name_fr": "Musée du Moudjahid",
  "layer": "museum-moudjahid",
  "lat": 35.867982,
  "lng": 7.11247,
  "wilaya_code": "04",
  "wilaya_name_ar": "أم البواقي",
  "wilaya_name_fr": "Oum El Bouaghi",
  "nid_ar": "408",
  "nid_fr": null,
  "match_m": null,
  "source": "patrimoineculturelalgerien.org",
  "name": "Musée du Moudjahid",
  "has_virtual_tour": false
 },
 {
  "name_ar": "متحف المجاهد",
  "name_fr": "Musée du Moudjahid",
  "layer": "museum-moudjahid",
  "lat": 36.287308,
  "lng": 7.967971,
  "wilaya_code": "41",
  "wilaya_name_ar": "سوق أهراس",
  "wilaya_name_fr": "Souk Ahras",
  "nid_ar": "409",
  "nid_fr": null,
  "match_m": null,
  "source": "patrimoineculturelalgerien.org",
  "name": "Musée du Moudjahid",
  "has_virtual_tour": false
 },
 {
  "name_ar": "متحف المجاهد",
  "name_fr": "Musée du Moudjahid",
  "layer": "museum-moudjahid",
  "lat": 32.268862,
  "lng": 3.631627,
  "wilaya_code": "47",
  "wilaya_name_ar": "غرداية",
  "wilaya_name_fr": "Ghardaïa",
  "nid_ar": "410",
  "nid_fr": null,
  "match_m": null,
  "source": "patrimoineculturelalgerien.org",
  "name": "Musée du Moudjahid",
  "has_virtual_tour": false
 },
 {
  "name_ar": "متحف المجاهد",
  "name_fr": "Musée El Moudjahid",
  "layer": "museum-moudjahid",
  "lat": 31.956928,
  "lng": 5.333452,
  "wilaya_code": "30",
  "wilaya_name_ar": "ورقلة",
  "wilaya_name_fr": "Ouargla",
  "nid_ar": "411",
  "nid_fr": "115",
  "match_m": 0,
  "source": "patrimoineculturelalgerien.org",
  "name": "Musée El Moudjahid",
  "has_virtual_tour": false
 },
 {
  "name_ar": "متحف المجاهد",
  "name_fr": "Musée du Moudjahid",
  "layer": "museum-moudjahid",
  "lat": 33.105735,
  "lng": 6.069705,
  "wilaya_code": "30",
  "wilaya_name_ar": "ورقلة",
  "wilaya_name_fr": "Ouargla",
  "nid_ar": "412",
  "nid_fr": null,
  "match_m": null,
  "source": "patrimoineculturelalgerien.org",
  "name": "Musée du Moudjahid",
  "has_virtual_tour": false
 },
 {
  "name_ar": "المسرح الجهوي _ صراط بومدين",
  "name_fr": "Théâtre régional Serrat Boumediene",
  "layer": "theatre",
  "lat": 34.829139,
  "lng": 0.1495,
  "wilaya_code": "20",
  "wilaya_name_ar": "سعيدة",
  "wilaya_name_fr": "Saïda",
  "nid_ar": "416",
  "nid_fr": null,
  "match_m": null,
  "source": "patrimoineculturelalgerien.org",
  "name": "Théâtre régional Serrat Boumediene",
  "has_virtual_tour": false
 },
 {
  "name_ar": "دار الباي او دار الامير عبدالقادر",
  "name_fr": "Minaret de la vieille mosquée",
  "layer": "protected-cultural-property",
  "lat": 36.261662,
  "lng": 2.75139,
  "wilaya_code": "26",
  "wilaya_name_ar": "المدية",
  "wilaya_name_fr": "Médéa",
  "nid_ar": "420",
  "nid_fr": "538",
  "match_m": 129,
  "source": "patrimoineculturelalgerien.org",
  "name": "Minaret de la vieille mosquée",
  "has_virtual_tour": false
 },
 {
  "name_ar": "الموقع الأثري خميسة",
  "name_fr": "Site Archéologique Khemissa (Thubursicu Numidarum)",
  "layer": "protected-cultural-property",
  "lat": 36.194167,
  "lng": 7.655222,
  "wilaya_code": "41",
  "wilaya_name_ar": "سوق أهراس",
  "wilaya_name_fr": "Souk Ahras",
  "nid_ar": "423",
  "nid_fr": "1401",
  "match_m": 0,
  "source": "patrimoineculturelalgerien.org",
  "name": "Site Archéologique Khemissa (Thubursicu Numidarum)",
  "has_virtual_tour": false
 },
 {
  "name_ar": "الموقع الأثري مادور",
  "name_fr": "Site Archéologique Madaure ( Madorus)",
  "layer": "protected-cultural-property",
  "lat": 36.078889,
  "lng": 7.900944,
  "wilaya_code": "41",
  "wilaya_name_ar": "سوق أهراس",
  "wilaya_name_fr": "Souk Ahras",
  "nid_ar": "424",
  "nid_fr": "1400",
  "match_m": 0,
  "source": "patrimoineculturelalgerien.org",
  "name": "Site Archéologique Madaure ( Madorus)",
  "has_virtual_tour": false
 },
 {
  "name_ar": "الموقع الأثري تاورة",
  "name_fr": "Site Archéologique Taoura (Thagura)",
  "layer": "protected-cultural-property",
  "lat": 36.176417,
  "lng": 8.035917,
  "wilaya_code": "41",
  "wilaya_name_ar": "سوق أهراس",
  "wilaya_name_fr": "Souk Ahras",
  "nid_ar": "425",
  "nid_fr": "1399",
  "match_m": 0,
  "source": "patrimoineculturelalgerien.org",
  "name": "Site Archéologique Taoura (Thagura)",
  "has_virtual_tour": false
 },
 {
  "name_ar": "الموقع الأثري تيفاش ( تيبازة النوميدية)",
  "name_fr": "Site Archéologique Tiffeche ( Tipaza de Numidie )",
  "layer": "protected-cultural-property",
  "lat": 36.160333,
  "lng": 7.702833,
  "wilaya_code": "41",
  "wilaya_name_ar": "سوق أهراس",
  "wilaya_name_fr": "Souk Ahras",
  "nid_ar": "426",
  "nid_fr": "1398",
  "match_m": 0,
  "source": "patrimoineculturelalgerien.org",
  "name": "Site Archéologique Tiffeche ( Tipaza de Numidie )",
  "has_virtual_tour": false
 },
 {
  "name_ar": "ضريح قصر لحمر",
  "name_fr": "Mausolée K'sar Lahmar",
  "layer": "protected-cultural-property",
  "lat": 36.061903,
  "lng": 8.103654,
  "wilaya_code": "41",
  "wilaya_name_ar": "سوق أهراس",
  "wilaya_name_fr": "Souk Ahras",
  "nid_ar": "427",
  "nid_fr": "1396",
  "match_m": 0,
  "source": "patrimoineculturelalgerien.org",
  "name": "Mausolée K'sar Lahmar",
  "has_virtual_tour": false
 },
 {
  "name_ar": "موقع ديانا فيتيرانوروم",
  "name_fr": "Site de Diana Veteranorum",
  "layer": "protected-cultural-property",
  "lat": 35.774444,
  "lng": 6.075556,
  "wilaya_code": "05",
  "wilaya_name_ar": "باتنة",
  "wilaya_name_fr": "Batna",
  "nid_ar": "428",
  "nid_fr": null,
  "match_m": null,
  "source": "patrimoineculturelalgerien.org",
  "name": "Site de Diana Veteranorum",
  "has_virtual_tour": false
 },
 {
  "name_ar": "موقع لمبيز - تازولت",
  "name_fr": "Site de Lambèse – Tazoult",
  "layer": "protected-cultural-property",
  "lat": 35.497222,
  "lng": 6.273333,
  "wilaya_code": "05",
  "wilaya_name_ar": "باتنة",
  "wilaya_name_fr": "Batna",
  "nid_ar": "429",
  "nid_fr": null,
  "match_m": null,
  "source": "patrimoineculturelalgerien.org",
  "name": "Site de Lambèse – Tazoult",
  "has_virtual_tour": false
 },
 {
  "name_ar": "اشير",
  "name_fr": "Achir",
  "layer": "protected-cultural-property",
  "lat": 35.945338,
  "lng": 3.284611,
  "wilaya_code": "26",
  "wilaya_name_ar": "المدية",
  "wilaya_name_fr": "Médéa",
  "nid_ar": "430",
  "nid_fr": "122",
  "match_m": 0,
  "source": "patrimoineculturelalgerien.org",
  "name": "Achir",
  "has_virtual_tour": false
 },
 {
  "name_ar": "موقع البنية",
  "name_fr": "Site de Benia",
  "layer": "protected-cultural-property",
  "lat": 35.923576,
  "lng": 3.289032,
  "wilaya_code": "26",
  "wilaya_name_ar": "المدية",
  "wilaya_name_fr": "Médéa",
  "nid_ar": "431",
  "nid_fr": "432",
  "match_m": 0,
  "source": "patrimoineculturelalgerien.org",
  "name": "Site de Benia",
  "has_virtual_tour": false
 },
 {
  "name_ar": "ضريح سيدي عبد القادر بن محمد المكنى سيدي الشيخ",
  "name_fr": "Mausolée de Sidi Abdelkader Ben Mohamed dit Sidi Cheikh",
  "layer": "protected-cultural-property",
  "lat": 32.891639,
  "lng": 0.54525,
  "wilaya_code": "32",
  "wilaya_name_ar": "البيض",
  "wilaya_name_fr": "El Bayadh",
  "nid_ar": "435",
  "nid_fr": null,
  "match_m": null,
  "source": "patrimoineculturelalgerien.org",
  "name": "Mausolée de Sidi Abdelkader Ben Mohamed dit Sidi Cheikh",
  "has_virtual_tour": false
 },
 {
  "name_ar": "المكتبة الرئيسية للمطالعة العمومية \" الدكتور بوبكر بن علي\" لولاية بشار",
  "name_fr": "Bibliothèque principale de lecture publique Docteur Boubekeur Benali – wilaya de Béchar",
  "layer": "library",
  "lat": 31.59272,
  "lng": -2.224475,
  "wilaya_code": "08",
  "wilaya_name_ar": "بشار",
  "wilaya_name_fr": "Bechar",
  "nid_ar": "437",
  "nid_fr": null,
  "match_m": null,
  "source": "patrimoineculturelalgerien.org",
  "name": "Bibliothèque principale de lecture publique Docteur Boubekeur Benali – wilaya de Béchar",
  "has_virtual_tour": false
 },
 {
  "name_ar": "محطة النقش الصخري شبكة الديغم",
  "name_fr": "Station de gravures rupestres de Chebket Edighem",
  "layer": "protected-cultural-property",
  "lat": 33.318824,
  "lng": 0.363383,
  "wilaya_code": "32",
  "wilaya_name_ar": "البيض",
  "wilaya_name_fr": "El Bayadh",
  "nid_ar": "439",
  "nid_fr": null,
  "match_m": null,
  "source": "patrimoineculturelalgerien.org",
  "name": "Station de gravures rupestres de Chebket Edighem",
  "has_virtual_tour": false
 },
 {
  "name_ar": "منارة بن غوث",
  "name_fr": "PHARE BENGUT",
  "layer": "protected-cultural-property",
  "lat": 36.922277,
  "lng": 3.89335,
  "wilaya_code": "35",
  "wilaya_name_ar": "بومرداس",
  "wilaya_name_fr": "Boumerdès",
  "nid_ar": "441",
  "nid_fr": "442",
  "match_m": 0,
  "source": "patrimoineculturelalgerien.org",
  "name": "PHARE BENGUT",
  "has_virtual_tour": false
 },
 {
  "name_ar": "قصر الصفيصيفة العتيق",
  "name_fr": "Ksar antique de Sfissifa",
  "layer": "protected-cultural-property",
  "lat": 32.73092,
  "lng": -0.86986,
  "wilaya_code": "45",
  "wilaya_name_ar": "النعامة",
  "wilaya_name_fr": "Naâma",
  "nid_ar": "443",
  "nid_fr": null,
  "match_m": null,
  "source": "patrimoineculturelalgerien.org",
  "name": "Ksar antique de Sfissifa",
  "has_virtual_tour": false
 },
 {
  "name_ar": "المكتبة الرئيسية للمطالعة العمومية أم البواقي",
  "name_fr": "Bibliothèque principale de lecture publique d'Oum El Bouaghi",
  "layer": "library",
  "lat": 35.869865,
  "lng": 7.108188,
  "wilaya_code": "04",
  "wilaya_name_ar": "أم البواقي",
  "wilaya_name_fr": "Oum El Bouaghi",
  "nid_ar": "445",
  "nid_fr": null,
  "match_m": null,
  "source": "patrimoineculturelalgerien.org",
  "name": "Bibliothèque principale de lecture publique d'Oum El Bouaghi",
  "has_virtual_tour": false
 },
 {
  "name_ar": "المكتبة البلدية بوخليفة السعيد",
  "name_fr": "Bibliothèque communale Boukhlifa Saïd",
  "layer": "library",
  "lat": 36.049077,
  "lng": 4.799361,
  "wilaya_code": "34",
  "wilaya_name_ar": "برج بوعريريج",
  "wilaya_name_fr": "Bordj Bou Arreridj",
  "nid_ar": "446",
  "nid_fr": null,
  "match_m": null,
  "source": "patrimoineculturelalgerien.org",
  "name": "Bibliothèque communale Boukhlifa Saïd",
  "has_virtual_tour": false
 },
 {
  "name_ar": "متحف موقع تيمقاد",
  "name_fr": "Musée du site de Timgad",
  "layer": "museum",
  "lat": 35.484722,
  "lng": 6.468611,
  "wilaya_code": "05",
  "wilaya_name_ar": "باتنة",
  "wilaya_name_fr": "Batna",
  "nid_ar": "447",
  "nid_fr": null,
  "match_m": null,
  "source": "patrimoineculturelalgerien.org",
  "name": "Musée du site de Timgad",
  "has_virtual_tour": false
 },
 {
  "name_ar": "حمام بني قشة",
  "name_fr": "Hammam Beni Guecha",
  "layer": "protected-cultural-property",
  "lat": 36.419575,
  "lng": 5.989239,
  "wilaya_code": "43",
  "wilaya_name_ar": "ميلة",
  "wilaya_name_fr": "Mila",
  "nid_ar": "448",
  "nid_fr": "1430",
  "match_m": 0,
  "source": "patrimoineculturelalgerien.org",
  "name": "Hammam Beni Guecha",
  "has_virtual_tour": false
 },
 {
  "name_ar": "المكتبة البلدية بن محمد البشير",
  "name_fr": "Bibliothèque communale Ben Mohamed El Bachir",
  "layer": "library",
  "lat": 36.072777,
  "lng": 4.619444,
  "wilaya_code": "34",
  "wilaya_name_ar": "برج بوعريريج",
  "wilaya_name_fr": "Bordj Bou Arreridj",
  "nid_ar": "449",
  "nid_fr": null,
  "match_m": null,
  "source": "patrimoineculturelalgerien.org",
  "name": "Bibliothèque communale Ben Mohamed El Bachir",
  "has_virtual_tour": false
 },
 {
  "name_ar": "الموقع الأثري رابيدوم",
  "name_fr": "Rapidum",
  "layer": "protected-cultural-property",
  "lat": 36.136315,
  "lng": 3.417607,
  "wilaya_code": "26",
  "wilaya_name_ar": "المدية",
  "wilaya_name_fr": "Médéa",
  "nid_ar": "450",
  "nid_fr": "451",
  "match_m": 0,
  "source": "patrimoineculturelalgerien.org",
  "name": "Rapidum",
  "has_virtual_tour": false
 },
 {
  "name_ar": "متحف موقع تازولت",
  "name_fr": "Musée du site de Tazoult",
  "layer": "museum",
  "lat": 35.481513,
  "lng": 6.257625,
  "wilaya_code": "05",
  "wilaya_name_ar": "باتنة",
  "wilaya_name_fr": "Batna",
  "nid_ar": "452",
  "nid_fr": null,
  "match_m": null,
  "source": "patrimoineculturelalgerien.org",
  "name": "Musée du site de Tazoult",
  "has_virtual_tour": false
 },
 {
  "name_ar": "مكتبة المطالعة العمومية الشهيد مامنية خليفة بير بوحوش",
  "name_fr": "Bibliothèque de la lecture publique martyr Mamnia Khelifa Bir Bouhouch",
  "layer": "library",
  "lat": 36.009247,
  "lng": 7.426144,
  "wilaya_code": "41",
  "wilaya_name_ar": "سوق أهراس",
  "wilaya_name_fr": "Souk Ahras",
  "nid_ar": "453",
  "nid_fr": "1384",
  "match_m": 0,
  "source": "patrimoineculturelalgerien.org",
  "name": "Bibliothèque de la lecture publique martyr Mamnia Khelifa Bir Bouhouch",
  "has_virtual_tour": false
 },
 {
  "name_ar": "مكتبة المطالعة العمومية الشهيد شنوف عمر سافل الويدان",
  "name_fr": "Bibliothèque de la lecture publique martyr Chenouf Amor Safel Louidene",
  "layer": "library",
  "lat": 35.931207,
  "lng": 7.492119,
  "wilaya_code": "41",
  "wilaya_name_ar": "سوق أهراس",
  "wilaya_name_fr": "Souk Ahras",
  "nid_ar": "455",
  "nid_fr": "1382",
  "match_m": 0,
  "source": "patrimoineculturelalgerien.org",
  "name": "Bibliothèque de la lecture publique martyr Chenouf Amor Safel Louidene",
  "has_virtual_tour": false
 },
 {
  "name_ar": "ابـار أغـــلاد",
  "name_fr": "Les puits d' Aghlad",
  "layer": "protected-cultural-property",
  "lat": 35.955081,
  "lng": 6.179697,
  "wilaya_code": "43",
  "wilaya_name_ar": "ميلة",
  "wilaya_name_fr": "Mila",
  "nid_ar": "458",
  "nid_fr": "1467",
  "match_m": 0,
  "source": "patrimoineculturelalgerien.org",
  "name": "Les puits d' Aghlad",
  "has_virtual_tour": false
 },
 {
  "name_ar": "المكتبة الرئيسية للمطالعة العمومية لولاية البيض",
  "name_fr": "Bibliothèque principale de lecture publique de la wilaya d'El Bayadh",
  "layer": "library",
  "lat": 33.6705,
  "lng": 1.025417,
  "wilaya_code": "32",
  "wilaya_name_ar": "البيض",
  "wilaya_name_fr": "El Bayadh",
  "nid_ar": "459",
  "nid_fr": null,
  "match_m": null,
  "source": "patrimoineculturelalgerien.org",
  "name": "Bibliothèque principale de lecture publique de la wilaya d'El Bayadh",
  "has_virtual_tour": false
 },
 {
  "name_ar": "مكتبة المطالعة العمومية الشهيد مرايحية عثمان ام العظايم",
  "name_fr": "Bibliothèque de la lecture publique martyr Meraihia Otmane Om Ladhaim",
  "layer": "library",
  "lat": 36.026499,
  "lng": 7.606273,
  "wilaya_code": "41",
  "wilaya_name_ar": "سوق أهراس",
  "wilaya_name_fr": "Souk Ahras",
  "nid_ar": "460",
  "nid_fr": "1374",
  "match_m": 0,
  "source": "patrimoineculturelalgerien.org",
  "name": "Bibliothèque de la lecture publique martyr Meraihia Otmane Om Ladhaim",
  "has_virtual_tour": false
 },
 {
  "name_ar": "مكتبة المطالعة العمومية الشهيد بعطوش ليتيم واد كبريت",
  "name_fr": "Bibliothèque de la lecture publique martyr Batouch Litim Oued Kebrit",
  "layer": "library",
  "lat": 35.923373,
  "lng": 7.917689,
  "wilaya_code": "41",
  "wilaya_name_ar": "سوق أهراس",
  "wilaya_name_fr": "Souk Ahras",
  "nid_ar": "461",
  "nid_fr": "1381",
  "match_m": 0,
  "source": "patrimoineculturelalgerien.org",
  "name": "Bibliothèque de la lecture publique martyr Batouch Litim Oued Kebrit",
  "has_virtual_tour": false
 },
 {
  "name_ar": "تمثال ملو",
  "name_fr": "La statue de M'lou",
  "layer": "protected-cultural-property",
  "lat": 36.450172,
  "lng": 6.271353,
  "wilaya_code": "43",
  "wilaya_name_ar": "ميلة",
  "wilaya_name_fr": "Mila",
  "nid_ar": "462",
  "nid_fr": "1468",
  "match_m": 0,
  "source": "patrimoineculturelalgerien.org",
  "name": "La statue de M'lou",
  "has_virtual_tour": false
 },
 {
  "name_ar": "مكتبة المطالعة العمومية ونزة",
  "name_fr": "Bibliothèque de lecture publique d'El Ouenza",
  "layer": "library",
  "lat": 35.955927,
  "lng": 8.141073,
  "wilaya_code": "12",
  "wilaya_name_ar": "تبسة",
  "wilaya_name_fr": "Tébessa",
  "nid_ar": "464",
  "nid_fr": null,
  "match_m": null,
  "source": "patrimoineculturelalgerien.org",
  "name": "Bibliothèque de lecture publique d'El Ouenza",
  "has_virtual_tour": false
 },
 {
  "name_ar": "مكتبة المطالعة العمومية الشهيد شنايزية عمارة الدريعة",
  "name_fr": "Bibliothèque de la lecture publique martyr Chenairia Amara Draia",
  "layer": "library",
  "lat": 36.118838,
  "lng": 7.879163,
  "wilaya_code": "41",
  "wilaya_name_ar": "سوق أهراس",
  "wilaya_name_fr": "Souk Ahras",
  "nid_ar": "466",
  "nid_fr": "1379",
  "match_m": 0,
  "source": "patrimoineculturelalgerien.org",
  "name": "Bibliothèque de la lecture publique martyr Chenairia Amara Draia",
  "has_virtual_tour": false
 },
 {
  "name_ar": "مكتبة المطالعة العمومية منايلي احمد الصالح تاورة",
  "name_fr": "Bibliothèque de la lecture publique martyr Menaili Ahmed Esaleh Taoura",
  "layer": "library",
  "lat": 36.166187,
  "lng": 8.03266,
  "wilaya_code": "41",
  "wilaya_name_ar": "سوق أهراس",
  "wilaya_name_fr": "Souk Ahras",
  "nid_ar": "467",
  "nid_fr": "1375",
  "match_m": 0,
  "source": "patrimoineculturelalgerien.org",
  "name": "Bibliothèque de la lecture publique martyr Menaili Ahmed Esaleh Taoura",
  "has_virtual_tour": false
 },
 {
  "name_ar": "المكتبة الرئيسية للمطالعة العمومية ملحقة العقلة",
  "name_fr": "Bibliothèque principale de lecture publique – annexe d'El Ogla",
  "layer": "library",
  "lat": 35.187441,
  "lng": 7.473032,
  "wilaya_code": "12",
  "wilaya_name_ar": "تبسة",
  "wilaya_name_fr": "Tébessa",
  "nid_ar": "468",
  "nid_fr": null,
  "match_m": null,
  "source": "patrimoineculturelalgerien.org",
  "name": "Bibliothèque principale de lecture publique – annexe d'El Ogla",
  "has_virtual_tour": false
 },
 {
  "name_ar": "قصر مغرار التحتاني ( قلعة الشيخ بوعمامة )",
  "name_fr": "Ksar de Moghrar Tahtani (citadelle de Cheikh Bouamama)",
  "layer": "protected-cultural-property",
  "lat": 32.49338,
  "lng": -0.46712,
  "wilaya_code": "45",
  "wilaya_name_ar": "النعامة",
  "wilaya_name_fr": "Naâma",
  "nid_ar": "469",
  "nid_fr": null,
  "match_m": null,
  "source": "patrimoineculturelalgerien.org",
  "name": "Ksar de Moghrar Tahtani (citadelle de Cheikh Bouamama)",
  "has_virtual_tour": false
 },
 {
  "name_ar": "مكتبة المطالعة العمومية الشهيد عثامنية علي سيدي فرج",
  "name_fr": "Bibliothèque de la lecture publique martyr Atamnia Ali Sidi Feradj",
  "layer": "library",
  "lat": 36.152367,
  "lng": 8.198398,
  "wilaya_code": "41",
  "wilaya_name_ar": "سوق أهراس",
  "wilaya_name_fr": "Souk Ahras",
  "nid_ar": "470",
  "nid_fr": "1373",
  "match_m": 0,
  "source": "patrimoineculturelalgerien.org",
  "name": "Bibliothèque de la lecture publique martyr Atamnia Ali Sidi Feradj",
  "has_virtual_tour": false
 },
 {
  "name_ar": "مكتبة المطالعة العمومية الشهيد قماقمة لحبيب مداوروش",
  "name_fr": "Bibliothèque de la lecture publique martyr Guemaguema Lehbib Medaourouch",
  "layer": "library",
  "lat": 36.082195,
  "lng": 7.823241,
  "wilaya_code": "41",
  "wilaya_name_ar": "سوق أهراس",
  "wilaya_name_fr": "Souk Ahras",
  "nid_ar": "473",
  "nid_fr": "1371",
  "match_m": 0,
  "source": "patrimoineculturelalgerien.org",
  "name": "Bibliothèque de la lecture publique martyr Guemaguema Lehbib Medaourouch",
  "has_virtual_tour": false
 },
 {
  "name_ar": "الكلومتر الثالث جيجل",
  "name_fr": "Bibliothèque du 3e Kilomètre – Jijel",
  "layer": "library",
  "lat": 36.802306,
  "lng": 5.790917,
  "wilaya_code": "18",
  "wilaya_name_ar": "جيجل",
  "wilaya_name_fr": "Jijel",
  "nid_ar": "475",
  "nid_fr": null,
  "match_m": null,
  "source": "patrimoineculturelalgerien.org",
  "name": "Bibliothèque du 3e Kilomètre – Jijel",
  "has_virtual_tour": false
 },
 {
  "name_ar": "المكتبة الرئيسية للمطالعة العمومية \"بركات سليمان\" عنابة",
  "name_fr": "Bibliothèque Centrale de Annaba",
  "layer": "library",
  "lat": 36.902692,
  "lng": 7.758492,
  "wilaya_code": "23",
  "wilaya_name_ar": "عنابة",
  "wilaya_name_fr": "Annaba",
  "nid_ar": "476",
  "nid_fr": "91",
  "match_m": 5,
  "source": "patrimoineculturelalgerien.org",
  "name": "Bibliothèque Centrale de Annaba",
  "has_virtual_tour": false
 },
 {
  "name_ar": "حمام الصالحين",
  "name_fr": "Hammam Essalihine (Aquae Flavianae)",
  "layer": "protected-cultural-property",
  "lat": 35.440528,
  "lng": 7.084742,
  "wilaya_code": "40",
  "wilaya_name_ar": "خنشلة",
  "wilaya_name_fr": "Khenchela",
  "nid_ar": "478",
  "nid_fr": "550",
  "match_m": 34,
  "source": "patrimoineculturelalgerien.org",
  "name": "Hammam Essalihine (Aquae Flavianae)",
  "has_virtual_tour": false
 },
 {
  "name_ar": "المكتبة الرئيسية للمطالعة العمومية \"عبد الحميد بن باديس\"",
  "name_fr": "Bibliothèque principale de lecture publique Abdelhamid Ben Badis",
  "layer": "library",
  "lat": 33.270297,
  "lng": -0.31795,
  "wilaya_code": "45",
  "wilaya_name_ar": "النعامة",
  "wilaya_name_fr": "Naâma",
  "nid_ar": "479",
  "nid_fr": null,
  "match_m": null,
  "source": "patrimoineculturelalgerien.org",
  "name": "Bibliothèque principale de lecture publique Abdelhamid Ben Badis",
  "has_virtual_tour": false
 },
 {
  "name_ar": "قصر مغرار الفوقاني",
  "name_fr": "Ksar de Moghrar Foukani",
  "layer": "protected-cultural-property",
  "lat": 32.51644,
  "lng": -0.58741,
  "wilaya_code": "45",
  "wilaya_name_ar": "النعامة",
  "wilaya_name_fr": "Naâma",
  "nid_ar": "480",
  "nid_fr": null,
  "match_m": null,
  "source": "patrimoineculturelalgerien.org",
  "name": "Ksar de Moghrar Foukani",
  "has_virtual_tour": false
 },
 {
  "name_ar": "مكتبة المطالعة العمومية إدلس",
  "name_fr": "Bibliothèque de lecture publique d'Idlès",
  "layer": "library",
  "lat": 23.816729,
  "lng": 5.933128,
  "wilaya_code": "11",
  "wilaya_name_ar": "تمنراست",
  "wilaya_name_fr": "Tamanrasset",
  "nid_ar": "482",
  "nid_fr": null,
  "match_m": null,
  "source": "patrimoineculturelalgerien.org",
  "name": "Bibliothèque de lecture publique d'Idlès",
  "has_virtual_tour": false
 },
 {
  "name_ar": "ضريح سيدياس",
  "name_fr": "Mausolée Cédais (KSAR DJAZIA)",
  "layer": "protected-cultural-property",
  "lat": 35.322257,
  "lng": 7.234933,
  "wilaya_code": "40",
  "wilaya_name_ar": "خنشلة",
  "wilaya_name_fr": "Khenchela",
  "nid_ar": "484",
  "nid_fr": "1350",
  "match_m": 0,
  "source": "patrimoineculturelalgerien.org",
  "name": "Mausolée Cédais (KSAR DJAZIA)",
  "has_virtual_tour": false
 },
 {
  "name_ar": "مكتبة المطالعة العمومية بالمشرية",
  "name_fr": "Bibliothèque de lecture publique de Mécheria",
  "layer": "protected-cultural-property",
  "lat": 33.546444,
  "lng": -0.27239,
  "wilaya_code": "45",
  "wilaya_name_ar": "النعامة",
  "wilaya_name_fr": "Naâma",
  "nid_ar": "485",
  "nid_fr": null,
  "match_m": null,
  "source": "patrimoineculturelalgerien.org",
  "name": "Bibliothèque de lecture publique de Mécheria",
  "has_virtual_tour": false
 },
 {
  "name_ar": "الموقع الأثري بوتخماتن",
  "name_fr": "Site archéologique de Boutakhmaten",
  "layer": "protected-cultural-property",
  "lat": 35.945597,
  "lng": 6.187664,
  "wilaya_code": "43",
  "wilaya_name_ar": "ميلة",
  "wilaya_name_fr": "Mila",
  "nid_ar": "488",
  "nid_fr": "1470",
  "match_m": 0,
  "source": "patrimoineculturelalgerien.org",
  "name": "Site archéologique de Boutakhmaten",
  "has_virtual_tour": false
 },
 {
  "name_ar": "مكتبة المطالعة العمومية الجزار",
  "name_fr": "Bibliothèque de lecture publique d'El Djezzar",
  "layer": "library",
  "lat": 35.308722,
  "lng": 5.264849,
  "wilaya_code": "05",
  "wilaya_name_ar": "باتنة",
  "wilaya_name_fr": "Batna",
  "nid_ar": "489",
  "nid_fr": null,
  "match_m": null,
  "source": "patrimoineculturelalgerien.org",
  "name": "Bibliothèque de lecture publique d'El Djezzar",
  "has_virtual_tour": false
 },
 {
  "name_ar": "المكتبة الرئيسية للمطالعة العمومية لولاية تبسة",
  "name_fr": "Bibliothèque principale de lecture publique de la wilaya de Tébessa",
  "layer": "library",
  "lat": 35.424559,
  "lng": 8.060949,
  "wilaya_code": "12",
  "wilaya_name_ar": "تبسة",
  "wilaya_name_fr": "Tébessa",
  "nid_ar": "490",
  "nid_fr": null,
  "match_m": null,
  "source": "patrimoineculturelalgerien.org",
  "name": "Bibliothèque principale de lecture publique de la wilaya de Tébessa",
  "has_virtual_tour": false
 },
 {
  "name_ar": "مكتبة المطالعة العمومية الشمرة",
  "name_fr": "Bibliothèque de lecture publique de Chemora",
  "layer": "library",
  "lat": 35.665471,
  "lng": 6.642762,
  "wilaya_code": "05",
  "wilaya_name_ar": "باتنة",
  "wilaya_name_fr": "Batna",
  "nid_ar": "492",
  "nid_fr": null,
  "match_m": null,
  "source": "patrimoineculturelalgerien.org",
  "name": "Bibliothèque de lecture publique de Chemora",
  "has_virtual_tour": false
 },
 {
  "name_ar": "مكتبة المطالعة العمومية أمدوكال",
  "name_fr": "Bibliothèque de lecture publique d'Amdoukal",
  "layer": "library",
  "lat": 35.120375,
  "lng": 5.177497,
  "wilaya_code": "05",
  "wilaya_name_ar": "باتنة",
  "wilaya_name_fr": "Batna",
  "nid_ar": "494",
  "nid_fr": null,
  "match_m": null,
  "source": "patrimoineculturelalgerien.org",
  "name": "Bibliothèque de lecture publique d'Amdoukal",
  "has_virtual_tour": false
 },