[
  {
    "name_fr": "Ain Ben Beida",
    "name_ar": "عين بن بيضاء",
    "wilaya_code": 24,
    "daira": "Bouchegouf",
    "postal_code": "24018",
    "latitude": 36.61667,
    "longitude": 7.7,
    "code_commune": 2414
  },
  {
    "name_fr": "Ain Larbi",
    "name_ar": "عين العربي",
    "wilaya_code": 24,
    "daira": "Houari Boumédiène",
    "postal_code": "24029",
    "latitude": 36.265833,
    "longitude": 7.3962,
    "code_commune": 2423
  },
  {
    "name_fr": "Ain Makhlouf",
    "name_ar": "عين مخلوف",
    "wilaya_code": 24,
    "daira": "Aïn Makhlouf",
    "postal_code": "24009",
    "latitude": 36.243333,
    "longitude": 7.250833,
    "code_commune": 2413
  },
  {
    "name_fr": "Ain Regada",
    "name_ar": "عين رقادة",
    "wilaya_code": 24,
    "daira": "Aïn Makhlouf",
    "postal_code": "24011",
    "latitude": 36.259444,
    "longitude": 7.0739,
    "code_commune": 2432
  },
  {
    "name_fr": "Ain Sandel",
    "name_ar": "عين صندل",
    "wilaya_code": 24,
    "daira": "Aïn Makhlouf",
    "postal_code": "24010",
    "latitude": 36.24472222,
    "longitude": 7.5125,
    "code_commune": 2407
  },
  {
    "name_fr": "Belkheir",
    "name_ar": "بلخير",
    "wilaya_code": 24,
    "daira": "Guelma",
    "postal_code": "24001",
    "latitude": 36.4587897,
    "longitude": 7.479,
    "code_commune": 2410
  },
  {
    "name_fr": "Bendjarah",
    "name_ar": "بن جراح",
    "wilaya_code": 24,
    "daira": "Guelma",
    "postal_code": "24002",
    "latitude": 36.43222222,
    "longitude": 7.420833,
    "code_commune": 2411
  },
  {
    "name_fr": "Beni Mezline",
    "name_ar": "بني مزلين",
    "wilaya_code": 24,
    "daira": "Houari Boumédiène",
    "postal_code": "24030",
    "latitude": 36.480833,
    "longitude": 7.6031,
    "code_commune": 2416
  },
  {
    "name_fr": "Bordj Sabath",
    "name_ar": "برج صباط",
    "wilaya_code": 24,
    "daira": "Hammam N'Bails",
    "postal_code": "24024",
    "latitude": 36.402899,
    "longitude": 7.0484999,
    "code_commune": 2421
  },
  {
    "name_fr": "Bou Hachana",
    "name_ar": "بوحشانة",
    "wilaya_code": 24,
    "daira": "Guelaât Bou Sbaâ",
    "postal_code": "24027",
    "latitude": 36.306868,
    "longitude": 7.5078039,
    "code_commune": 2417
  },
  {
    "name_fr": "Bou Hamdane",
    "name_ar": "بوحمدان",
    "wilaya_code": 24,
    "daira": "Hammam Debagh",
    "postal_code": "24031",
    "latitude": 36.46277,
    "longitude": 7.116667,
    "code_commune": 2412
  },
  {
    "name_fr": "Bouati Mahmoud",
    "name_ar": "بوعاتي محمود",
    "wilaya_code": 24,
    "daira": "Héliopolis",
    "postal_code": "24006",
    "latitude": 36.583333,
    "longitude": 7.333333,
    "code_commune": 2403
  },
  {
    "name_fr": "Bouchegouf",
    "name_ar": "بوشقوف",
    "wilaya_code": 24,
    "daira": "Bouchegouf",
    "postal_code": "24016",
    "latitude": 36.4719271,
    "longitude": 7.72972,
    "code_commune": 2425
  },
  {
    "name_fr": "Boumahra Ahmed",
    "name_ar": "بومهرة أحمد",
    "wilaya_code": 24,
    "daira": "Guelma",
    "postal_code": "24003",
    "latitude": 36.458007,
    "longitude": 7.51389,
    "code_commune": 2431
  },
  {
    "name_fr": "Dahouara",
    "name_ar": "الدهوارة",
    "wilaya_code": 24,
    "daira": "Hammam Debagh",
    "postal_code": "24021",
    "latitude": 36.351667,
    "longitude": 7.732778,
    "code_commune": 2409
  },
  {
    "name_fr": "Djeballah Khemissi",
    "name_ar": "جبالة الخميسي",
    "wilaya_code": 24,
    "daira": "Oued Zenati",
    "postal_code": "24032",
    "latitude": 36.5667,
    "longitude": 7.633333,
    "code_commune": 2434
  },
  {
    "name_fr": "El Fedjoudj",
    "name_ar": "الفجوج",
    "wilaya_code": 24,
    "daira": "Héliopolis",
    "postal_code": "24005",
    "latitude": 36.5048237,
    "longitude": 7.399722,
    "code_commune": 2420
  },
  {
    "name_fr": "Guelaat Bou Sbaa",
    "name_ar": "قلعة بوصبع",
    "wilaya_code": 24,
    "daira": "Guelaât Bou Sbaâ",
    "postal_code": "24025",
    "latitude": 36.54565,
    "longitude": 7.47333,
    "code_commune": 2418
  },
  {
    "name_fr": "Guelma",
    "name_ar": "قالمة",
    "wilaya_code": 24,
    "daira": "Guelma",
    "postal_code": "24000",
    "latitude": 36.466,
    "longitude": 7.4206,
    "code_commune": 2401
  },
  {
    "name_fr": "Hammam Debagh",
    "name_ar": "حمام دباغ",
    "wilaya_code": 24,
    "daira": "Hammam Debagh",
    "postal_code": "24019",
    "latitude": 36.461111,
    "longitude": 7.266667,
    "code_commune": 2419
  },
  {
    "name_fr": "Hammam N'bail",
    "name_ar": "حمام النبايل",
    "wilaya_code": 24,
    "daira": "Hammam N'Bails",
    "postal_code": "24023",
    "latitude": 36.4648323,
    "longitude": 7.6436,
    "code_commune": 2422
  },
  {
    "name_fr": "Heliopolis",
    "name_ar": "هيليوبوليس",
    "wilaya_code": 24,
    "daira": "Héliopolis",
    "postal_code": "24004",
    "latitude": 36.50361,
    "longitude": 7.4447,
    "code_commune": 2426
  },
  {
    "name_fr": "Houari Boumedienne",
    "name_ar": "هواري بومدين",
    "wilaya_code": 24,
    "daira": "Houari Boumédiène",
    "postal_code": "24028",
    "latitude": 36.4154,
    "longitude": 7.28611,
    "code_commune": 2427
  },
  {
    "name_fr": "Khezaras",
    "name_ar": "لخزارة",
    "wilaya_code": 24,
    "daira": "Khezarra",
    "postal_code": "24013",
    "latitude": 36.369444,
    "longitude": 7.529167,
    "code_commune": 2415
  },
  {
    "name_fr": "Medjez Amar",
    "name_ar": "مجاز عمار",
    "wilaya_code": 24,
    "daira": "Bouchegouf",
    "postal_code": "24017",
    "latitude": 36.4454,
    "longitude": 7.310556,
    "code_commune": 2424
  },
  {
    "name_fr": "Medjez Sfa",
    "name_ar": "مجاز الصفاء",
    "wilaya_code": 24,
    "daira": "Guelaât Bou Sbaâ",
    "postal_code": "24026",
    "latitude": 36.43337,
    "longitude": 7.7824225,
    "code_commune": 2430
  },
  {
    "name_fr": "Nechmaya",
    "name_ar": "نشماية",
    "wilaya_code": 24,
    "daira": "Khezarra",
    "postal_code": "24014",
    "latitude": 36.611389,
    "longitude": 7.513333,
    "code_commune": 2402
  },
  {
    "name_fr": "Oued Cheham",
    "name_ar": "وادي الشحم",
    "wilaya_code": 24,
    "daira": "Oued Zenati",
    "postal_code": "24033",
    "latitude": 36.38333,
    "longitude": 7.76278,
    "code_commune": 2433
  },
  {
    "name_fr": "Oued Ferragha",
    "name_ar": "وادي فراغة",
    "wilaya_code": 24,
    "daira": "Hammam Debagh",
    "postal_code": "24020",
    "latitude": 36.555833,
    "longitude": 7.713055,
    "code_commune": 2406
  },
  {
    "name_fr": "Oued Zenati",
    "name_ar": "وادي الزناتي",
    "wilaya_code": 24,
    "daira": "Oued Zenati",
    "postal_code": "24007",
    "latitude": 36.3153,
    "longitude": 7.163889,
    "code_commune": 2404
  },
  {
    "name_fr": "Ras El Agba",
    "name_ar": "رأس العقبة",
    "wilaya_code": 24,
    "daira": "Oued Zenati",
    "postal_code": "24008",
    "latitude": 36.372949,
    "longitude": 7.222816,
    "code_commune": 2408
  },
  {
    "name_fr": "Roknia",
    "name_ar": "الركنية",
    "wilaya_code": 24,
    "daira": "Hammam Debagh",
    "postal_code": "24022",
    "latitude": 36.5481,
    "longitude": 7.22861,
    "code_commune": 2428
  },
  {
    "name_fr": "Sellaoua Announa",
    "name_ar": "سلاوة عنونة",
    "wilaya_code": 24,
    "daira": "Khezarra",
    "postal_code": "24015",
    "latitude": 36.386944,
    "longitude": 7.250556,
    "code_commune": 2429
  },
  {
    "name_fr": "Tamlouka",
    "name_ar": "تاملوكة",
    "wilaya_code": 24,
    "daira": "Aïn Makhlouf",
    "postal_code": "24012",
    "latitude": 36.15,
    "longitude": 7.14154,
    "code_commune": 2405
  },
  {
    "name_fr": "Ain Abid",
    "name_ar": "عين عبيد",
    "wilaya_code": 25,
    "daira": "Aïn Abid",
    "postal_code": "25200",
    "latitude": 36.2325,
    "longitude": 6.944046,
    "code_commune": 2507
  },
  {
    "name_fr": "Ain Smara",
    "name_ar": "عين السمارة",
    "wilaya_code": 25,
    "daira": "Aïn Smara",
    "postal_code": "25140",
    "latitude": 36.2675,
    "longitude": 6.50147,
    "code_commune": 2510
  },
  {
    "name_fr": "Ben Badis",
    "name_ar": "أبن باديس الهرية",
    "wilaya_code": 25,
    "daira": "Ben Badis",
    "postal_code": "22005",
    "latitude": 34.95234,
    "longitude": -0.91609,
    "code_commune": 2245
  },
  {
    "name_fr": "Beni Hamidane",
    "name_ar": "بني حميدان",
    "wilaya_code": 25,
    "daira": "Zighoud Youcef",
    "postal_code": "25007",
    "latitude": 36.505561,
    "longitude": 6.54972221,
    "code_commune": 2508
  },
  {
    "name_fr": "Constantine",
    "name_ar": "قسنطينة",
    "wilaya_code": 25,
    "daira": "Constantine",
    "postal_code": "25000",
    "latitude": 36.365,
    "longitude": 6.642433,
    "code_commune": 2501
  },
  {
    "name_fr": "Didouche Mourad",
    "name_ar": "ديدوش مراد",
    "wilaya_code": 25,
    "daira": "Hamma Bouziane",
    "postal_code": "25009",
    "latitude": 36.4525,
    "longitude": 6.63639,
    "code_commune": 2505
  },
  {
    "name_fr": "El Khroub",
    "name_ar": "الخروب",
    "wilaya_code": 25,
    "daira": "El Khroub",
    "postal_code": "25100",
    "latitude": 36.26333,
    "longitude": 6.69361,
    "code_commune": 2506
  },
  {
    "name_fr": "Hamma Bouziane",
    "name_ar": "حامة بوزيان",
    "wilaya_code": 25,
    "daira": "Hamma Bouziane",
    "postal_code": "25008",
    "latitude": 36.41205,
    "longitude": 6.59603,
    "code_commune": 2502
  },
  {
    "name_fr": "Ibn Ziad",
    "name_ar": "ابن زياد",
    "wilaya_code": 25,
    "daira": "Ibn Ziad",
    "postal_code": "25010",
    "latitude": 36.379167,
    "longitude": 6.4667,
    "code_commune": 2512
  },
  {
    "name_fr": "Messaoud Boudjeriou",
    "name_ar": "بوجريو مسعود",
    "wilaya_code": 25,
    "daira": "Ibn Ziad",
    "postal_code": "25011",
    "latitude": 36.424444,
    "longitude": 6.4725,
    "code_commune": 2511
  },
  {
    "name_fr": "Ouled Rahmoun",
    "name_ar": "أولاد رحمون",
    "wilaya_code": 25,
    "daira": "El Khroub",
    "postal_code": "25002",
    "latitude": 36.17148,
    "longitude": 6.6933,
    "code_commune": 2509
  },
  {
    "name_fr": "Zighoud Youcef",
    "name_ar": "زيغود يوسف",
    "wilaya_code": 25,
    "daira": "Zighoud Youcef",
    "postal_code": "25300",
    "latitude": 36.53307,
    "longitude": 6.71238,
    "code_commune": 2504
  },
  {
    "name_fr": "Aissaouia",
    "name_ar": "العيساوية",
    "wilaya_code": 26,
    "daira": "Tablat",
    "postal_code": "26008",
    "latitude": 36.419167,
    "longitude": 3.216111,
    "code_commune": 2605
  },
  {
    "name_fr": "Baata",
    "name_ar": "بعطة",
    "wilaya_code": 26,
    "daira": "El Omaria",
    "postal_code": "26029",
    "latitude": 36.346389,
    "longitude": 3.110277,
    "code_commune": 2624
  },
  {
    "name_fr": "Ben Chicao",
    "name_ar": "بن شكاو",
    "wilaya_code": 26,
    "daira": "Ouzera",
    "postal_code": "26013",
    "latitude": 36.1967899,
    "longitude": 2.8499,
    "code_commune": 2630
  },
  {
    "name_fr": "Beni Slimane",
    "name_ar": "بني سليمان",
    "wilaya_code": 26,
    "daira": "Beni Slimane",
    "postal_code": "26400",
    "latitude": 36.22703,
    "longitude": 3.30596,
    "code_commune": 2646
  },
  {
    "name_fr": "Berrouaghia",
    "name_ar": "البرواقية",
    "wilaya_code": 26,
    "daira": "Berrouaghia",
    "postal_code": "26200",
    "latitude": 36.13516,
    "longitude": 2.911,
    "code_commune": 2647
  },
  {
    "name_fr": "Bir Ben Laabed",
    "name_ar": "بئر بن عابد",
    "wilaya_code": 26,
    "daira": "El Guelb El Kebir",
    "postal_code": "26033",
    "latitude": 36.0003,
    "longitude": 3.394722,
    "code_commune": 2656
  },
  {
    "name_fr": "Bouaichoune",
    "name_ar": "بوعيشون",
    "wilaya_code": 26,
    "daira": "Si Mahdjoub",
    "postal_code": "26039",
    "latitude": 36.1625,
    "longitude": 2.6487087,
    "code_commune": 2659
  },
  {
    "name_fr": "Bouchrahil",
    "name_ar": "بوشراحيل",
    "wilaya_code": 26,
    "daira": "Sidi Naâmane",
    "postal_code": "26042",
    "latitude": 36.252778,
    "longitude": 3.15861,
    "code_commune": 2621
  },
  {
    "name_fr": "Bouskene",
    "name_ar": "بوسكن",
    "wilaya_code": 26,
    "daira": "Beni Slimane",
    "postal_code": "26024",
    "latitude": 36.191111,
    "longitude": 3.2361,
    "code_commune": 2619
  },
  {
    "name_fr": "Djouab",
    "name_ar": "جواب",
    "wilaya_code": 26,
    "daira": "Souagui",
    "postal_code": "26019",
    "latitude": 36.13821,
    "longitude": 3.42701,
    "code_commune": 2637
  },
  {
    "name_fr": "Draa Esmar",
    "name_ar": "ذراع السمار",
    "wilaya_code": 26,
    "daira": "Médéa",
    "postal_code": "26001",
    "latitude": 36.27354,
    "longitude": 2.71695,
    "code_commune": 2654
  },
  {
    "name_fr": "El Azizia",
    "name_ar": "العزيزية",
    "wilaya_code": 26,
    "daira": "El Azizia",
    "postal_code": "26025",
    "latitude": 36.28656,
    "longitude": 3.49412,
    "code_commune": 2636
  },
  {
    "name_fr": "El Guelbelkebir",
    "name_ar": "القلب الكبير",
    "wilaya_code": 26,
    "daira": "El Guelb El Kebir",
    "postal_code": "26031",
    "latitude": 36.25499914,
    "longitude": 3.416579076,
    "code_commune": 2609
  },
  {
    "name_fr": "El Hamdania",
    "name_ar": "الحمدانية",
    "wilaya_code": 26,
    "daira": "Ouzera",
    "postal_code": "26012",
    "latitude": 36.3369617,
    "longitude": 2.8776638,
    "code_commune": 2616
  },
  {
    "name_fr": "El Haoudane",
    "name_ar": "الحوضان",
    "wilaya_code": 26,
    "daira": "Ouzera",
    "postal_code": "26012",
    "latitude": 36.3369617,
    "longitude": 2.8776638,
    "code_commune": 2616
  },
  {
    "name_fr": "El Omaria",
    "name_ar": "العمارية",
    "wilaya_code": 26,
    "daira": "El Omaria",
    "postal_code": "26028",
    "latitude": 36.266667,
    "longitude": 3.03333,
    "code_commune": 2607
  },
  {
    "name_fr": "Hannacha",
    "name_ar": "حناشة",
    "wilaya_code": 26,
    "daira": "Ouamri",
    "postal_code": "26036",
    "latitude": 36.19112,
    "longitude": 3.52556,
    "code_commune": 2660
  },
  {
    "name_fr": "Khams Djouamaa",
    "name_ar": "خمس جوامع",
    "wilaya_code": 26,
    "daira": "Sidi Naâmane",
    "postal_code": "26041",
    "latitude": 36.1914,
    "longitude": 3.2367,
    "code_commune": 2663
  },
  {
    "name_fr": "Maghraoua",
    "name_ar": "مغراوة",
    "wilaya_code": 26,
    "daira": "El Azizia",
    "postal_code": "26026",
    "latitude": 36.3512874,
    "longitude": 3.535277,
    "code_commune": 2639
  },
  {
    "name_fr": "Medea",
    "name_ar": "المدية",
    "wilaya_code": 26,
    "daira": "Médéa",
    "postal_code": "26000",
    "latitude": 36.2675,
    "longitude": 2.75,
    "code_commune": 2601
  },
  {
    "name_fr": "Medjebar",
    "name_ar": "مجبر",
    "wilaya_code": 26,
    "daira": "Seghouane",
    "postal_code": "26016",
    "latitude": 35.950556,
    "longitude": 3.46166,
    "code_commune": 2662
  },
  {
    "name_fr": "Mezerana",
    "name_ar": "مزغنة",
    "wilaya_code": 26,
    "daira": "Tablat",
    "postal_code": "26009",
    "latitude": 36.3609993,
    "longitude": 3.3580828,
    "code_commune": 2611
  },
  {
    "name_fr": "Mihoub",
    "name_ar": "ميهوب",
    "wilaya_code": 26,
    "daira": "El Azizia",
    "postal_code": "26027",
    "latitude": 36.3527,
    "longitude": 3.475833,
    "code_commune": 2650
  },
  {
    "name_fr": "Ouamri",
    "name_ar": "عوامري",
    "wilaya_code": 26,
    "daira": "Ouamri",
    "postal_code": "26034",
    "latitude": 36.2333,
    "longitude": 2.566667,
    "code_commune": 2643
  },
  {
    "name_fr": "Oued Harbil",
    "name_ar": "وادي حربيل",
    "wilaya_code": 26,
    "daira": "Ouamri",
    "postal_code": "26035",
    "latitude": 36.233333,
    "longitude": 2.6333,
    "code_commune": 2629
  },
  {
    "name_fr": "Ouled Bouachra",
    "name_ar": "أولاد بوعشرة",
    "wilaya_code": 26,
    "daira": "Si Mahdjoub",
    "postal_code": "26038",
    "latitude": 36.160382,
    "longitude": 2.722206,
    "code_commune": 2627
  },
  {
    "name_fr": "Ouled Brahim",
    "name_ar": "أولاد إبراهيم",
    "wilaya_code": 26,
    "daira": "El Omaria",
    "postal_code": "26030",
    "latitude": 36.244444,
    "longitude": 2.933611,
    "code_commune": 2612
  },
  {
    "name_fr": "Ouled Deid",
    "name_ar": "أولاد دايد",
    "wilaya_code": 26,
    "daira": "Berrouaghia",
    "postal_code": "26005",
    "latitude": 36.112778,
    "longitude": 3.5167,
    "code_commune": 2606
  },
  {
    "name_fr": "Ouzera",
    "name_ar": "وزرة",
    "wilaya_code": 26,
    "daira": "Ouzera",
    "postal_code": "26010",
    "latitude": 36.25,
    "longitude": 3.0551,
    "code_commune": 2602
  },
  {
    "name_fr": "Rebaia",
    "name_ar": "الربعية",
    "wilaya_code": 26,
    "daira": "Berrouaghia",
    "postal_code": "26004",
    "latitude": 36.02783,
    "longitude": 3.138055,
    "code_commune": 2620
  },
  {
    "name_fr": "Sedraya",
    "name_ar": "سدراية",
    "wilaya_code": 26,
    "daira": "El Guelb El Kebir",
    "postal_code": "26032",
    "latitude": 36.24294024,
    "longitude": 3.529038536,
    "code_commune": 2661
  },
  {
    "name_fr": "Seghouane",
    "name_ar": "سغوان",
    "wilaya_code": 26,
    "daira": "Seghouane",
    "postal_code": "26014",
    "latitude": 36.19112,
    "longitude": 2.9,
    "code_commune": 2648
  },
  {
    "name_fr": "Si Mahdjoub",
    "name_ar": "سي المحجوب",
    "wilaya_code": 26,
    "daira": "Si Mahdjoub",
    "postal_code": "26037",
    "latitude": 36.160382,
    "longitude": 2.722206,
    "code_commune": 2644
  },
  {
    "name_fr": "Sidi Naamane",
    "name_ar": "سيدي نعمان",
    "wilaya_code": 26,
    "daira": "Sidi Naâmane",
    "postal_code": "26040",
    "latitude": 36.215056,
    "longitude": 3.123937,
    "code_commune": 2626
  },
  {
    "name_fr": "Sidi Rabie",
    "name_ar": "سيدي الربيع",
    "wilaya_code": 26,
    "daira": "Beni Slimane",
    "postal_code": "26023",
    "latitude": 36.14766,
    "longitude": 3.75,
    "code_commune": 2655
  },
  {
    "name_fr": "Sidi Zahar",
    "name_ar": "سيدي زهار",
    "wilaya_code": 26,
    "daira": "Souagui",
    "postal_code": "26020",
    "latitude": 36.07811,
    "longitude": 3.3317554,
    "code_commune": 2628
  },
  {
    "name_fr": "Sidi Ziane",
    "name_ar": "سيدي زيان",
    "wilaya_code": 26,
    "daira": "Souagui",
    "postal_code": "26021",
    "latitude": 36.00933333,
    "longitude": 3.2556,
    "code_commune": 2614
  },
  {
    "name_fr": "Souagui",
    "name_ar": "السواقي",
    "wilaya_code": 26,
    "daira": "Souagui",
    "postal_code": "26018",
    "latitude": 36.1167,
    "longitude": 3.26446,
    "code_commune": 2633
  },
  {
    "name_fr": "Tablat",
    "name_ar": "تابلاط",
    "wilaya_code": 26,
    "daira": "Tablat",
    "postal_code": "26300",
    "latitude": 36.41211257,
    "longitude": 3.3101,
    "code_commune": 2652
  },
  {
    "name_fr": "Tamesguida",
    "name_ar": "تمسقيدة",
    "wilaya_code": 26,
    "daira": "Médéa",
    "postal_code": "26002",
    "latitude": 36.323889,
    "longitude": 2.6894,
    "code_commune": 2615
  },
  {
    "name_fr": "Tizi Mahdi",
    "name_ar": "تيزي مهدي",
    "wilaya_code": 26,
    "daira": "Ouzera",
    "postal_code": "26011",
    "latitude": 36.20283,
    "longitude": 2.77583,
    "code_commune": 2613
  },
  {
    "name_fr": "Tletat Ed Douair",
    "name_ar": "ثلاث دوائر",
    "wilaya_code": 26,
    "daira": "Seghouane",
    "postal_code": "26017",
    "latitude": 35.9154,
    "longitude": 2.963,
    "code_commune": 2645
  },
  {
    "name_fr": "Zoubiria",
    "name_ar": "الزبيرية",
    "wilaya_code": 26,
    "daira": "Seghouane",
    "postal_code": "26015",
    "latitude": 36.066667,
    "longitude": 2.9,
    "code_commune": 2634
  },
  {
    "name_fr": "Achaacha",
    "name_ar": "عشعاشة",
    "wilaya_code": 27,
    "daira": "Achaacha",
    "postal_code": "27400",
    "latitude": 36.2463,
    "longitude": 0.6355803,
    "code_commune": 2717
  },
  {
    "name_fr": "Ain-Boudinar",
    "name_ar": "عين بودينار",
    "wilaya_code": 27,
    "daira": "Kheireddine",
    "postal_code": "27030",
    "latitude": 36.0089774,
    "longitude": 0.1881358,
    "code_commune": 2728
  },
  {
    "name_fr": "Ain-Nouissy",
    "name_ar": "عين نويسي",
    "wilaya_code": 27,
    "daira": "Aïn Nouïssy",
    "postal_code": "27019",
    "latitude": 35.8037574,
    "longitude": 0.05,
    "code_commune": 2705
  },
  {
    "name_fr": "Ain-Sidi Cherif",
    "name_ar": "عين سيدي الشريف",
    "wilaya_code": 27,
    "daira": "Mesra",
    "postal_code": "27023",
    "latitude": 35.833056,
    "longitude": 0.13605,
    "code_commune": 2721
  },
  {
    "name_fr": "Ain-Tedles",
    "name_ar": "عين تادلس",
    "wilaya_code": 27,
    "daira": "Aïn Tedles",
    "postal_code": "27100",
    "latitude": 35.9947,
    "longitude": 0.2949,
    "code_commune": 2707
  },
  {
    "name_fr": "Benabdelmalek Ramdane",
    "name_ar": "بن عبد المالك رمضان",
    "wilaya_code": 27,
    "daira": "Sidi Lakhdar",
    "postal_code": "27028",
    "latitude": 36.1026171,
    "longitude": 0.2742,
    "code_commune": 2713
  },
  {
    "name_fr": "Bouguirat",
    "name_ar": "بوقيراط",
    "wilaya_code": 27,
    "daira": "Bouguirat",
    "postal_code": "27200",
    "latitude": 35.7502319,
    "longitude": 0.2566146,
    "code_commune": 2719
  },
  {
    "name_fr": "Fornaka",
    "name_ar": "فرناقة",
    "wilaya_code": 27,
    "daira": "Aïn Nouïssy",
    "postal_code": "27021",
    "latitude": 35.75243,
    "longitude": -0.0169,
    "code_commune": 2703
  },
  {
    "name_fr": "Hadjadj",
    "name_ar": "حجاج",
    "wilaya_code": 27,
    "daira": "Sidi Lakhdar",
    "postal_code": "27027",
    "latitude": 36.0970536,
    "longitude": 0.333333,
    "code_commune": 2714
  },
  {
    "name_fr": "Hassi Mameche",
    "name_ar": "حاسي ماماش",
    "wilaya_code": 27,
    "daira": "Hassi Maameche",
    "postal_code": "27001",
    "latitude": 35.8611,
    "longitude": 0.102718,
    "code_commune": 2706
  },
  {
    "name_fr": "Hassiane",
    "name_ar": "الحسيان (بني ياحي",
    "wilaya_code": 27,
    "daira": "Aïn Nouïssy",
    "postal_code": "27020",
    "latitude": 35.7513939,
    "longitude": 0.076042105,
    "code_commune": 2732
  },
  {
    "name_fr": "Khadra",
    "name_ar": "خضرة",
    "wilaya_code": 27,
    "daira": "Achaacha",
    "postal_code": "27016",
    "latitude": 36.2535711,
    "longitude": 0.5833,
    "code_commune": 2718
  },
  {
    "name_fr": "Kheir-Eddine",
    "name_ar": "خير الدين",
    "wilaya_code": 27,
    "daira": "Kheireddine",
    "postal_code": "27029",
    "latitude": 35.9477561,
    "longitude": 0.17315,
    "code_commune": 2711
  },
  {
    "name_fr": "Mansourah",
    "name_ar": "منصورة",
    "wilaya_code": 27,
    "daira": "Mesra",
    "postal_code": "27024",
    "latitude": 35.843611,
    "longitude": 0.231667,
    "code_commune": 2723
  },
  {
    "name_fr": "Mazagran",
    "name_ar": "مزغران",
    "wilaya_code": 27,
    "daira": "Hassi Maameche",
    "postal_code": "27002",
    "latitude": 35.901944,
    "longitude": 0.726944,
    "code_commune": 2727
  },
  {
    "name_fr": "Mesra",
    "name_ar": "ماسرة",
    "wilaya_code": 27,
    "daira": "Mesra",
    "postal_code": "27022",
    "latitude": 35.837222,
    "longitude": 0.169722222,
    "code_commune": 2722
  },
  {
    "name_fr": "Mostaganem",
    "name_ar": "مستغانم",
    "wilaya_code": 27,
    "daira": "Mostaganem",
    "postal_code": "27000",
    "latitude": 35.9246589,
    "longitude": 0.09,
    "code_commune": 2701
  },
  {
    "name_fr": "Nekmaria",
    "name_ar": "نكمارية",
    "wilaya_code": 27,
    "daira": "Achaacha",
    "postal_code": "27017",
    "latitude": 36.166667,
    "longitude": 0.616667,
    "code_commune": 2715
  },
  {
    "name_fr": "Oued El Kheir",
    "name_ar": "وادي الخير",
    "wilaya_code": 27,
    "daira": "Aïn Tedles",
    "postal_code": "27007",
    "latitude": 35.950278,
    "longitude": 0.3808333,
    "code_commune": 2709
  },
  {
    "name_fr": "Ouled Boughalem",
    "name_ar": "أولاد بوغالم",
    "wilaya_code": 27,
    "daira": "Achaacha",
    "postal_code": "27018",
    "latitude": 36.32027778,
    "longitude": 0.672778,
    "code_commune": 2725
  },
  {
    "name_fr": "Ouled-Maalah",
    "name_ar": "أولاد مع الله",
    "wilaya_code": 27,
    "daira": "Sidi Ali",
    "postal_code": "27013",
    "latitude": 36.006944,
    "longitude": 0.591944444,
    "code_commune": 2726
  },
  {
    "name_fr": "Safsaf",
    "name_ar": "صفصاف",
    "wilaya_code": 27,
    "daira": "Bouguirat",
    "postal_code": "27009",
    "latitude": 36.075278,
    "longitude": 0.4283333,
    "code_commune": 2730
  },
  {
    "name_fr": "Sayada",
    "name_ar": "صيادة",
    "wilaya_code": 27,
    "daira": "Kheireddine",
    "postal_code": "27031",
    "latitude": 35.9477561,
    "longitude": 0.12916667,
    "code_commune": 2702
  },
  {
    "name_fr": "Sidi Ali",
    "name_ar": "سيدي علي",
    "wilaya_code": 27,
    "daira": "Sidi Ali",
    "postal_code": "27300",
    "latitude": 36.0967786,
    "longitude": 0.4148744,
    "code_commune": 2712
  },
  {
    "name_fr": "Sidi Belaattar",
    "name_ar": "سيدي بلعطار",
    "wilaya_code": 27,
    "daira": "Aïn Tedles",
    "postal_code": "27006",
    "latitude": 36.026698,
    "longitude": 0.26931,
    "code_commune": 2710
  },
  {
    "name_fr": "Sidi-Lakhdar",
    "name_ar": "سيدي لخضر",
    "wilaya_code": 27,
    "daira": "Sidi Lakhdar",
    "postal_code": "27500",
    "latitude": 36.1428,
    "longitude": 0.460556,
    "code_commune": 2716
  },
  {
    "name_fr": "Sirat",
    "name_ar": "سيرات",
    "wilaya_code": 27,
    "daira": "Bouguirat",
    "postal_code": "27010",
    "latitude": 35.7804,
    "longitude": 0.191667,
    "code_commune": 2720
  },
  {
    "name_fr": "Souaflia",
    "name_ar": "السوافلية",
    "wilaya_code": 27,
    "daira": "Bouguirat",
    "postal_code": "27011",
    "latitude": 35.85,
    "longitude": 0.333333,
    "code_commune": 2724
  },
  {
    "name_fr": "Sour",
    "name_ar": "سور",
    "wilaya_code": 27,
    "daira": "Aïn Tedles",
    "postal_code": "27005",
    "latitude": 35.85,
    "longitude": 0.34138888,
    "code_commune": 2708
  },
  {
    "name_fr": "Stidia",
    "name_ar": "ستيدية",
    "wilaya_code": 27,
    "daira": "Hassi Maameche",
    "postal_code": "27003",
    "latitude": 35.8307225,
    "longitude": 0,
    "code_commune": 2704
  },
  {
    "name_fr": "Tazgait",
    "name_ar": "تزقايت",
    "wilaya_code": 27,
    "daira": "Sidi Ali",
    "postal_code": "27014",
    "latitude": 36.083333,
    "longitude": 0.4675,
    "code_commune": 2729
  },
  {
    "name_fr": "Touahria",
    "name_ar": "الطواهرية",
    "wilaya_code": 27,
    "daira": "Mesra",
    "postal_code": "27025",
    "latitude": 35.810556,
    "longitude": 0.209444,
    "code_commune": 2731
  },
  {
    "name_fr": "Ain El Hadjel",
    "name_ar": "عين الحجل",
    "wilaya_code": 28,
    "daira": "Aïn El Hadjel",
    "postal_code": "28500",
    "latitude": 35.6746598,
    "longitude": 3.8821519,
    "code_commune": 2817
  },
  {
    "name_fr": "Ain Khadra",
    "name_ar": "عين الخضراء",
    "wilaya_code": 28,
    "daira": "Magra",
    "postal_code": "28031",
    "latitude": 35.5393686,
    "longitude": 4.9718744,
    "code_commune": 2813
  },
  {
    "name_fr": "Belaiba",
    "name_ar": "بلعايبة",
    "wilaya_code": 28,
    "daira": "Magra",
    "postal_code": "28032",
    "latitude": 35.7,
    "longitude": 5.074167,
    "code_commune": 2815
  },
  {
    "name_fr": "Beni Ilmane",
    "name_ar": "بني يلمان",
    "wilaya_code": 28,
    "daira": "Sidi Aïssa",
    "postal_code": "28012",
    "latitude": 35.949167,
    "longitude": 4.11917,
    "code_commune": 2845
  },
  {
    "name_fr": "Berhoum",
    "name_ar": "برهوم",
    "wilaya_code": 28,
    "daira": "Magra",
    "postal_code": "28030",
    "latitude": 35.654979,
    "longitude": 5.328,
    "code_commune": 2812
  },
  {
    "name_fr": "Bouti Sayeh",
    "name_ar": "بوطي السايح",
    "wilaya_code": 28,
    "daira": "Sidi Aïssa",
    "postal_code": "28011",
    "latitude": 35.85,
    "longitude": 3.694444,
    "code_commune": 2831
  },
  {
    "name_fr": "Chellal",
    "name_ar": "شلال",
    "wilaya_code": 28,
    "daira": "Chellal",
    "postal_code": "28034",
    "latitude": 35.516667,
    "longitude": 4.383333,
    "code_commune": 2809
  },
  {
    "name_fr": "Dehahna",
    "name_ar": "دهاهنة",
    "wilaya_code": 28,
    "daira": "Magra",
    "postal_code": "28033",
    "latitude": 35.916667,
    "longitude": 5.00884,
    "code_commune": 2830
  },
  {
    "name_fr": "Hammam Dalaa",
    "name_ar": "حمام الضلعة",
    "wilaya_code": 28,
    "daira": "Hammam Dalaa",
    "postal_code": "28001",
    "latitude": 35.85,
    "longitude": 4.37445,
    "code_commune": 2803
  },
  {
    "name_fr": "Khettouti Sed-El-Jir",
    "name_ar": "خطوطي سد الجير",
    "wilaya_code": 28,
    "daira": "Chellal",
    "postal_code": "28036",
    "latitude": 35.687602,
    "longitude": 4.2538452,
    "code_commune": 2832
  },
  {
    "name_fr": "M'sila",
    "name_ar": "المسيلة",
    "wilaya_code": 28,
    "daira": "M'Sila",
    "postal_code": "28000",
    "latitude": 35.71,
    "longitude": 4.5472,
    "code_commune": 2801
  },
  {
    "name_fr": "M'tarfa",
    "name_ar": "المطارفة",
    "wilaya_code": 28,
    "daira": "Ouled Derradj",
    "postal_code": "28007",
    "latitude": 35.704444,
    "longitude": 4.6175,
    "code_commune": 2806
  },
  {
    "name_fr": "Maadid",
    "name_ar": "المعاضيد",
    "wilaya_code": 28,
    "daira": "Ouled Derradj",
    "postal_code": "28006",
    "latitude": 35.8667,
    "longitude": 4.795556,
    "code_commune": 2802
  },
  {
    "name_fr": "Maarif",
    "name_ar": "معاريف",
    "wilaya_code": 28,
    "daira": "Chellal",
    "postal_code": "28037",
    "latitude": 35.415278,
    "longitude": 4.354167,
    "code_commune": 2829
  },
  {
    "name_fr": "Magra",
    "name_ar": "مقرة",
    "wilaya_code": 28,
    "daira": "Magra",
    "postal_code": "28400",
    "latitude": 35.617778,
    "longitude": 5.1074,
    "code_commune": 2811
  },
  {
    "name_fr": "Ouanougha",
    "name_ar": "ونوغة",
    "wilaya_code": 28,
    "daira": "Hammam Dalaa",
    "postal_code": "28004",
    "latitude": 35.980833,
    "longitude": 3.883,
    "code_commune": 2819
  },
  {
    "name_fr": "Ouled Addi Guebala",
    "name_ar": "أولاد عدي لقبالة",
    "wilaya_code": 28,
    "daira": "Ouled Derradj",
    "postal_code": "28008",
    "latitude": 35.670556,
    "longitude": 4.8728093,
    "code_commune": 2814
  },
  {
    "name_fr": "Ouled Derradj",
    "name_ar": "أولاد دراج",
    "wilaya_code": 28,
    "daira": "Ouled Derradj",
    "postal_code": "28005",
    "latitude": 35.6927204,
    "longitude": 4.7833333,
    "code_commune": 2804
  },
  {
    "name_fr": "Ouled Madhi",
    "name_ar": "أولاد ماضي",
    "wilaya_code": 28,
    "daira": "Chellal",
    "postal_code": "28035",
    "latitude": 35.576667,
    "longitude": 4.508333333,
    "code_commune": 2810
  },
  {
    "name_fr": "Ouled Mansour",
    "name_ar": "أولاد منصور",
    "wilaya_code": 28,
    "daira": "Hammam Dalaa",
    "postal_code": "28003",
    "latitude": 35.729444,
    "longitude": 4.3770704,
    "code_commune": 2828
  },
  {
    "name_fr": "Sidi Aissa",
    "name_ar": "سيدي عيسى",
    "wilaya_code": 28,
    "daira": "Sidi Aïssa",
    "postal_code": "28100",
    "latitude": 35.88638889,
    "longitude": 3.77236,
    "code_commune": 2816
  },
  {
    "name_fr": "Sidi Hadjeres",
    "name_ar": "سيدي هجرس",
    "wilaya_code": 28,
    "daira": "Aïn El Hadjel",
    "postal_code": "28044",
    "latitude": 35.6719444,
    "longitude": 4.03527778,
    "code_commune": 2818
  },
  {
    "name_fr": "Souamaa",
    "name_ar": "السوامع",
    "wilaya_code": 28,
    "daira": "Ouled Derradj",
    "postal_code": "28009",
    "latitude": 35.6546,
    "longitude": 4.668889,
    "code_commune": 2840
  },
  {
    "name_fr": "Tarmount",
    "name_ar": "تارمونت",
    "wilaya_code": 28,
    "daira": "Hammam Dalaa",
    "postal_code": "28002",
    "latitude": 35.688056,
    "longitude": 4.174722,
    "code_commune": 2805
  },
  {
    "name_fr": "Ain Fares",
    "name_ar": "عين فارس",
    "wilaya_code": 29,
    "daira": "Aïn Fares",
    "postal_code": "29001",
    "latitude": 35.4799,
    "longitude": 0.2449,
    "code_commune": 2924
  },
  {
    "name_fr": "Ain Fekan",
    "name_ar": "عين فكان",
    "wilaya_code": 29,
    "daira": "Aïn Fekan",
    "postal_code": "29003",
    "latitude": 35.2153,
    "longitude": -0.0016,
    "code_commune": 2918
  },
  {
    "name_fr": "Ain Ferah",
    "name_ar": "عين فراح",
    "wilaya_code": 29,
    "daira": "Oued El Abtal",
    "postal_code": "29032",
    "latitude": 35.381111,
    "longitude": 0.7853763,
    "code_commune": 2911
  },
  {
    "name_fr": "Ain Frass",
    "name_ar": "عين أفرص",
    "wilaya_code": 29,
    "daira": "Aïn Fekan",
    "postal_code": "29004",
    "latitude": 35.195278,
    "longitude": -0.1575,
    "code_commune": 2925
  },
  {
    "name_fr": "Alaimia",
    "name_ar": "العلايمية",
    "wilaya_code": 29,
    "daira": "Oggaz",
    "postal_code": "29029",
    "latitude": 35.51011,
    "longitude": -0.3225,
    "code_commune": 2928
  },
  {
    "name_fr": "Aouf",
    "name_ar": "عوف",
    "wilaya_code": 29,
    "daira": "Aouf",
    "postal_code": "29005",
    "latitude": 35.1,
    "longitude": 0.15,
    "code_commune": 2923
  },
  {
    "name_fr": "Benian",
    "name_ar": "بنيان",
    "wilaya_code": 29,
    "daira": "Aouf",
    "postal_code": "29007",
    "latitude": 35.21222,
    "longitude": 0.1397222,
    "code_commune": 2919
  },
  {
    "name_fr": "Bou Henni",
    "name_ar": "بوهني",
    "wilaya_code": 29,
    "daira": "Sig",
    "postal_code": "29038",
    "latitude": 35.56055556,
    "longitude": -0.084444444,
    "code_commune": 2937
  },
  {
    "name_fr": "Bouhanifia",
    "name_ar": "بوحنيفية",
    "wilaya_code": 29,
    "daira": "Bou Hanifia",
    "postal_code": "29200",
    "latitude": 35.316111,
    "longitude": -0.048333333,
    "code_commune": 2902
  },
  {
    "name_fr": "Chorfa",
    "name_ar": "الشرفاء",
    "wilaya_code": 29,
    "daira": "Sig",
    "postal_code": "29037",
    "latitude": 35.431944,
    "longitude": -0.245278,
    "code_commune": 2943
  },
  {
    "name_fr": "El Bordj",
    "name_ar": "البرج",
    "wilaya_code": 29,
    "daira": "El Bordj",
    "postal_code": "29011",
    "latitude": 35.515833,
    "longitude": 0.3017,
    "code_commune": 2917
  },
  {
    "name_fr": "El Gaada",
    "name_ar": "القعدة",
    "wilaya_code": 29,
    "daira": "Zahana",
    "postal_code": "29046",
    "latitude": 35.53333333,
    "longitude": -0.183333333,
    "code_commune": 2929
  },
  {
    "name_fr": "El Ghomri",
    "name_ar": "الغمري",
    "wilaya_code": 29,
    "daira": "Mohammadia",
    "postal_code": "29023",
    "latitude": 35.6883106,
    "longitude": 0.2069806,
    "code_commune": 2934
  },
  {
    "name_fr": "El Gueitena",
    "name_ar": "القطنة",
    "wilaya_code": 29,
    "daira": "Bou Hanifia",
    "postal_code": "29009",
    "latitude": 35.2522718,
    "longitude": 0.0528,
    "code_commune": 2938
  },
  {
    "name_fr": "El Hachem",
    "name_ar": "الحشم",
    "wilaya_code": 29,
    "daira": "Hachem",
    "postal_code": "29019",
    "latitude": 35.366667,
    "longitude": 0.15,
    "code_commune": 2907
  },
  {
    "name_fr": "El Keurt",
    "name_ar": "القرط",
    "wilaya_code": 29,
    "daira": "Tizi",
    "postal_code": "29044",
    "latitude": 35.381111,
    "longitude": 0.091667,
    "code_commune": 2940
  },
  {
    "name_fr": "El Mamounia",
    "name_ar": "المأمونية",
    "wilaya_code": 29,
    "daira": "Aïn Fares",
    "postal_code": "29002",
    "latitude": 35.433333,
    "longitude": 0.2449,
    "code_commune": 2939
  },
  {
    "name_fr": "El Menaouer",
    "name_ar": "المنور",
    "wilaya_code": 29,
    "daira": "El Bordj",
    "postal_code": "29013",
    "latitude": 35.394444,
    "longitude": 0.3713916,
    "code_commune": 2921
  },
  {
    "name_fr": "Ferraguig",
    "name_ar": "فراقيق",
    "wilaya_code": 29,
    "daira": "Mohammadia",
    "postal_code": "29024",
    "latitude": 35.583333,
    "longitude": 0.0536592,
    "code_commune": 2933
  },
  {
    "name_fr": "Froha",
    "name_ar": "فروحة",
    "wilaya_code": 29,
    "daira": "Tizi",
    "postal_code": "29043",
    "latitude": 35.3026637,
    "longitude": 0.1282536,
    "code_commune": 2913
  },
  {
    "name_fr": "Gharrous",
    "name_ar": "غروس",
    "wilaya_code": 29,
    "daira": "Aouf",
    "postal_code": "29006",
    "latitude": 35.19583333,
    "longitude": 0.400833333,
    "code_commune": 2941
  },
  {
    "name_fr": "Ghriss",
    "name_ar": "غريس",
    "wilaya_code": 29,
    "daira": "Ghriss",
    "postal_code": "29300",
    "latitude": 35.216944,
    "longitude": 0.1614,
    "code_commune": 2912
  },
  {
    "name_fr": "Guerdjoum",
    "name_ar": "قرجوم",
    "wilaya_code": 29,
    "daira": "Oued Taria",
    "postal_code": "29035",
    "latitude": 35.15,
    "longitude": 0.0536592,
    "code_commune": 2942
  },
  {
    "name_fr": "Hacine",
    "name_ar": "حسين",
    "wilaya_code": 29,
    "daira": "Bou Hanifia",
    "postal_code": "29010",
    "latitude": 35.33333333,
    "longitude": 0.09833,
    "code_commune": 2904
  },
  {
    "name_fr": "Khalouia",
    "name_ar": "خلوية",
    "wilaya_code": 29,
    "daira": "El Bordj",
    "postal_code": "29012",
    "latitude": 35.4613997,
    "longitude": 0.1505556,
    "code_commune": 2920
  },
  {
    "name_fr": "Makhda",
    "name_ar": "ماقضة",
    "wilaya_code": 29,
    "daira": "Ghriss",
    "postal_code": "29015",
    "latitude": 35.15,
    "longitude": 0.15,
    "code_commune": 2915
  },
  {
    "name_fr": "Maoussa",
    "name_ar": "ماوسة",
    "wilaya_code": 29,
    "daira": "Ghriss",
    "postal_code": "29018",
    "latitude": 35.3129898,
    "longitude": 0.2025,
    "code_commune": 2905
  },
  {
    "name_fr": "Mascara",
    "name_ar": "معسكر",
    "wilaya_code": 29,
    "daira": "Mascara",
    "postal_code": "29000",
    "latitude": 35.4,
    "longitude": 0.133333,
    "code_commune": 2901
  },
  {
    "name_fr": "Matemore",
    "name_ar": "المطمور",
    "wilaya_code": 29,
    "daira": "Ghriss",
    "postal_code": "29016",
    "latitude": 35.36140556,
    "longitude": 0.0536592,
    "code_commune": 2914
  },
  {
    "name_fr": "Mocta-Douz",
    "name_ar": "مقطع الدوز",
    "wilaya_code": 29,
    "daira": "Mohammadia",
    "postal_code": "29025",
    "latitude": 35.6068031,
    "longitude": -0.0489902,
    "code_commune": 2936
  },
  {
    "name_fr": "Mohammadia",
    "name_ar": "المحمدية",
    "wilaya_code": 29,
    "daira": "Mohammadia",
    "postal_code": "29100",
    "latitude": 35.58839,
    "longitude": 0.0667,
    "code_commune": 2931
  },
  {
    "name_fr": "Nesmot",
    "name_ar": "نسمط",
    "wilaya_code": 29,
    "daira": "Hachem",
    "postal_code": "29021",
    "latitude": 35.21222,
    "longitude": 0.245833333,
    "code_commune": 2945
  },
  {
    "name_fr": "Oggaz",
    "name_ar": "عقاز",
    "wilaya_code": 29,
    "daira": "Oggaz",
    "postal_code": "29028",
    "latitude": 35.566667,
    "longitude": -0.25967,
    "code_commune": 2927
  },
  {
    "name_fr": "Oued El Abtal",
    "name_ar": "وادي الأبطال",
    "wilaya_code": 29,
    "daira": "Oued El Abtal",
    "postal_code": "29031",
    "latitude": 35.455952,
    "longitude": 0.688,
    "code_commune": 2910
  },
  {
    "name_fr": "Oued Taria",
    "name_ar": "وادي التاغية",
    "wilaya_code": 29,
    "daira": "Oued Taria",
    "postal_code": "29034",
    "latitude": 35.1130905,
    "longitude": 0.0910316,
    "code_commune": 2922
  },
  {
    "name_fr": "Ras El Ain Amirouche",
    "name_ar": "رأس عين عميروش",
    "wilaya_code": 29,
    "daira": "Oggaz",
    "postal_code": "29030",
    "latitude": 35.5925,
    "longitude": -0.2125,
    "code_commune": 2944
  },
  {
    "name_fr": "Sedjerara",
    "name_ar": "سجرارة",
    "wilaya_code": 29,
    "daira": "Mohammadia",
    "postal_code": "29026",
    "latitude": 35.5397,
    "longitude": 0.213889,
    "code_commune": 2935
  },
  {
    "name_fr": "Sehailia",
    "name_ar": "السهايلية",
    "wilaya_code": 29,
    "daira": "Tighennif",
    "postal_code": "29041",
    "latitude": 35.316667,
    "longitude": 0.15,
    "code_commune": 2947
  },
  {
    "name_fr": "Sidi Abdeldjebar",
    "name_ar": "سيدي عبد الجبار",
    "wilaya_code": 29,
    "daira": "Oued El Abtal",
    "postal_code": "29033",
    "latitude": 35.258611,
    "longitude": 0.5233311,
    "code_commune": 2946
  },
  {
    "name_fr": "Sidi Abdelmoumene",
    "name_ar": "سيدي عبد المومن",
    "wilaya_code": 29,
    "daira": "Mohammadia",
    "postal_code": "29027",
    "latitude": 35.652778,
    "longitude": 0.013889,
    "code_commune": 2932
  },
  {
    "name_fr": "Sidi Boussaid",
    "name_ar": "سيدي بوسعيد",
    "wilaya_code": 29,
    "daira": "Ghriss",
    "postal_code": "29017",
    "latitude": 35.250556,
    "longitude": 0.296389,
    "code_commune": 2916
  },
  {
    "name_fr": "Sidi Kada",
    "name_ar": "سيدي قادة",
    "wilaya_code": 29,
    "daira": "Tighennif",
    "postal_code": "29040",
    "latitude": 35.333333,
    "longitude": 0.343889,
    "code_commune": 2908
  },
  {
    "name_fr": "Sig",
    "name_ar": "سيق",
    "wilaya_code": 29,
    "daira": "Sig",
    "postal_code": "29400",
    "latitude": 35.5283,
    "longitude": -0.192778,
    "code_commune": 2926
  },
  {
    "name_fr": "Tighennif",
    "name_ar": "تيغنيف",
    "wilaya_code": 29,
    "daira": "Tighennif",
    "postal_code": "29500",
    "latitude": 35.4143144,
    "longitude": 0.3292328,
    "code_commune": 2906
  },
  {
    "name_fr": "Tizi",
    "name_ar": "تيزي",
    "wilaya_code": 29,
    "daira": "Tizi",
    "postal_code": "29042",
    "latitude": 35.31603,
    "longitude": 0.1542151,
    "code_commune": 2903
  },
  {
    "name_fr": "Zahana",
    "name_ar": "زهانة",
    "wilaya_code": 29,
    "daira": "Zahana",
    "postal_code": "29045",
    "latitude": 35.48333333,
    "longitude": -0.15,
    "code_commune": 2930
  },
  {
    "name_fr": "Zelamta",
    "name_ar": "زلامطة",
    "wilaya_code": 29,
    "daira": "Hachem",
    "postal_code": "29020",
    "latitude": 35.29108,
    "longitude": 0.47622,
    "code_commune": 2909
  },
  {
    "name_fr": "Ain Beida",
    "name_ar": "عين البيضاء",
    "wilaya_code": 30,
    "daira": "Sidi Khouiled",
    "postal_code": "30002",
    "latitude": 31.9377,
    "longitude": 5.39954,
    "code_commune": 3002
  },
  {
    "name_fr": "El Borma",
    "name_ar": "البرمة",
    "wilaya_code": 30,
    "daira": "El Borma",
    "postal_code": "30007",
    "latitude": 31.656389,
    "longitude": 9.179167,
    "code_commune": 3021
  },
  {
    "name_fr": "Hassi Ben Abdellah",
    "name_ar": "حاسي بن عبد الله",
    "wilaya_code": 30,
    "daira": "Sidi Khouiled",
    "postal_code": "30003",
    "latitude": 32.025833,
    "longitude": 5.468611,
    "code_commune": 3012
  },
  {
    "name_fr": "Hassi Messaoud",
    "name_ar": "حاسي مسعود",
    "wilaya_code": 30,
    "daira": "Hassi Messaoud",
    "postal_code": "30500",
    "latitude": 31.7019,
    "longitude": 6.073,
    "code_commune": 3004
  },
  {
    "name_fr": "N'goussa",
    "name_ar": "انقوسة",
    "wilaya_code": 30,
    "daira": "N'Goussa",
    "postal_code": "30005",
    "latitude": 32.141111,
    "longitude": 5.3096,
    "code_commune": 3003
  },
  {
    "name_fr": "Ouargla",
    "name_ar": "ورقلة",
    "wilaya_code": 30,
    "daira": "Ouargla",
    "postal_code": "30000",
    "latitude": 31.95,
    "longitude": 5.3167,
    "code_commune": 3001
  },
  {
    "name_fr": "Rouissat",
    "name_ar": "الرويسات",
    "wilaya_code": 30,
    "daira": "Ouargla",
    "postal_code": "30001",
    "latitude": 31.916667,
    "longitude": 5.35,
    "code_commune": 3005
  },
  {
    "name_fr": "Sidi Khouiled",
    "name_ar": "سيدي خويلد",
    "wilaya_code": 30,
    "daira": "Sidi Khouiled",
    "postal_code": "30004",
    "latitude": 31.979722,
    "longitude": 5.418333,
    "code_commune": 3011
  },
  {
    "name_fr": "Ain Biya",
    "name_ar": "عين البية",
    "wilaya_code": 31,
    "daira": "Bethioua",
    "postal_code": "31026",
    "latitude": 35.816667,
    "longitude": -0.2816754,
    "code_commune": 3126
  },
  {
    "name_fr": "Ain Kerma",
    "name_ar": "عين الكرمة",
    "wilaya_code": 31,
    "daira": "Bouhadjar",
    "postal_code": "36018",
    "latitude": 36.5644539,
    "longitude": 8.201111,
    "code_commune": 3621
  },
  {
    "name_fr": "Ain Turk",
    "name_ar": "عين الترك",
    "wilaya_code": 31,
    "daira": "Aïn El Turk",
    "postal_code": "31300",
    "latitude": 35.74494,
    "longitude": -0.7697,
    "code_commune": 3109
  },
  {
    "name_fr": "Arzew",
    "name_ar": "أرزيو",
    "wilaya_code": 31,
    "daira": "Arzew",
    "postal_code": "31200",
    "latitude": 35.85048,
    "longitude": -0.3167,
    "code_commune": 3106
  },
  {
    "name_fr": "Ben Freha",
    "name_ar": "بن فريحة",
    "wilaya_code": 31,
    "daira": "Gdyel",
    "postal_code": "31020",
    "latitude": 35.6937209,
    "longitude": -0.4186546,
    "code_commune": 3120
  },
  {
    "name_fr": "Bethioua",
    "name_ar": "بطيوة",
    "wilaya_code": 31,
    "daira": "Bethioua",
    "postal_code": "31007",
    "latitude": 35.805837,
    "longitude": -0.2596,
    "code_commune": 3107
  },
  {
    "name_fr": "Bir El Djir",
    "name_ar": "بئر الجير",
    "wilaya_code": 31,
    "daira": "Bir El Djir",
    "postal_code": "31003",
    "latitude": 35.7368,
    "longitude": -0.545,
    "code_commune": 3103
  },
  {
    "name_fr": "Boufatis",
    "name_ar": "بوفاتيس",
    "wilaya_code": 31,
    "daira": "Oued Tlelat",
    "postal_code": "31014",
    "latitude": 35.6791,
    "longitude": -0.481667,
    "code_commune": 3114
  },
  {
    "name_fr": "Bousfer",
    "name_ar": "بوسفر",
    "wilaya_code": 31,
    "daira": "Aïn El Turk",
    "postal_code": "31016",
    "latitude": 35.710833,
    "longitude": -0.810556,
    "code_commune": 3116
  },
  {
    "name_fr": "Boutlelis",
    "name_ar": "بوتليليس",
    "wilaya_code": 31,
    "daira": "Boutlelis",
    "postal_code": "31024",
    "latitude": 35.573,
    "longitude": -0.8342,
    "code_commune": 3124
  },
  {
    "name_fr": "El Ancor",
    "name_ar": "العنصر",
    "wilaya_code": 31,
    "daira": "Aïn El Turk",
    "postal_code": "31010",
    "latitude": 35.7408,
    "longitude": -0.866667,
    "code_commune": 3110
  },
  {
    "name_fr": "El Braya",
    "name_ar": "البراية",
    "wilaya_code": 31,
    "daira": "Oued Tlelat",
    "postal_code": "31018",
    "latitude": 35.612222,
    "longitude": -0.516667,
    "code_commune": 3118
  },
  {
    "name_fr": "El Kerma",
    "name_ar": "الكرمة",
    "wilaya_code": 31,
    "daira": "Es Senia",
    "postal_code": "31017",
    "latitude": 35.6186807,
    "longitude": -0.578611111,
    "code_commune": 3117
  },
  {
    "name_fr": "Es Senia",
    "name_ar": "السانية",
    "wilaya_code": 31,
    "daira": "Es Senia",
    "postal_code": "31100",
    "latitude": 35.6478,
    "longitude": -0.6241804,
    "code_commune": 3105
  },
  {
    "name_fr": "Gdyel",
    "name_ar": "قديل",
    "wilaya_code": 31,
    "daira": "Gdyel",
    "postal_code": "31002",
    "latitude": 35.8052667,
    "longitude": -0.423746,
    "code_commune": 3102
  },
  {
    "name_fr": "Hassi Ben Okba",
    "name_ar": "حاسي بن عقبة",
    "wilaya_code": 31,
    "daira": "Bir El Djir",
    "postal_code": "31019",
    "latitude": 35.72964,
    "longitude": -0.465833,
    "code_commune": 3119
  },
  {
    "name_fr": "Hassi Bounif",
    "name_ar": "حاسي بونيف",
    "wilaya_code": 31,
    "daira": "Bir El Djir",
    "postal_code": "31004",
    "latitude": 35.6792778,
    "longitude": -0.5,
    "code_commune": 3104
  },
  {
    "name_fr": "Hassi Mefsoukh",
    "name_ar": "حاسي مفسوخ",
    "wilaya_code": 31,
    "daira": "Gdyel",
    "postal_code": "31021",
    "latitude": 35.7861,
    "longitude": -0.374167,
    "code_commune": 3121
  },
  {
    "name_fr": "Marsat El Hadjadj",
    "name_ar": "مرسى الحجاج",
    "wilaya_code": 31,
    "daira": "Bethioua",
    "postal_code": "31008",
    "latitude": 35.783333,
    "longitude": -0.166667,
    "code_commune": 3108
  },
  {
    "name_fr": "Mers El Kebir",
    "name_ar": "المرسى الكبير",
    "wilaya_code": 31,
    "daira": "Aïn El Turk",
    "postal_code": "31015",
    "latitude": 35.728611,
    "longitude": -0.706944,
    "code_commune": 3115
  },
  {
    "name_fr": "Messerghin",
    "name_ar": "مسرغين",
    "wilaya_code": 31,
    "daira": "Boutlelis",
    "postal_code": "31023",
    "latitude": 35.6455611,
    "longitude": -0.7722974,
    "code_commune": 3123
  },
  {
    "name_fr": "Oran",
    "name_ar": "وهران",
    "wilaya_code": 31,
    "daira": "Oran",
    "postal_code": "31000",
    "latitude": 35.70833333,
    "longitude": -0.6331,
    "code_commune": 3101
  },
  {
    "name_fr": "Oued Tlelat",
    "name_ar": "وادي تليلات",
    "wilaya_code": 31,
    "daira": "Oued Tlelat",
    "postal_code": "31011",
    "latitude": 35.5519239,
    "longitude": -0.4522604,
    "code_commune": 3111
  },
  {
    "name_fr": "Sidi Ben Yebka",
    "name_ar": "سيدي بن يبقى",
    "wilaya_code": 31,
    "daira": "Arzew",
    "postal_code": "31022",
    "latitude": 35.82972,
    "longitude": -0.394722,
    "code_commune": 3122
  },
  {
    "name_fr": "Sidi Chami",
    "name_ar": "سيدي الشحمي",
    "wilaya_code": 31,
    "daira": "Es Senia",
    "postal_code": "31013",
    "latitude": 35.62687,
    "longitude": -0.5217,
    "code_commune": 3113
  },
  {
    "name_fr": "Tafraoui",
    "name_ar": "طفراوي",
    "wilaya_code": 31,
    "daira": "Oued Tlelat",
    "postal_code": "31012",
    "latitude": 35.483333,
    "longitude": -0.516667,
    "code_commune": 3112
  },
  {
    "name_fr": "Boualem",
    "name_ar": "بوعلام",
    "wilaya_code": 32,
    "daira": "Boualem",
    "postal_code": "32005",
    "latitude": 33.72903,
    "longitude": 1.5329678,
    "code_commune": 3206
  },
  {
    "name_fr": "Bougtoub",
    "name_ar": "بوقطب",
    "wilaya_code": 32,
    "daira": "Bougtoub",
    "postal_code": "32009",
    "latitude": 34.1436111,
    "longitude": 0.033333,
    "code_commune": 3210
  },
  {
    "name_fr": "Brezina",
    "name_ar": "بريزينة",
    "wilaya_code": 32,
    "daira": "Brezina",
    "postal_code": "32003",
    "latitude": 33.08333333,
    "longitude": 1.261,
    "code_commune": 3204
  },
  {
    "name_fr": "Cheguig",
    "name_ar": "الشقيق",
    "wilaya_code": 32,
    "daira": "Rogassa",
    "postal_code": "32015",
    "latitude": 34.168889,
    "longitude": 1.228056,
    "code_commune": 3217
  },
  {
    "name_fr": "El Bayadh",
    "name_ar": "البيض",
    "wilaya_code": 32,
    "daira": "El Bayadh",
    "postal_code": "32000",
    "latitude": 33.7216667,
    "longitude": 1.020278,
    "code_commune": 3201
  },
  {
    "name_fr": "El Kheiter",
    "name_ar": "الخيثر",
    "wilaya_code": 32,
    "daira": "Bougtoub",
    "postal_code": "32010",
    "latitude": 34.14333333,
    "longitude": 0.073333333,
    "code_commune": 3211
  },
  {
    "name_fr": "Ghassoul",
    "name_ar": "الغاسول",
    "wilaya_code": 32,
    "daira": "Brezina",
    "postal_code": "32004",
    "latitude": 33.377222,
    "longitude": 1.2030556,
    "code_commune": 3205
  },
  {
    "name_fr": "Kef El Ahmar",
    "name_ar": "الكاف الأحمر",
    "wilaya_code": 32,
    "daira": "Rogassa",
    "postal_code": "32021",
    "latitude": 34.15,
    "longitude": 0.5975443,
    "code_commune": 3212
  },
  {
    "name_fr": "Krakda",
    "name_ar": "كراكدة",
    "wilaya_code": 32,
    "daira": "Brezina",
    "postal_code": "32013",
    "latitude": 33.319167,
    "longitude": 0.957222,
    "code_commune": 3215
  },
  {
    "name_fr": "Rogassa",
    "name_ar": "رقاصة",
    "wilaya_code": 32,
    "daira": "Rogassa",
    "postal_code": "32001",
    "latitude": 34.0188896,
    "longitude": 0.9271367,
    "code_commune": 3202
  },
  {
    "name_fr": "Sidi Ameur",
    "name_ar": "سيدي عامر",
    "wilaya_code": 32,
    "daira": "Boualem",
    "postal_code": "32016",
    "latitude": 33.768333,
    "longitude": 1.413611111,
    "code_commune": 3218
  },
  {
    "name_fr": "Sidi Slimane",
    "name_ar": "سيدي سليمان",
    "wilaya_code": 32,
    "daira": "Boualem",
    "postal_code": "32019",
    "latitude": 33.833333,
    "longitude": 0.554708333,
    "code_commune": 3221
  },
  {
    "name_fr": "Sidi Tiffour",
    "name_ar": "سيدي طيفور",
    "wilaya_code": 32,
    "daira": "Boualem",
    "postal_code": "32020",
    "latitude": 33.717201,
    "longitude": 1.682711,
    "code_commune": 3222
  },
  {
    "name_fr": "Stitten",
    "name_ar": "ستيتن",
    "wilaya_code": 32,
    "daira": "Boualem",
    "postal_code": "32002",
    "latitude": 33.75805556,
    "longitude": 1.223333333,
    "code_commune": 3203
  },
  {
    "name_fr": "Tousmouline",
    "name_ar": "توسمولين",
    "wilaya_code": 32,
    "daira": "Bougtoub",
    "postal_code": "32018",
    "latitude": 33.651667,
    "longitude": 0.266667,
    "code_commune": 3220
  },
  {
    "name_fr": "Bordj Omar Driss",
    "name_ar": "برج عمر إدريس",
    "wilaya_code": 33,
    "daira": "Bordj Omar Driss",
    "postal_code": "33002",
    "latitude": 28.146389,
    "longitude": 6.7259091,
    "code_commune": 3304
  },
  {
    "name_fr": "Debdeb",
    "name_ar": "دبداب",
    "wilaya_code": 33,
    "daira": "Debdeb",
    "postal_code": "33001",
    "latitude": 29.96710797,
    "longitude": 9.422727425,
    "code_commune": 3303
  },
  {
    "name_fr": "Illizi",
    "name_ar": "إيليزي",
    "wilaya_code": 33,
    "daira": "Illizi",
    "postal_code": "33000",
    "latitude": 26.483333,
    "longitude": 8.483333333,
    "code_commune": 3301
  },
  {
    "name_fr": "In Amenas",
    "name_ar": "إن أمناس",
    "wilaya_code": 33,
    "daira": "In Amenas",
    "postal_code": "33100",
    "latitude": 28.040833,
    "longitude": 9.635,
    "code_commune": 3306
  },
  {
    "name_fr": "Ain Taghrout",
    "name_ar": "عين تاغروت",
    "wilaya_code": 34,
    "daira": "Aïn Taghrout",
    "postal_code": "34001",
    "latitude": 36.128889,
    "longitude": 5.076667,
    "code_commune": 3408
  },
  {
    "name_fr": "Ain Tesra",
    "name_ar": "عين تسرة",
    "wilaya_code": 34,
    "daira": "Ras El Oued",
    "postal_code": "34003",
    "latitude": 36.0125,
    "longitude": 5.002222222,
    "code_commune": 3430
  },
  {
    "name_fr": "Belimour",
    "name_ar": "بليمور",
    "wilaya_code": 34,
    "daira": "Bordj Ghedir",
    "postal_code": "34006",
    "latitude": 36.027222,
    "longitude": 4.833333333,
    "code_commune": 3412
  },
  {
    "name_fr": "Ben Daoud",
    "name_ar": "بن داود",
    "wilaya_code": 34,
    "daira": "Mansoura",
    "postal_code": "34018",
    "latitude": 36.19702,
    "longitude": 4.4025,
    "code_commune": 3406
  },
  {
    "name_fr": "Bir Kasdali",
    "name_ar": "بئر قاصد علي",
    "wilaya_code": 34,
    "daira": "Bir Kasdali",
    "postal_code": "34011",
    "latitude": 36.15,
    "longitude": 5.033333,
    "code_commune": 3431
  },
  {
    "name_fr": "Bordj Bou Arreridj",
    "name_ar": "برج بوعريرج",
    "wilaya_code": 34,
    "daira": "Bordj Bou Arreridj",
    "postal_code": "34000",
    "latitude": 36.0704188,
    "longitude": 4.766667,
    "code_commune": 3401
  },
  {
    "name_fr": "Bordj Ghedir",
    "name_ar": "برج الغدير",
    "wilaya_code": 34,
    "daira": "Bordj Ghedir",
    "postal_code": "34007",
    "latitude": 35.8991893,
    "longitude": 4.899182,
    "code_commune": 3409
  },
  {
    "name_fr": "Bordj Zemmoura",
    "name_ar": "برج زمورة",
    "wilaya_code": 34,
    "daira": "Bordj Zemoura",
    "postal_code": "34027",
    "latitude": 36.2677309,
    "longitude": 4.855833333,
    "code_commune": 3403
  },
  {
    "name_fr": "Colla",
    "name_ar": "القلة",
    "wilaya_code": 34,
    "daira": "Djaafra",
    "postal_code": "34030",
    "latitude": 36.1016103,
    "longitude": 4.6589,
    "code_commune": 3425
  },
  {
    "name_fr": "Djaafra",
    "name_ar": "جعافرة",
    "wilaya_code": 34,
    "daira": "Djaafra",
    "postal_code": "34031",
    "latitude": 36.2922699,
    "longitude": 4.6628371,
    "code_commune": 3415
  },
  {
    "name_fr": "El Achir",
    "name_ar": "الياشير",
    "wilaya_code": 34,
    "daira": "Medjana",
    "postal_code": "34023",
    "latitude": 36.06386,
    "longitude": 4.6167,
    "code_commune": 3407
  },
  {
    "name_fr": "El Annasseur",
    "name_ar": "العناصر",
    "wilaya_code": 34,
    "daira": "Bordj Ghedir",
    "postal_code": "34008",
    "latitude": 36.0642129,
    "longitude": 4.833333333,
    "code_commune": 3428
  },
  {
    "name_fr": "El Euch",
    "name_ar": "العش",
    "wilaya_code": 34,
    "daira": "El Hamadia",
    "postal_code": "34014",
    "latitude": 36.06386,
    "longitude": 4.6167,
    "code_commune": 3407
  },
  {
    "name_fr": "El M'hir",
    "name_ar": "المهير",
    "wilaya_code": 34,
    "daira": "Mansoura",
    "postal_code": "34019",
    "latitude": 36.119384,
    "longitude": 4.38407336,
    "code_commune": 3405
  },
  {
    "name_fr": "El Main",
    "name_ar": "الماين",
    "wilaya_code": 34,
    "daira": "Djaafra",
    "postal_code": "34032",
    "latitude": 36.425556,
    "longitude": 4.716667,
    "code_commune": 3416
  },
  {
    "name_fr": "Elhammadia",
    "name_ar": "الحمادية",
    "wilaya_code": 34,
    "daira": "El Hamadia",
    "postal_code": "34015",
    "latitude": 35.976944,
    "longitude": 4.7475,
    "code_commune": 3411
  },
  {
    "name_fr": "Ghailasa",
    "name_ar": "غيلاسة",
    "wilaya_code": 34,
    "daira": "Bordj Ghedir",
    "postal_code": "34009",
    "latitude": 35.981389,
    "longitude": 4.9167001,
    "code_commune": 3432
  },
  {
    "name_fr": "Haraza",
    "name_ar": "حرازة",
    "wilaya_code": 34,
    "daira": "Mansoura",
    "postal_code": "34020",
    "latitude": 36.156389,
    "longitude": 4.223333,
    "code_commune": 3434
  },
  {
    "name_fr": "Hasnaoua",
    "name_ar": "حسناوة",
    "wilaya_code": 34,
    "daira": "Medjana",
    "postal_code": "34024",
    "latitude": 36.14083333,
    "longitude": 4.7957,
    "code_commune": 3419
  },
  {
    "name_fr": "Khelil",
    "name_ar": "خليل",
    "wilaya_code": 34,
    "daira": "Bir Kasdali",
    "postal_code": "34012",
    "latitude": 36.175556,
    "longitude": 5.029167,
    "code_commune": 3420
  },
  {
    "name_fr": "Ksour",
    "name_ar": "القصور",
    "wilaya_code": 34,
    "daira": "El Hamadia",
    "postal_code": "34016",
    "latitude": 35.98333333,
    "longitude": 4.597778,
    "code_commune": 3422
  },
  {
    "name_fr": "Mansoura",
    "name_ar": "المنصورة",
    "wilaya_code": 34,
    "daira": "Mansoura",
    "postal_code": "34021",
    "latitude": 36.08725,
    "longitude": 4.46,
    "code_commune": 3404
  },
  {
    "name_fr": "Medjana",
    "name_ar": "مجانة",
    "wilaya_code": 34,
    "daira": "Medjana",
    "postal_code": "34025",
    "latitude": 36.1319,
    "longitude": 4.669,
    "code_commune": 3413
  },
  {
    "name_fr": "Ouled Brahem",
    "name_ar": "أولاد أبراهم",
    "wilaya_code": 34,
    "daira": "Ras El Oued",
    "postal_code": "34005",
    "latitude": 35.8733817,
    "longitude": 5.074722222,
    "code_commune": 3417
  },
  {
    "name_fr": "Ouled Dahmane",
    "name_ar": "أولاد دحمان",
    "wilaya_code": 34,
    "daira": "Bordj Zemoura",
    "postal_code": "34028",
    "latitude": 36.3667,
    "longitude": 4.77,
    "code_commune": 3418
  },
  {
    "name_fr": "Ouled Sidi-Brahim",
    "name_ar": "أولاد سيدي ابراهيم",
    "wilaya_code": 34,
    "daira": "Mansoura",
    "postal_code": "34022",
    "latitude": 36.228056,
    "longitude": 4.335556,
    "code_commune": 3423
  },
  {
    "name_fr": "Rabta",
    "name_ar": "الرابطة",
    "wilaya_code": 34,
    "daira": "El Hamadia",
    "postal_code": "34017",
    "latitude": 35.9227778,
    "longitude": 4.78119,
    "code_commune": 3433
  },
  {
    "name_fr": "Ras El Oued",
    "name_ar": "رأس الوادي",
    "wilaya_code": 34,
    "daira": "Ras El Oued",
    "postal_code": "34100",
    "latitude": 35.94972222,
    "longitude": 5.033333333,
    "code_commune": 3402
  },
  {
    "name_fr": "Sidi-Embarek",
    "name_ar": "سيدي أمبارك",
    "wilaya_code": 34,
    "daira": "Bir Kasdali",
    "postal_code": "34013",
    "latitude": 36.1039,
    "longitude": 4.91188,
    "code_commune": 3410
  },
  {
    "name_fr": "Taglait",
    "name_ar": "تقلعيت",
    "wilaya_code": 34,
    "daira": "Bordj Ghedir",
    "postal_code": "34010",
    "latitude": 35.771667,
    "longitude": 4.999722222,
    "code_commune": 3421
  },
  {
    "name_fr": "Tassamert",
    "name_ar": "تسامرت",
    "wilaya_code": 34,
    "daira": "Bordj Zemoura",
    "postal_code": "34029",
    "latitude": 36.27131,
    "longitude": 4.82184,
    "code_commune": 3429
  },
  {
    "name_fr": "Tefreg",
    "name_ar": "تفرق",
    "wilaya_code": 34,
    "daira": "Djaafra",
    "postal_code": "34033",
    "latitude": 36.425556,
    "longitude": 4.713889,
    "code_commune": 3424
  },
  {
    "name_fr": "Teniet En Nasr",
    "name_ar": "ثنية النصر",
    "wilaya_code": 34,
    "daira": "Medjana",
    "postal_code": "34026",
    "latitude": 36.08333333,
    "longitude": 4.601111,
    "code_commune": 3414
  },
  {
    "name_fr": "Tixter",
    "name_ar": "تيكستار",
    "wilaya_code": 34,
    "daira": "Aïn Taghrout",
    "postal_code": "34002",
    "latitude": 36.0475,
    "longitude": 4.654722222,
    "code_commune": 3426
  },
  {
    "name_fr": "Afir",
    "name_ar": "أعفير",
    "wilaya_code": 35,
    "daira": "Dellys",
    "postal_code": "35016",
    "latitude": 36.7675,
    "longitude": 3.702778,
    "code_commune": 3503
  },
  {
    "name_fr": "Ammal",
    "name_ar": "عمال",
    "wilaya_code": 35,
    "daira": "Thenia",
    "postal_code": "35030",
    "latitude": 36.6333333,
    "longitude": 3.5861111,
    "code_commune": 3524
  },
  {
    "name_fr": "Baghlia",
    "name_ar": "بغلية",
    "wilaya_code": 35,
    "daira": "Baghlia",
    "postal_code": "35003",
    "latitude": 36.81694,
    "longitude": 3.8757119,
    "code_commune": 3505
  },
  {
    "name_fr": "Ben Choud",
    "name_ar": "بن شود",
    "wilaya_code": 35,
    "daira": "Dellys",
    "postal_code": "35017",
    "latitude": 36.8623517,
    "longitude": 3.8805771,
    "code_commune": 3522
  },
  {
    "name_fr": "Beni Amrane",
    "name_ar": "بني عمران",
    "wilaya_code": 35,
    "daira": "Thenia",
    "postal_code": "35031",
    "latitude": 36.66774,
    "longitude": 3.591944444,
    "code_commune": 3525
  },
  {
    "name_fr": "Bordj Menaiel",
    "name_ar": "برج منايل",
    "wilaya_code": 35,
    "daira": "Bordj Menaiel",
    "postal_code": "35100",
    "latitude": 36.741667,
    "longitude": 3.7175665,
    "code_commune": 3504
  },
  {
    "name_fr": "Boudouaou",
    "name_ar": "بودواو",
    "wilaya_code": 35,
    "daira": "Boudouaou",
    "postal_code": "35200",
    "latitude": 36.72735,
    "longitude": 3.40995,
    "code_commune": 3502
  },
  {
    "name_fr": "Boudouaou El Bahri",
    "name_ar": "بودواو البحري",
    "wilaya_code": 35,
    "daira": "Boudouaou",
    "postal_code": "35007",
    "latitude": 36.7732001,
    "longitude": 3.3872711,
    "code_commune": 3527
  },
  {
    "name_fr": "Boumerdes",
    "name_ar": "بومرداس",
    "wilaya_code": 35,
    "daira": "Boumerdès",
    "postal_code": "35000",
    "latitude": 36.766,
    "longitude": 3.477,
    "code_commune": 3501
  },
  {
    "name_fr": "Bouzegza Keddara",
    "name_ar": "بوزقزة قدارة",
    "wilaya_code": 35,
    "daira": "Boudouaou",
    "postal_code": "35009",
    "latitude": 36.625278,
    "longitude": 3.479444,
    "code_commune": 3519
  },
  {
    "name_fr": "Chabet El Ameur",
    "name_ar": "شعبة العامر",
    "wilaya_code": 35,
    "daira": "Isser",
    "postal_code": "35025",
    "latitude": 36.63709,
    "longitude": 3.6833333,
    "code_commune": 3513
  },
  {
    "name_fr": "Corso",
    "name_ar": "قورصو",
    "wilaya_code": 35,
    "daira": "Boumerdès",
    "postal_code": "35001",
    "latitude": 36.75096,
    "longitude": 3.4682054,
    "code_commune": 3516
  },
  {
    "name_fr": "Dellys",
    "name_ar": "دلس",
    "wilaya_code": 35,
    "daira": "Dellys",
    "postal_code": "35300",
    "latitude": 36.913272,
    "longitude": 3.914094,
    "code_commune": 3523
  },
  {
    "name_fr": "Djinet",
    "name_ar": "جنات",
    "wilaya_code": 35,
    "daira": "Bordj Menaiel",
    "postal_code": "35014",
    "latitude": 36.8779905,
    "longitude": 3.7205,
    "code_commune": 3508
  },
  {
    "name_fr": "El Kharrouba",
    "name_ar": "الخروبة",
    "wilaya_code": 35,
    "daira": "Boudouaou",
    "postal_code": "35008",
    "latitude": 36.6576809,
    "longitude": 3.406389,
    "code_commune": 3532
  },
  {
    "name_fr": "Hammedi",
    "name_ar": "حمادي",
    "wilaya_code": 35,
    "daira": "Khemis El Khechna",
    "postal_code": "35021",
    "latitude": 36.676944,
    "longitude": 3.2633918,
    "code_commune": 3530
  },
  {
    "name_fr": "Isser",
    "name_ar": "يسر",
    "wilaya_code": 35,
    "daira": "Isser",
    "postal_code": "35500",
    "latitude": 36.706667,
    "longitude": 3.671389,
    "code_commune": 3509
  },
  {
    "name_fr": "Khemis El Khechna",
    "name_ar": "خميس الخشنة",
    "wilaya_code": 35,
    "daira": "Khemis El Khechna",
    "postal_code": "35400",
    "latitude": 36.65,
    "longitude": 3.3308,
    "code_commune": 3531
  },
  {
    "name_fr": "Larbatache",
    "name_ar": "الاربعطاش",
    "wilaya_code": 35,
    "daira": "Khemis El Khechna",
    "postal_code": "35020",
    "latitude": 36.6368081,
    "longitude": 3.3718774,
    "code_commune": 3518
  },
  {
    "name_fr": "Leghata",
    "name_ar": "لقاطة",
    "wilaya_code": 35,
    "daira": "Bordj Menaiel",
    "postal_code": "35013",
    "latitude": 36.7461111,
    "longitude": 3.683056,
    "code_commune": 3529
  },
  {
    "name_fr": "Naciria",
    "name_ar": "الناصرية",
    "wilaya_code": 35,
    "daira": "Naciria",
    "postal_code": "35026",
    "latitude": 36.7475,
    "longitude": 3.833333,
    "code_commune": 3507
  },
  {
    "name_fr": "Ouled Aissa",
    "name_ar": "أولاد عيسى",
    "wilaya_code": 35,
    "daira": "Naciria",
    "postal_code": "35027",
    "latitude": 36.806667,
    "longitude": 3.81431,
    "code_commune": 3521
  },
  {
    "name_fr": "Ouled Hedadj",
    "name_ar": "أولاد هداج",
    "wilaya_code": 35,
    "daira": "Boudouaou",
    "postal_code": "35010",
    "latitude": 36.7130535,
    "longitude": 3.35,
    "code_commune": 3528
  },
  {
    "name_fr": "Ouled Moussa",
    "name_ar": "أولاد موسى",
    "wilaya_code": 35,
    "daira": "Khemis El Khechna",
    "postal_code": "35019",
    "latitude": 36.6857409,
    "longitude": 3.3892894,
    "code_commune": 3517
  },
  {
    "name_fr": "Si Mustapha",
    "name_ar": "سي مصطفى",
    "wilaya_code": 35,
    "daira": "Isser",
    "postal_code": "35023",
    "latitude": 36.7247,
    "longitude": 3.615306,
    "code_commune": 3511
  },
  {
    "name_fr": "Sidi Daoud",
    "name_ar": "سيدي داود",
    "wilaya_code": 35,
    "daira": "Baghlia",
    "postal_code": "35004",
    "latitude": 36.85,
    "longitude": 3.85,
    "code_commune": 3506
  },
  {
    "name_fr": "Souk El Had",
    "name_ar": "سوق الحد",
    "wilaya_code": 35,
    "daira": "Thenia",
    "postal_code": "35029",
    "latitude": 36.7214044,
    "longitude": 3.583333333,
    "code_commune": 3526
  },
  {
    "name_fr": "Taourga",
    "name_ar": "تاورقة",
    "wilaya_code": 35,
    "daira": "Baghlia",
    "postal_code": "35005",
    "latitude": 36.7939,
    "longitude": 3.95034,
    "code_commune": 3520
  },
  {
    "name_fr": "Thenia",
    "name_ar": "الثنية",
    "wilaya_code": 35,
    "daira": "Thenia",
    "postal_code": "35600",
    "latitude": 36.7254,
    "longitude": 3.553889,
    "code_commune": 3514
  },
  {
    "name_fr": "Tidjelabine",
    "name_ar": "تيجلابين",
    "wilaya_code": 35,
    "daira": "Boumerdès",
    "postal_code": "35002",
    "latitude": 36.7305,
    "longitude": 3.49482,
    "code_commune": 3512
  },
  {
    "name_fr": "Timezrit",
    "name_ar": "تيمزريت",
    "wilaya_code": 35,
    "daira": "Isser",
    "postal_code": "35024",
    "latitude": 36.673333,
    "longitude": 3.806389,
    "code_commune": 3515
  },
  {
    "name_fr": "Zemmouri",
    "name_ar": "زموري",
    "wilaya_code": 35,
    "daira": "Bordj Menaiel",
    "postal_code": "35012",
    "latitude": 36.783333,
    "longitude": 3.6036,
    "code_commune": 3510
  },
  {
    "name_fr": "Ain El Assel",
    "name_ar": "عين العسل",
    "wilaya_code": 36,
    "daira": "El Tarf",
    "postal_code": "36001",
    "latitude": 36.7947505,
    "longitude": 8.4293891,
    "code_commune": 3606
  },
  {
    "name_fr": "Ain Kerma",
    "name_ar": "عين الكرمة",
    "wilaya_code": 36,
    "daira": "Bouhadjar",
    "postal_code": "36018",
    "latitude": 36.5644539,
    "longitude": 8.201111,
    "code_commune": 3621
  },
  {
    "name_fr": "Asfour",
    "name_ar": "عصفور",
    "wilaya_code": 36,
    "daira": "Besbes",
    "postal_code": "36012",
    "latitude": 36.674167,
    "longitude": 7.7428056,
    "code_commune": 3617
  },
  {
    "name_fr": "Ben M Hidi",
    "name_ar": "بن مهيدي",
    "wilaya_code": 36,
    "daira": "Ben Mehidi",
    "postal_code": "36008",
    "latitude": 36.77501471,
    "longitude": 7.905594528,
    "code_commune": 3603
  },
  {
    "name_fr": "Berrihane",
    "name_ar": "بريحان",
    "wilaya_code": 36,
    "daira": "Ben Mehidi",
    "postal_code": "36010",
    "latitude": 36.83722222,
    "longitude": 8.068343,
    "code_commune": 3610
  },
  {
    "name_fr": "Besbes",
    "name_ar": "البسباس",
    "wilaya_code": 36,
    "daira": "Besbes",
    "postal_code": "36200",
    "latitude": 36.702222,
    "longitude": 7.847222,
    "code_commune": 3616
  },
  {
    "name_fr": "Bougous",
    "name_ar": "بوقوس",
    "wilaya_code": 36,
    "daira": "El Tarf",
    "postal_code": "36002",
    "latitude": 36.758056,
    "longitude": 8.369444,
    "code_commune": 3604
  },
  {
    "name_fr": "Bouhadjar",
    "name_ar": "بوحجار",
    "wilaya_code": 36,
    "daira": "Bouhadjar",
    "postal_code": "36400",
    "latitude": 36.5034174,
    "longitude": 8.110556,
    "code_commune": 3602
  },
  {
    "name_fr": "Bouteldja",
    "name_ar": "بوثلجة",
    "wilaya_code": 36,
    "daira": "Bouteldja",
    "postal_code": "36021",
    "latitude": 36.85,
    "longitude": 8.2024232,
    "code_commune": 3608
  },
  {
    "name_fr": "Chebaita Mokhtar",
    "name_ar": "شبيطة مختار",
    "wilaya_code": 36,
    "daira": "Drean",
    "postal_code": "36015",
    "latitude": 36.755843,
    "longitude": 7.741667,
    "code_commune": 3615
  },
  {
    "name_fr": "Chefia",
    "name_ar": "الشافية",
    "wilaya_code": 36,
    "daira": "Bouteldja",
    "postal_code": "36023",
    "latitude": 36.611111,
    "longitude": 8.1632766,
    "code_commune": 3612
  },
  {
    "name_fr": "Chihani",
    "name_ar": "شحاني",
    "wilaya_code": 36,
    "daira": "Drean",
    "postal_code": "36016",
    "latitude": 36.646944,
    "longitude": 7.775556,
    "code_commune": 3614
  },
  {
    "name_fr": "Drean",
    "name_ar": "الذرعـان",
    "wilaya_code": 36,
    "daira": "Drean",
    "postal_code": "36300",
    "latitude": 36.68333333,
    "longitude": 7.75,
    "code_commune": 3613
  },
  {
    "name_fr": "Echatt",
    "name_ar": "الشط",
    "wilaya_code": 36,
    "daira": "Ben Mehidi",
    "postal_code": "36009",
    "latitude": 36.830278,
    "longitude": 7.872,
    "code_commune": 3618
  },
  {
    "name_fr": "El Aioun",
    "name_ar": "العيون",
    "wilaya_code": 36,
    "daira": "El Kala",
    "postal_code": "36007",
    "latitude": 36.827222,
    "longitude": 8.6,
    "code_commune": 3607
  },
  {
    "name_fr": "El Kala",
    "name_ar": "القالة",
    "wilaya_code": 36,
    "daira": "El Kala",
    "postal_code": "36100",
    "latitude": 36.8956,
    "longitude": 8.4433,
    "code_commune": 3605
  },
  {
    "name_fr": "El Tarf",
    "name_ar": "الطارف",
    "wilaya_code": 36,
    "daira": "El Tarf",
    "postal_code": "36000",
    "latitude": 36.7667186,
    "longitude": 8.317,
    "code_commune": 3601
  },
  {
    "name_fr": "Hammam Beni Salah",
    "name_ar": "حمام بني صالح",
    "wilaya_code": 36,
    "daira": "Bouhadjar",
    "postal_code": "36020",
    "latitude": 36.51972222,
    "longitude": 7.9810845,
    "code_commune": 3623
  },
  {
    "name_fr": "Lac Des Oiseaux",
    "name_ar": "بحيرة الطيور",
    "wilaya_code": 36,
    "daira": "Bouteldja",
    "postal_code": "36022",
    "latitude": 36.775556,
    "longitude": 8.1180556,
    "code_commune": 3611
  },
  {
    "name_fr": "Oued Zitoun",
    "name_ar": "وادي الزيتون",
    "wilaya_code": 36,
    "daira": "Bouhadjar",
    "postal_code": "36019",
    "latitude": 36.466111,
    "longitude": 8.0575,
    "code_commune": 3622
  },
  {
    "name_fr": "Raml Souk",
    "name_ar": "رمل السوق",
    "wilaya_code": 36,
    "daira": "El Kala",
    "postal_code": "36006",
    "latitude": 36.786111,
    "longitude": 8.535556,
    "code_commune": 3624
  },
  {
    "name_fr": "Souarekh",
    "name_ar": "السوارخ",
    "wilaya_code": 36,
    "daira": "El Kala",
    "postal_code": "36005",
    "latitude": 36.88194444,
    "longitude": 8.564167,
    "code_commune": 3609
  },
  {
    "name_fr": "Zerizer",
    "name_ar": "زريزر",
    "wilaya_code": 36,
    "daira": "Besbes",
    "postal_code": "36013",
    "latitude": 36.727222,
    "longitude": 7.894722,
    "code_commune": 3619
  },
  {
    "name_fr": "Zitouna",
    "name_ar": "الزيتونة",
    "wilaya_code": 36,
    "daira": "El Tarf",
    "postal_code": "36003",
    "latitude": 36.668056,
    "longitude": 8.2346,
    "code_commune": 3620
  },
  {
    "name_fr": "Oum El Assel",
    "name_ar": "أم العسل",
    "wilaya_code": 37,
    "daira": "Tindouf",
    "postal_code": "37010",
    "latitude": 28.6125,
    "longitude": -6.978889,
    "code_commune": 3702
  },
  {
    "name_fr": "Tindouf",
    "name_ar": "تندوف",
    "wilaya_code": 37,
    "daira": "Tindouf",
    "postal_code": "37000",
    "latitude": 27.670556,
    "longitude": -8.12724,
    "code_commune": 3701
  },
  {
    "name_fr": "Ammari",
    "name_ar": "عماري",
    "wilaya_code": 38,
    "daira": "Ammari",
    "postal_code": "38002",
    "latitude": 35.5771,
    "longitude": 1.6623,
    "code_commune": 3813
  },
  {
    "name_fr": "Beni Chaib",
    "name_ar": "بني شعيب",
    "wilaya_code": 38,
    "daira": "Bordj Bou Naama",
    "postal_code": "38006",
    "latitude": 35.820278,
    "longitude": 1.7995306,
    "code_commune": 3805
  },
  {
    "name_fr": "Beni Lahcene",
    "name_ar": "بني لحسن",
    "wilaya_code": 38,
    "daira": "Bordj Bou Naama",
    "postal_code": "38007",
    "latitude": 35.8517,
    "longitude": 1.624722222,
    "code_commune": 3822
  },
  {
    "name_fr": "Bordj Bounaama",
    "name_ar": "برج بونعامة",
    "wilaya_code": 38,
    "daira": "Bordj Bou Naama",
    "postal_code": "38005",
    "latitude": 35.8505025,
    "longitude": 1.6170851,
    "code_commune": 3802
  },
  {
    "name_fr": "Bordj El Emir Abdelkader",
    "name_ar": "برج الأمير عبد القادر",
    "wilaya_code": 38,
    "daira": "Bordj El Emir Abdelkader",
    "postal_code": "38009",
    "latitude": 35.8652978,
    "longitude": 2.2674341,
    "code_commune": 3809
  },
  {
    "name_fr": "Boucaid",
    "name_ar": "بوقائد",
    "wilaya_code": 38,
    "daira": "Lazharia",
    "postal_code": "38018",
    "latitude": 35.890278,
    "longitude": 1.61978,
    "code_commune": 3821
  },
  {
    "name_fr": "Khemisti",
    "name_ar": "خميستي",
    "wilaya_code": 38,
    "daira": "Khemisti",
    "postal_code": "38011",
    "latitude": 35.6667,
    "longitude": 1.95,
    "code_commune": 3811
  },
  {
    "name_fr": "Larbaa",
    "name_ar": "الأربعاء",
    "wilaya_code": 38,
    "daira": "Lazharia",
    "postal_code": "38019",
    "latitude": 35.937222,
    "longitude": 1.475277,
    "code_commune": 3816
  },
  {
    "name_fr": "Lardjem",
    "name_ar": "لرجام",
    "wilaya_code": 38,
    "daira": "Lardjem",
    "postal_code": "38013",
    "latitude": 35.7495,
    "longitude": 1.5485,
    "code_commune": 3806
  },
  {
    "name_fr": "Layoune",
    "name_ar": "العيون",
    "wilaya_code": 38,
    "daira": "Khemisti",
    "postal_code": "38012",
    "latitude": 35.6967,
    "longitude": 1.99664,
    "code_commune": 3810
  },
  {
    "name_fr": "Lazharia",
    "name_ar": "الأزهرية",
    "wilaya_code": 38,
    "daira": "Lazharia",
    "postal_code": "38017",
    "latitude": 35.93722222,
    "longitude": 1.56,
    "code_commune": 3804
  },
  {
    "name_fr": "Maacem",
    "name_ar": "المعاصم",
    "wilaya_code": 38,
    "daira": "Ammari",
    "postal_code": "38003",
    "latitude": 35.659722,
    "longitude": 1.603611,
    "code_commune": 3817
  },
  {
    "name_fr": "Melaab",
    "name_ar": "الملعب",
    "wilaya_code": 38,
    "daira": "Lardjem",
    "postal_code": "38014",
    "latitude": 35.7495,
    "longitude": 1.3325,
    "code_commune": 3807
  },
  {
    "name_fr": "Ouled Bessam",
    "name_ar": "أولاد بسام",
    "wilaya_code": 38,
    "daira": "Tissemsilt",
    "postal_code": "38001",
    "latitude": 35.686389,
    "longitude": 1.864167,
    "code_commune": 3812
  },
  {
    "name_fr": "Sidi Abed",
    "name_ar": "سيدي عابد",
    "wilaya_code": 38,
    "daira": "Ammari",
    "postal_code": "38004",
    "latitude": 35.745278,
    "longitude": 1.705,
    "code_commune": 3818
  },
  {
    "name_fr": "Sidi Boutouchent",
    "name_ar": "سيدي بوتوشنت",
    "wilaya_code": 38,
    "daira": "Theniet El Had",
    "postal_code": "38021",
    "latitude": 35.825278,
    "longitude": 1.95138889,
    "code_commune": 3815
  },
  {
    "name_fr": "Sidi Lantri",
    "name_ar": "سيدي العنتري",
    "wilaya_code": 38,
    "daira": "Lardjem",
    "postal_code": "38015",
    "latitude": 35.70139,
    "longitude": 1.40223,
    "code_commune": 3808
  },
  {
    "name_fr": "Sidi Slimane",
    "name_ar": "سيدي سليمان",
    "wilaya_code": 38,
    "daira": "Bordj Bou Naama",
    "postal_code": "38008",
    "latitude": 35.86,
    "longitude": 1.833333333,
    "code_commune": 3820
  },
  {
    "name_fr": "Tamellahet",
    "name_ar": "تملاحت",
    "wilaya_code": 38,
    "daira": "Lardjem",
    "postal_code": "38016",
    "latitude": 35.711111,
    "longitude": 1.631944444,
    "code_commune": 3819
  },
  {
    "name_fr": "Theniet El Had",
    "name_ar": "ثنية الاحد",
    "wilaya_code": 38,
    "daira": "Theniet El Had",
    "postal_code": "38100",
    "latitude": 35.87111,
    "longitude": 2.01670828,
    "code_commune": 3803
  },
  {
    "name_fr": "Tissemsilt",
    "name_ar": "تيسمسيلت",
    "wilaya_code": 38,
    "daira": "Tissemsilt",
    "postal_code": "38000",
    "latitude": 35.60722,
    "longitude": 1.8108,
    "code_commune": 3801
  },
  {
    "name_fr": "Youssoufia",
    "name_ar": "اليوسفية",
    "wilaya_code": 38,
    "daira": "Bordj El Emir Abdelkader",
    "postal_code": "38010",
    "latitude": 35.948056,
    "longitude": 2.112778,
    "code_commune": 3814
  },
  {
    "name_fr": "Bayadha",
    "name_ar": "البياضة",
    "wilaya_code": 39,
    "daira": "Bayadha",
    "postal_code": "39006",
    "latitude": 33.334444,
    "longitude": 6.8885733,
    "code_commune": 3904
  },
  {
    "name_fr": "Ben Guecha",
    "name_ar": "بن قشة",
    "wilaya_code": 39,
    "daira": "Taleb Larbi",
    "postal_code": "39018",
    "latitude": 33.3551532,
    "longitude": 7.1517,
    "code_commune": 3919
  },
  {
    "name_fr": "Debila",
    "name_ar": "الدبيلة",
    "wilaya_code": 39,
    "daira": "Debila",
    "postal_code": "39200",
    "latitude": 33.51667,
    "longitude": 6.95,
    "code_commune": 3911
  },
  {
    "name_fr": "Douar El Maa",
    "name_ar": "دوار الماء",
    "wilaya_code": 39,
    "daira": "Taleb Larbi",
    "postal_code": "39017",
    "latitude": 33.372222,
    "longitude": 7.686111,
    "code_commune": 3915
  },
  {
    "name_fr": "El Ogla",
    "name_ar": "العقلة",
    "wilaya_code": 39,
    "daira": "Robbah",
    "postal_code": "39004",
    "latitude": 33.246667,
    "longitude": 6.95,
    "code_commune": 3925
  },
  {
    "name_fr": "El-Oued",
    "name_ar": "الوادي",
    "wilaya_code": 39,
    "daira": "El Oued",
    "postal_code": "39000",
    "latitude": 33.36111111,
    "longitude": 6.8605556,
    "code_commune": 3901
  },
  {
    "name_fr": "Guemar",
    "name_ar": "قمار",
    "wilaya_code": 39,
    "daira": "Guemar",
    "postal_code": "39100",
    "latitude": 33.5,
    "longitude": 6.7977914,
    "code_commune": 3906
  },
  {
    "name_fr": "Hamraia",
    "name_ar": "الحمراية",
    "wilaya_code": 39,
    "daira": "Reguiba",
    "postal_code": "39011",
    "latitude": 34.110833,
    "longitude": 6.2305556,
    "code_commune": 3909
  },
  {
    "name_fr": "Hassani Abdelkrim",
    "name_ar": "حساني عبد الكريم",
    "wilaya_code": 39,
    "daira": "Debila",
    "postal_code": "39013",
    "latitude": 33.477222,
    "longitude": 6.895,
    "code_commune": 3912
  },
  {
    "name_fr": "Hassi Khalifa",
    "name_ar": "حاسي خليفة",
    "wilaya_code": 39,
    "daira": "Hassi Khalifa",
    "postal_code": "39300",
    "latitude": 33.562222,
    "longitude": 6.990278,
    "code_commune": 3913
  },
  {
    "name_fr": "Kouinine",
    "name_ar": "كوينين",
    "wilaya_code": 39,
    "daira": "El Oued",
    "postal_code": "39001",
    "latitude": 33.4037855,
    "longitude": 6.8264542,
    "code_commune": 3907
  },
  {
    "name_fr": "Magrane",
    "name_ar": "المقرن",
    "wilaya_code": 39,
    "daira": "Magrane",
    "postal_code": "39020",
    "latitude": 33.4998054,
    "longitude": 6.930278,
    "code_commune": 3918
  },
  {
    "name_fr": "Mih Ouansa",
    "name_ar": "اميه وانسة",
    "wilaya_code": 39,
    "daira": "Mih Ouansa",
    "postal_code": "39021",
    "latitude": 33.158611,
    "longitude": 6.716944,
    "code_commune": 3926
  },
  {
    "name_fr": "Nakhla",
    "name_ar": "النخلة",
    "wilaya_code": 39,
    "daira": "Robbah",
    "postal_code": "39003",
    "latitude": 33.2806326,
    "longitude": 6.878889,
    "code_commune": 3905
  },
  {
    "name_fr": "Oued El Alenda",
    "name_ar": "وادي العلندة",
    "wilaya_code": 39,
    "daira": "Mih Ouansa",
    "postal_code": "39005",
    "latitude": 33.228889,
    "longitude": 6.757222,
    "code_commune": 3903
  },
  {
    "name_fr": "Ourmes",
    "name_ar": "ورماس",
    "wilaya_code": 39,
    "daira": "Guemar",
    "postal_code": "39008",
    "latitude": 33.541667,
    "longitude": 6.416667,
    "code_commune": 3920
  },
  {
    "name_fr": "Reguiba",
    "name_ar": "الرقيبة",
    "wilaya_code": 39,
    "daira": "Reguiba",
    "postal_code": "39010",
    "latitude": 33.56391,
    "longitude": 6.703,
    "code_commune": 3908
  },
  {
    "name_fr": "Robbah",
    "name_ar": "الرباح",
    "wilaya_code": 39,
    "daira": "Robbah",
    "postal_code": "39002",
    "latitude": 33.281111,
    "longitude": 6.4166705,
    "code_commune": 3902
  },
  {
    "name_fr": "Sidi Aoun",
    "name_ar": "سيدي عون",
    "wilaya_code": 39,
    "daira": "Magrane",
    "postal_code": "39019",
    "latitude": 33.54212,
    "longitude": 6.905,
    "code_commune": 3916
  },
  {
    "name_fr": "Taghzout",
    "name_ar": "تغزوت",
    "wilaya_code": 39,
    "daira": "Guemar",
    "postal_code": "39009",
    "latitude": 32.966667,
    "longitude": 6.7978,
    "code_commune": 3910
  },
  {
    "name_fr": "Taleb Larbi",
    "name_ar": "الطالب العربي",
    "wilaya_code": 39,
    "daira": "Taleb Larbi",
    "postal_code": "39016",
    "latitude": 33.7275,
    "longitude": 7.517222,
    "code_commune": 3914
  },
  {
    "name_fr": "Trifaoui",
    "name_ar": "الطريفاوي",
    "wilaya_code": 39,
    "daira": "Hassi Khalifa",
    "postal_code": "39015",
    "latitude": 33.42298,
    "longitude": 6.93452,
    "code_commune": 3917
  },
  {
    "name_fr": "Ain Touila",
    "name_ar": "عين الطويلة",
    "wilaya_code": 40,
    "daira": "Aïn Touila",
    "postal_code": "40300",
    "latitude": 35.443611,
    "longitude": 7.466667,
    "code_commune": 4006
  },
  {
    "name_fr": "Babar",
    "name_ar": "بابار",
    "wilaya_code": 40,
    "daira": "Babar",
    "postal_code": "40001",
    "latitude": 35.1691777,
    "longitude": 7.104722,
    "code_commune": 4013
  },
  {
    "name_fr": "Baghai",
    "name_ar": "بغاي",
    "wilaya_code": 40,
    "daira": "El Hamma",
    "postal_code": "40010",
    "latitude": 35.521944,
    "longitude": 7.114444,
    "code_commune": 4004
  },
  {
    "name_fr": "Bouhmama",
    "name_ar": "بوحمامة",
    "wilaya_code": 40,
    "daira": "Bouhmama",
    "postal_code": "40002",
    "latitude": 35.320278,
    "longitude": 6.7466351,
    "code_commune": 4008
  },
  {
    "name_fr": "Chechar",
    "name_ar": "ششار",
    "wilaya_code": 40,
    "daira": "Chechar",
    "postal_code": "40100",
    "latitude": 35.1583333,
    "longitude": 7.01667,
    "code_commune": 4011
  },
  {
    "name_fr": "Chelia",
    "name_ar": "شلية",
    "wilaya_code": 40,
    "daira": "Bouhmama",
    "postal_code": "40003",
    "latitude": 35.364444,
    "longitude": 6.63671,
    "code_commune": 4021
  },
  {
    "name_fr": "Djellal",
    "name_ar": "جلال",
    "wilaya_code": 40,
    "daira": "Chechar",
    "postal_code": "40007",
    "latitude": 34.91925,
    "longitude": 6.9,
    "code_commune": 4012
  },
  {
    "name_fr": "El Hamma",
    "name_ar": "الحامة",
    "wilaya_code": 40,
    "daira": "El Hamma",
    "postal_code": "40200",
    "latitude": 35.466667,
    "longitude": 7.0825,
    "code_commune": 4005
  },
  {
    "name_fr": "El Mahmal",
    "name_ar": "المحمل",
    "wilaya_code": 40,
    "daira": "Ouled Rechache",
    "postal_code": "40017",
    "latitude": 35.37381,
    "longitude": 7.21319,
    "code_commune": 4017
  },
  {
    "name_fr": "El Oueldja",
    "name_ar": "الولجة",
    "wilaya_code": 40,
    "daira": "Chechar",
    "postal_code": "40008",
    "latitude": 34.915833,
    "longitude": 6.680556,
    "code_commune": 4009
  },
  {
    "name_fr": "Ensigha",
    "name_ar": "انسيغة",
    "wilaya_code": 40,
    "daira": "El Hamma",
    "postal_code": "40012",
    "latitude": 35.397222,
    "longitude": 7.143056,
    "code_commune": 4015
  },
  {
    "name_fr": "Kais",
    "name_ar": "قايس",
    "wilaya_code": 40,
    "daira": "Kais",
    "postal_code": "40014",
    "latitude": 35.4946392,
    "longitude": 6.924305,
    "code_commune": 4003
  },
  {
    "name_fr": "Khenchela",
    "name_ar": "خنشلة",
    "wilaya_code": 40,
    "daira": "Khenchela",
    "postal_code": "40000",
    "latitude": 35.4358,
    "longitude": 7.1433,
    "code_commune": 4001
  },
  {
    "name_fr": "Khirane",
    "name_ar": "خيران",
    "wilaya_code": 40,
    "daira": "Chechar",
    "postal_code": "40009",
    "latitude": 34.6667,
    "longitude": 6.7593,
    "code_commune": 4020
  },
  {
    "name_fr": "M'sara",
    "name_ar": "مصارة",
    "wilaya_code": 40,
    "daira": "Bouhmama",
    "postal_code": "40004",
    "latitude": 35.3216667,
    "longitude": 7.1433333,
    "code_commune": 4018
  },
  {
    "name_fr": "M'toussa",
    "name_ar": "متوسة",
    "wilaya_code": 40,
    "daira": "Aïn Touila",
    "postal_code": "40020",
    "latitude": 35.599444,
    "longitude": 7.24497,
    "code_commune": 4002
  },
  {
    "name_fr": "Ouled Rechache",
    "name_ar": "أولاد رشاش",
    "wilaya_code": 40,
    "daira": "Ouled Rechache",
    "postal_code": "40018",
    "latitude": 35.3,
    "longitude": 7.353056,
    "code_commune": 4016
  },
  {
    "name_fr": "Remila",
    "name_ar": "الرميلة",
    "wilaya_code": 40,
    "daira": "Kais",
    "postal_code": "40015",
    "latitude": 35.569444,
    "longitude": 6.9,
    "code_commune": 4010
  },
  {
    "name_fr": "Tamza",
    "name_ar": "طامزة",
    "wilaya_code": 40,
    "daira": "El Hamma",
    "postal_code": "40013",
    "latitude": 35.31491,
    "longitude": 7,
    "code_commune": 4014
  },
  {
    "name_fr": "Taouzianat",
    "name_ar": "تاوزيانت",
    "wilaya_code": 40,
    "daira": "Kais",
    "postal_code": "40016",
    "latitude": 35.511111,
    "longitude": 6.3551522,
    "code_commune": 4007
  },
  {
    "name_fr": "Yabous",
    "name_ar": "يابوس",
    "wilaya_code": 40,
    "daira": "Bouhmama",
    "postal_code": "40005",
    "latitude": 35.405278,
    "longitude": 6.6418,
    "code_commune": 4019
  },
  {
    "name_fr": "Ain Soltane",
    "name_ar": "عين سلطان",
    "wilaya_code": 41,
    "daira": "Sedrata",
    "postal_code": "41017",
    "latitude": 36.178334,
    "longitude": 7.369167,
    "code_commune": 4118
  },
  {
    "name_fr": "Ain Zana",
    "name_ar": "عين الزانة",
    "wilaya_code": 41,
    "daira": "Ouled Driss",
    "postal_code": "41016",
    "latitude": 36.400556,
    "longitude": 8.191111,
    "code_commune": 4117
  },
  {
    "name_fr": "Bir Bouhouche",
    "name_ar": "بئر بوحوش",
    "wilaya_code": 41,
    "daira": "Bir Bou Haouch",
    "postal_code": "41013",
    "latitude": 36.165611,
    "longitude": 7.4667,
    "code_commune": 4114
  },
  {
    "name_fr": "Drea",
    "name_ar": "الدريعة",
    "wilaya_code": 41,
    "daira": "Taoura",
    "postal_code": "41008",
    "latitude": 36.1167,
    "longitude": 7.8833333,
    "code_commune": 4109
  },
  {
    "name_fr": "Haddada",
    "name_ar": "الحدادة",
    "wilaya_code": 41,
    "daira": "Heddada",
    "postal_code": "41009",
    "latitude": 36.23083333,
    "longitude": 8.2725,
    "code_commune": 4110
  },
  {
    "name_fr": "Hanencha",
    "name_ar": "الحنانشة",
    "wilaya_code": 41,
    "daira": "Mechroha",
    "postal_code": "41002",
    "latitude": 36.19119,
    "longitude": 7.887778,
    "code_commune": 4103
  },
  {
    "name_fr": "Khedara",
    "name_ar": "الخضارة",
    "wilaya_code": 41,
    "daira": "Heddada",
    "postal_code": "41010",
    "latitude": 36.195556,
    "longitude": 8.243056712,
    "code_commune": 4111
  },
  {
    "name_fr": "Khemissa",
    "name_ar": "خميسة",
    "wilaya_code": 41,
    "daira": "Sedrata",
    "postal_code": "41022",
    "latitude": 36.193056,
    "longitude": 7.658889,
    "code_commune": 4123
  },
  {
    "name_fr": "M'daourouche",
    "name_ar": "مداوروش",
    "wilaya_code": 41,
    "daira": "M'daourouch",
    "postal_code": "41200",
    "latitude": 36.1218,
    "longitude": 7.819722222,
    "code_commune": 4115
  },
  {
    "name_fr": "Machroha",
    "name_ar": "المشروحة",
    "wilaya_code": 41,
    "daira": "Mechroha",
    "postal_code": "41003",
    "latitude": 36.357222,
    "longitude": 7.9333333,
    "code_commune": 4104
  },
  {
    "name_fr": "Merahna",
    "name_ar": "المراهنة",
    "wilaya_code": 41,
    "daira": "Merahna",
    "postal_code": "41011",
    "latitude": 36.1975,
    "longitude": 8.155,
    "code_commune": 4112
  },
  {
    "name_fr": "Oued Kebrit",
    "name_ar": "وادي الكبريت",
    "wilaya_code": 41,
    "daira": "Oum El Adhaim",
    "postal_code": "41023",
    "latitude": 35.933333,
    "longitude": 7.9170713,
    "code_commune": 4118
  },
  {
    "name_fr": "Ouillen",
    "name_ar": "ويلان",
    "wilaya_code": 41,
    "daira": "Merahna",
    "postal_code": "41018",
    "latitude": 36.195,
    "longitude": 8.064722,
    "code_commune": 4119
  },
  {
    "name_fr": "Ouled Driss",
    "name_ar": "أولاد إدريس",
    "wilaya_code": 41,
    "daira": "Ouled Driss",
    "postal_code": "41004",
    "latitude": 36.35,
    "longitude": 8.0167,
    "code_commune": 4105
  },
  {
    "name_fr": "Ouled Moumen",
    "name_ar": "أولاد مومن",
    "wilaya_code": 41,
    "daira": "Heddada",
    "postal_code": "41012",
    "latitude": 36.3834462,
    "longitude": 8.315833,
    "code_commune": 4113
  },
  {
    "name_fr": "Oum El Adhaim",
    "name_ar": "أم العظايم",
    "wilaya_code": 41,
    "daira": "Oum El Adhaim",
    "postal_code": "41015",
    "latitude": 36.033889,
    "longitude": 7.6025,
    "code_commune": 4116
  },
  {
    "name_fr": "Ragouba",
    "name_ar": "الراقوبة",
    "wilaya_code": 41,
    "daira": "M'daourouch",
    "postal_code": "41021",
    "latitude": 36.125,
    "longitude": 7.666667,
    "code_commune": 4122
  },
  {
    "name_fr": "Safel El Ouiden",
    "name_ar": "سافل الويدان",
    "wilaya_code": 41,
    "daira": "Bir Bou Haouch",
    "postal_code": "41020",
    "latitude": 35.929167,
    "longitude": 7.490278,
    "code_commune": 4121
  },
  {
    "name_fr": "Sedrata",
    "name_ar": "سدراتة",
    "wilaya_code": 41,
    "daira": "Sedrata",
    "postal_code": "41100",
    "latitude": 36.129,
    "longitude": 7.534,
    "code_commune": 4102
  },
  {
    "name_fr": "Sidi Fredj",
    "name_ar": "سيدي فرج",
    "wilaya_code": 41,
    "daira": "Merahna",
    "postal_code": "41019",
    "latitude": 36.1537121,
    "longitude": 8.1952751,
    "code_commune": 4118
  },
  {
    "name_fr": "Souk Ahras",
    "name_ar": "سوق أهراس",
    "wilaya_code": 41,
    "daira": "Souk Ahras",
    "postal_code": "41000",
    "latitude": 36.286389,
    "longitude": 7.950833333,
    "code_commune": 4101
  },
  {
    "name_fr": "Taoura",
    "name_ar": "تاورة",
    "wilaya_code": 41,
    "daira": "Taoura",
    "postal_code": "41007",
    "latitude": 36.17,
    "longitude": 8.04028,
    "code_commune": 4108
  },
  {
    "name_fr": "Terraguelt",
    "name_ar": "ترقالت",
    "wilaya_code": 41,
    "daira": "Oum El Adhaim",
    "postal_code": "41024",
    "latitude": 35.895278,
    "longitude": 7.854045,
    "code_commune": 4125
  },
  {
    "name_fr": "Tiffech",
    "name_ar": "تيفاش",
    "wilaya_code": 41,
    "daira": "M'daourouch",
    "postal_code": "41005",
    "latitude": 36.191667,
    "longitude": 7.786111,
    "code_commune": 4106
  },
  {
    "name_fr": "Zaarouria",
    "name_ar": "الزعرورية",
    "wilaya_code": 41,
    "daira": "Taoura",
    "postal_code": "41006",
    "latitude": 36.227222,
    "longitude": 7.957778,
    "code_commune": 4104
  },
  {
    "name_fr": "Zouabi",
    "name_ar": "الزوابي",
    "wilaya_code": 41,
    "daira": "Bir Bou Haouch",
    "postal_code": "41025",
    "latitude": 36.195556,
    "longitude": 7.441111,
    "code_commune": 4126
  },
  {
    "name_fr": "Aghbal",
    "name_ar": "أغبال",
    "wilaya_code": 42,
    "daira": "Gouraya",
    "postal_code": "42006",
    "latitude": 36.502778,
    "longitude": 1.845833,
    "code_commune": 4210
  },
  {
    "name_fr": "Ahmer El Ain",
    "name_ar": "أحمر العين",
    "wilaya_code": 42,
    "daira": "Ahmar El Ain",
    "postal_code": "42018",
    "latitude": 36.47688,
    "longitude": 2.5693337,
    "code_commune": 4227
  },
  {
    "name_fr": "Ain Tagourait",
    "name_ar": "عين تاقورايت",
    "wilaya_code": 42,
    "daira": "Bou Ismail",
    "postal_code": "42012",
    "latitude": 36.5868863,
    "longitude": 2.5842062,
    "code_commune": 4217
  },
  {
    "name_fr": "Attatba",
    "name_ar": "الحطاطبة",
    "wilaya_code": 42,
    "daira": "Kolea",
    "postal_code": "42024",
    "latitude": 36.57278,
    "longitude": 2.67694,
    "code_commune": 4236
  },
  {
    "name_fr": "Beni Mileuk",
    "name_ar": "بني ميلك",
    "wilaya_code": 42,
    "daira": "Damous",
    "postal_code": "42026",
    "latitude": 36.444444,
    "longitude": 1.716667,
    "code_commune": 4241
  },
  {
    "name_fr": "Bou Haroun",
    "name_ar": "بوهارون",
    "wilaya_code": 42,
    "daira": "Bou Ismail",
    "postal_code": "42019",
    "latitude": 36.62503,
    "longitude": 2.6548,
    "code_commune": 4209
  },
  {
    "name_fr": "Bou Ismail",
    "name_ar": "بواسماعيل",
    "wilaya_code": 42,
    "daira": "Bou Ismail",
    "postal_code": "42500",
    "latitude": 36.64262,
    "longitude": 2.6899362,
    "code_commune": 4226
  },
  {
    "name_fr": "Bourkika",
    "name_ar": "بورقيقة",
    "wilaya_code": 42,
    "daira": "Ahmar El Ain",
    "postal_code": "42004",
    "latitude": 36.4858595,
    "longitude": 2.4764,
    "code_commune": 4205
  },
  {
    "name_fr": "Chaiba",
    "name_ar": "الشعيبة",
    "wilaya_code": 42,
    "daira": "Kolea",
    "postal_code": "42011",
    "latitude": 36.6251,
    "longitude": 2.729167,
    "code_commune": 4216
  },
  {
    "name_fr": "Cherchell",
    "name_ar": "شرشال",
    "wilaya_code": 42,
    "daira": "Cherchell",
    "postal_code": "42200",
    "latitude": 36.605,
    "longitude": 2.19083,
    "code_commune": 4222
  },
  {
    "name_fr": "Damous",
    "name_ar": "الداموس",
    "wilaya_code": 42,
    "daira": "Damous",
    "postal_code": "42300",
    "latitude": 36.5200245,
    "longitude": 1.704167,
    "code_commune": 4223
  },
  {
    "name_fr": "Douaouda",
    "name_ar": "دواودة",
    "wilaya_code": 42,
    "daira": "Fouka",
    "postal_code": "42003",
    "latitude": 36.6737396,
    "longitude": 2.783333,
    "code_commune": 4204
  },
  {
    "name_fr": "Fouka",
    "name_ar": "فوكة",
    "wilaya_code": 42,
    "daira": "Fouka",
    "postal_code": "42400",
    "latitude": 36.6667,
    "longitude": 2.742117,
    "code_commune": 4225
  },
  {
    "name_fr": "Gouraya",
    "name_ar": "قوراية",
    "wilaya_code": 42,
    "daira": "Gouraya",
    "postal_code": "42009",
    "latitude": 36.5675,
    "longitude": 1.905,
    "code_commune": 4202
  },
  {
    "name_fr": "Hadjout",
    "name_ar": "حجوط",
    "wilaya_code": 42,
    "daira": "Hadjout",
    "postal_code": "42100",
    "latitude": 36.51257,
    "longitude": 2.4142888,
    "code_commune": 4212
  },
  {
    "name_fr": "Hadjret Ennous",
    "name_ar": "حجرة النص",
    "wilaya_code": 42,
    "daira": "Cherchell",
    "postal_code": "42027",
    "latitude": 36.573333,
    "longitude": 2.051944,
    "code_commune": 4242
  },
  {
    "name_fr": "Khemisti",
    "name_ar": "خميستي",
    "wilaya_code": 42,
    "daira": "Bou Ismail",
    "postal_code": "42005",
    "latitude": 36.625833,
    "longitude": 2.680833333,
    "code_commune": 4206
  },
  {
    "name_fr": "Kolea",
    "name_ar": "القليعة",
    "wilaya_code": 42,
    "daira": "Kolea",
    "postal_code": "42600",
    "latitude": 36.6389,
    "longitude": 2.768,
    "code_commune": 4235
  },
  {
    "name_fr": "Larhat",
    "name_ar": "الأرهاط",
    "wilaya_code": 42,
    "daira": "Damous",
    "postal_code": "42002",
    "latitude": 36.558,
    "longitude": 1.801388889,
    "code_commune": 4203
  },
  {
    "name_fr": "Menaceur",
    "name_ar": "مناصر",
    "wilaya_code": 42,
    "daira": "Sidi Amar",
    "postal_code": "42001",
    "latitude": 36.492,
    "longitude": 2.240556,
    "code_commune": 4202
  },
  {
    "name_fr": "Merad",
    "name_ar": "مراد",
    "wilaya_code": 42,
    "daira": "Hadjout",
    "postal_code": "42015",
    "latitude": 36.47477,
    "longitude": 2.42625,
    "code_commune": 4224
  },
  {
    "name_fr": "Messelmoun",
    "name_ar": "مسلمون",
    "wilaya_code": 42,
    "daira": "Gouraya",
    "postal_code": "42021",
    "latitude": 36.563056,
    "longitude": 2.0025,
    "code_commune": 4233
  },
  {
    "name_fr": "Nador",
    "name_ar": "الناظور",
    "wilaya_code": 42,
    "daira": "Sidi Amar",
    "postal_code": "42010",
    "latitude": 36.569722,
    "longitude": 2.3123031,
    "code_commune": 4215
  },
  {
    "name_fr": "Sidi Ghiles",
    "name_ar": "سيدي غيلاس",
    "wilaya_code": 42,
    "daira": "Cherchell",
    "postal_code": "42020",
    "latitude": 36.5583006,
    "longitude": 2.1155691,
    "code_commune": 4232
  },
  {
    "name_fr": "Sidi Rached",
    "name_ar": "سيدي راشد",
    "wilaya_code": 42,
    "daira": "Ahmar El Ain",
    "postal_code": "42022",
    "latitude": 36.5625,
    "longitude": 2.533333333,
    "code_commune": 4234
  },
  {
    "name_fr": "Sidi Semiane",
    "name_ar": "سيدي سميان",
    "wilaya_code": 42,
    "daira": "Cherchell",
    "postal_code": "42025",
    "latitude": 36.508611,
    "longitude": 2.063889,
    "code_commune": 4240
  },
  {
    "name_fr": "Sidi-Amar",
    "name_ar": "سيدي عامر",
    "wilaya_code": 42,
    "daira": "Sidi Amar",
    "postal_code": "42008",
    "latitude": 36.5330597,
    "longitude": 2.306389,
    "code_commune": 4213
  },