[
  {
    "name_fr": "Adrar",
    "name_ar": "أدرار",
    "wilaya_code": 1,
    "daira": "Adrar",
    "postal_code": "01000",
    "latitude": 27.87429,
    "longitude": -0.297222,
    "code_commune": 101
  },
  {
    "name_fr": "Akabli",
    "name_ar": "اقبلي",
    "wilaya_code": 1,
    "daira": "Aoulef",
    "postal_code": "01004",
    "latitude": 26.70828,
    "longitude": 0.2833,
    "code_commune": 119
  },
  {
    "name_fr": "Aoulef",
    "name_ar": "أولف",
    "wilaya_code": 1,
    "daira": "Aoulef",
    "postal_code": "01003",
    "latitude": 26.96667,
    "longitude": 1.08333,
    "code_commune": 112
  },
  {
    "name_fr": "Bouda",
    "name_ar": "بودة",
    "wilaya_code": 1,
    "daira": "Adrar",
    "postal_code": "01001",
    "latitude": 28.0142,
    "longitude": -0.50254,
    "code_commune": 122
  },
  {
    "name_fr": "Fenoughil",
    "name_ar": "فنوغيل",
    "wilaya_code": 1,
    "daira": "Fenoughil",
    "postal_code": "01007",
    "latitude": 27.602777,
    "longitude": 0.3,
    "code_commune": 115
  },
  {
    "name_fr": "In Zghmir",
    "name_ar": "إن زغمير",
    "wilaya_code": 1,
    "daira": "Zaouiet Kounta",
    "postal_code": "01015",
    "latitude": 27.09388889,
    "longitude": -0.121,
    "code_commune": 105
  },
  {
    "name_fr": "Ouled Ahmed Timmi",
    "name_ar": "أولاد أحمد تيمي",
    "wilaya_code": 1,
    "daira": null,
    "postal_code": null,
    "latitude": null,
    "longitude": null,
    "code_commune": null
  },
  {
    "name_fr": "Reggane",
    "name_ar": "رقان",
    "wilaya_code": 1,
    "daira": "Reggane",
    "postal_code": "01010",
    "latitude": 26.71576,
    "longitude": 0.1714,
    "code_commune": 104
  },
  {
    "name_fr": "Sali",
    "name_ar": "سالي",
    "wilaya_code": 1,
    "daira": "Reggane",
    "postal_code": "01011",
    "latitude": 26.983333,
    "longitude": -0.0275,
    "code_commune": 118
  },
  {
    "name_fr": "Sebaa",
    "name_ar": "السبع",
    "wilaya_code": 1,
    "daira": "Tsabit",
    "postal_code": "01013",
    "latitude": 28.21194,
    "longitude": -0.175,
    "code_commune": 126
  },
  {
    "name_fr": "Tamantit",
    "name_ar": "تامنطيط",
    "wilaya_code": 1,
    "daira": "Fenoughil",
    "postal_code": "01008",
    "latitude": 27.7605,
    "longitude": -0.266699,
    "code_commune": 114
  },
  {
    "name_fr": "Tamest",
    "name_ar": "تامست",
    "wilaya_code": 1,
    "daira": "Fenoughil",
    "postal_code": "01009",
    "latitude": 27.416666,
    "longitude": 0.2667,
    "code_commune": 102
  },
  {
    "name_fr": "Timekten",
    "name_ar": "تيمقتن",
    "wilaya_code": 1,
    "daira": null,
    "postal_code": null,
    "latitude": null,
    "longitude": null,
    "code_commune": null
  },
  {
    "name_fr": "Tit",
    "name_ar": "تيت",
    "wilaya_code": 1,
    "daira": "Aoulef",
    "postal_code": "01006",
    "latitude": 26.95083333,
    "longitude": 1.015,
    "code_commune": 106
  },
  {
    "name_fr": "Tsabit",
    "name_ar": "تسابيت",
    "wilaya_code": 1,
    "daira": "Tsabit",
    "postal_code": "01012",
    "latitude": 28.35049,
    "longitude": -0.216111,
    "code_commune": 108
  },
  {
    "name_fr": "Zaouiet Kounta",
    "name_ar": "زاوية كنتة",
    "wilaya_code": 1,
    "daira": "Zaouiet Kounta",
    "postal_code": "01014",
    "latitude": 27.22269,
    "longitude": -0.19781,
    "code_commune": 111
  },
  {
    "name_fr": "Abou El Hassane",
    "name_ar": "أبو الحسن",
    "wilaya_code": 2,
    "daira": "Abou El Hassan",
    "postal_code": "02018",
    "latitude": 36.4,
    "longitude": 1.1929114,
    "code_commune": 222
  },
  {
    "name_fr": "Ain Merane",
    "name_ar": "عين مران",
    "wilaya_code": 2,
    "daira": "Aïn Merane",
    "postal_code": "02031",
    "latitude": 36.16277,
    "longitude": 0.97037,
    "code_commune": 232
  },
  {
    "name_fr": "Benairia",
    "name_ar": "بنايرية",
    "wilaya_code": 2,
    "daira": "Zeboudja",
    "postal_code": "02022",
    "latitude": 36.3539,
    "longitude": 1.37403,
    "code_commune": 203
  },
  {
    "name_fr": "Beni  Bouattab",
    "name_ar": "بني بوعتاب",
    "wilaya_code": 2,
    "daira": "El Karimia",
    "postal_code": "02017",
    "latitude": 36.0019469,
    "longitude": 1.6469253,
    "code_commune": 235
  },
  {
    "name_fr": "Beni Haoua",
    "name_ar": "بني حواء",
    "wilaya_code": 2,
    "daira": "Beni Haoua",
    "postal_code": "02026",
    "latitude": 36.5311,
    "longitude": 1.56891,
    "code_commune": 207
  },
  {
    "name_fr": "Beni Rached",
    "name_ar": "بني راشد",
    "wilaya_code": 2,
    "daira": "Oued Fodda",
    "postal_code": "02013",
    "latitude": 36.280556,
    "longitude": 1.516111,
    "code_commune": 213
  },
  {
    "name_fr": "Boukadir",
    "name_ar": "بوقادير",
    "wilaya_code": 2,
    "daira": "Boukadir",
    "postal_code": "02006",
    "latitude": 36.066944,
    "longitude": 1.126,
    "code_commune": 212
  },
  {
    "name_fr": "Bouzeghaia",
    "name_ar": "بوزغاية",
    "wilaya_code": 2,
    "daira": "Zeboudja",
    "postal_code": "02023",
    "latitude": 36.338889,
    "longitude": 1.0503,
    "code_commune": 231
  },
  {
    "name_fr": "Breira",
    "name_ar": "بريرة",
    "wilaya_code": 2,
    "daira": "Beni Haoua",
    "postal_code": "02028",
    "latitude": 36.4488017,
    "longitude": 1.6482,
    "code_commune": 234
  },
  {
    "name_fr": "Chettia",
    "name_ar": "الشطية",
    "wilaya_code": 2,
    "daira": "Ouled Fares",
    "postal_code": "02010",
    "latitude": 36.1589988,
    "longitude": 1.2409799,
    "code_commune": 224
  },
  {
    "name_fr": "Chlef",
    "name_ar": "الشلف",
    "wilaya_code": 2,
    "daira": "Chlef",
    "postal_code": "02000",
    "latitude": 36.1647,
    "longitude": 1.3317,
    "code_commune": 201
  },
  {
    "name_fr": "Dahra",
    "name_ar": "الظهرة",
    "wilaya_code": 2,
    "daira": "Taougrite",
    "postal_code": "02025",
    "latitude": 36.255278,
    "longitude": 0.85174,
    "code_commune": 217
  },
  {
    "name_fr": "El Hadjadj",
    "name_ar": "الحجاج",
    "wilaya_code": 2,
    "daira": "Ouled Ben Abdelkader",
    "postal_code": "02034",
    "latitude": 36.0158333,
    "longitude": 1.3783333,
    "code_commune": 227
  },
  {
    "name_fr": "El Karimia",
    "name_ar": "الكريمية",
    "wilaya_code": 2,
    "daira": "El Karimia",
    "postal_code": "02015",
    "latitude": 36.116111,
    "longitude": 1.55,
    "code_commune": 204
  },
  {
    "name_fr": "El Marsa",
    "name_ar": "المرسى",
    "wilaya_code": 2,
    "daira": "El Marsa",
    "postal_code": "02029",
    "latitude": 36.401579,
    "longitude": 0.9161822,
    "code_commune": 223
  },
  {
    "name_fr": "Harchoun",
    "name_ar": "حرشون",
    "wilaya_code": 2,
    "daira": "El Karimia",
    "postal_code": "02016",
    "latitude": 36.11354,
    "longitude": 1.506,
    "code_commune": 209
  },
  {
    "name_fr": "Herenfa",
    "name_ar": "الهرانفة",
    "wilaya_code": 2,
    "daira": null,
    "postal_code": null,
    "latitude": null,
    "longitude": null,
    "code_commune": null
  },
  {
    "name_fr": "Labiod Medjadja",
    "name_ar": "الأبيض مجاجة",
    "wilaya_code": 2,
    "daira": "Ouled Fares",
    "postal_code": "02011",
    "latitude": 36.2767832,
    "longitude": 1.3855161,
    "code_commune": 228
  },
  {
    "name_fr": "Moussadek",
    "name_ar": "مصدق",
    "wilaya_code": 2,
    "daira": "El Marsa",
    "postal_code": "02030",
    "latitude": 36.3333333,
    "longitude": 0.7303,
    "code_commune": 226
  },
  {
    "name_fr": "Oued Fodda",
    "name_ar": "وادي الفضة",
    "wilaya_code": 2,
    "daira": "Oued Fodda",
    "postal_code": "02012",
    "latitude": 36.183333,
    "longitude": 1.5499211,
    "code_commune": 229
  },
  {
    "name_fr": "Oued Goussine",
    "name_ar": "وادي قوسين",
    "wilaya_code": 2,
    "daira": "Beni Haoua",
    "postal_code": "02027",
    "latitude": 36.525556,
    "longitude": 1.4967,
    "code_commune": 216
  },
  {
    "name_fr": "Oued Sly",
    "name_ar": "وادي سلي",
    "wilaya_code": 2,
    "daira": "Boukadir",
    "postal_code": "02008",
    "latitude": 36.1,
    "longitude": 1.2,
    "code_commune": 221
  },
  {
    "name_fr": "Ouled Abbes",
    "name_ar": "أولاد عباس",
    "wilaya_code": 2,
    "daira": "Oued Fodda",
    "postal_code": "02014",
    "latitude": 36.21909,
    "longitude": 1.483333333,
    "code_commune": 218
  },
  {
    "name_fr": "Ouled Ben Abdelkader",
    "name_ar": "أولاد بن عبد القادر",
    "wilaya_code": 2,
    "daira": "Ouled Ben Abdelkader",
    "postal_code": "02033",
    "latitude": 36.0258,
    "longitude": 1.28,
    "code_commune": 230
  },
  {
    "name_fr": "Ouled Fares",
    "name_ar": "أولاد فارس",
    "wilaya_code": 2,
    "daira": "Ouled Fares",
    "postal_code": "02009",
    "latitude": 36.2316052,
    "longitude": 1.236999,
    "code_commune": 210
  },
  {
    "name_fr": "Oum Drou",
    "name_ar": "أم الدروع",
    "wilaya_code": 2,
    "daira": "Chlef",
    "postal_code": "02002",
    "latitude": 36.2,
    "longitude": 1.3833,
    "code_commune": 233
  },
  {
    "name_fr": "Sendjas",
    "name_ar": "سنجاس",
    "wilaya_code": 2,
    "daira": "Chlef",
    "postal_code": "02001",
    "latitude": 36.0696,
    "longitude": 1.309028,
    "code_commune": 219
  },
  {
    "name_fr": "Sidi Abderrahmane",
    "name_ar": "سيدي عبد الرحمن",
    "wilaya_code": 2,
    "daira": "Ténès",
    "postal_code": "02005",
    "latitude": 36.4922766,
    "longitude": 1.0957418,
    "code_commune": 225
  },
  {
    "name_fr": "Sidi Akkacha",
    "name_ar": "سيدي عكاشة",
    "wilaya_code": 2,
    "daira": "Ténès",
    "postal_code": "02004",
    "latitude": 36.46472,
    "longitude": 1.303,
    "code_commune": 211
  },
  {
    "name_fr": "Sobha",
    "name_ar": "الصبحة",
    "wilaya_code": 2,
    "daira": "Boukadir",
    "postal_code": "02007",
    "latitude": 36.1100346,
    "longitude": 1.110123,
    "code_commune": 208
  },
  {
    "name_fr": "Tadjena",
    "name_ar": "تاجنة",
    "wilaya_code": 2,
    "daira": "Abou El Hassan",
    "postal_code": "02019",
    "latitude": 36.3167,
    "longitude": 1.335167,
    "code_commune": 205
  },
  {
    "name_fr": "Talassa",
    "name_ar": "تلعصة",
    "wilaya_code": 2,
    "daira": "Abou El Hassan",
    "postal_code": "02020",
    "latitude": 36.4288223,
    "longitude": 1.05,
    "code_commune": 214
  },
  {
    "name_fr": "Taougrit",
    "name_ar": "تاوقريت",
    "wilaya_code": 2,
    "daira": "Taougrite",
    "postal_code": "02024",
    "latitude": 36.244723,
    "longitude": 0.922852,
    "code_commune": 206
  },
  {
    "name_fr": "Tenes",
    "name_ar": "تنس",
    "wilaya_code": 2,
    "daira": "Ténès",
    "postal_code": "02003",
    "latitude": 36.509722,
    "longitude": 1.30809,
    "code_commune": 202
  },
  {
    "name_fr": "Zeboudja",
    "name_ar": "الزبوجة",
    "wilaya_code": 2,
    "daira": "Zeboudja",
    "postal_code": "02021",
    "latitude": 36.350527,
    "longitude": 1.430283,
    "code_commune": 220
  },
  {
    "name_fr": "Ain Madhi",
    "name_ar": "عين ماضي",
    "wilaya_code": 3,
    "daira": "Aïn Madhi",
    "postal_code": "03007",
    "latitude": 33.7956,
    "longitude": 2.3052,
    "code_commune": 307
  },
  {
    "name_fr": "Benacer Benchohra",
    "name_ar": "بن ناصر بن شهرة",
    "wilaya_code": 3,
    "daira": "Ksar El Hirane",
    "postal_code": "03002",
    "latitude": 33.751463,
    "longitude": 3.002939,
    "code_commune": 303
  },
  {
    "name_fr": "El Assafia",
    "name_ar": "العسافية",
    "wilaya_code": 3,
    "daira": "Sidi Makhlouf",
    "postal_code": "03004",
    "latitude": 33.8264,
    "longitude": 2.9899,
    "code_commune": 320
  },
  {
    "name_fr": "El Haouaita",
    "name_ar": "الحويطة",
    "wilaya_code": 3,
    "daira": "Aïn Madhi",
    "postal_code": "03010",
    "latitude": 33.645394,
    "longitude": 2.444713,
    "code_commune": 323
  },
  {
    "name_fr": "Hassi Delaa",
    "name_ar": "حاسي الدلاعة",
    "wilaya_code": 3,
    "daira": "Hassi R'Mel",
    "postal_code": "03005",
    "latitude": 33.41742,
    "longitude": 3.55021,
    "code_commune": 305
  },
  {
    "name_fr": "Hassi R'mel",
    "name_ar": "حاسي الرمل",
    "wilaya_code": 3,
    "daira": "Hassi R'Mel",
    "postal_code": "03006",
    "latitude": 32.928,
    "longitude": 3.271,
    "code_commune": 306
  },
  {
    "name_fr": "Kheneg",
    "name_ar": "الخنق",
    "wilaya_code": 3,
    "daira": "Aïn Madhi",
    "postal_code": "03011",
    "latitude": 33.744444,
    "longitude": 2.794,
    "code_commune": 309
  },
  {
    "name_fr": "Ksar El Hirane",
    "name_ar": "قصر الحيران",
    "wilaya_code": 3,
    "daira": "Ksar El Hirane",
    "postal_code": "03001",
    "latitude": 33.788564,
    "longitude": 3.140717,
    "code_commune": 302
  },
  {
    "name_fr": "Laghouat",
    "name_ar": "الأغواط",
    "wilaya_code": 3,
    "daira": "Laghouat",
    "postal_code": "03000",
    "latitude": 33.8,
    "longitude": 2.875,
    "code_commune": 301
  },
  {
    "name_fr": "Sidi Makhlouf",
    "name_ar": "سيدي مخلوف",
    "wilaya_code": 3,
    "daira": "Sidi Makhlouf",
    "postal_code": "03003",
    "latitude": 34.12942,
    "longitude": 3.01436,
    "code_commune": 304
  },
  {
    "name_fr": "Tadjemout",
    "name_ar": "تاجموت",
    "wilaya_code": 3,
    "daira": "Aïn Madhi",
    "postal_code": "03008",
    "latitude": 33.87729,
    "longitude": 2.52113,
    "code_commune": 308
  },
  {
    "name_fr": "Tadjrouna",
    "name_ar": "تاجرونة",
    "wilaya_code": 3,
    "daira": "Aïn Madhi",
    "postal_code": "03009",
    "latitude": 33.503632,
    "longitude": 2.101217,
    "code_commune": 318
  },
  {
    "name_fr": "Ain Babouche",
    "name_ar": "عين ببوش",
    "wilaya_code": 4,
    "daira": "Aïn Babouche",
    "postal_code": "04008",
    "latitude": 35.941111,
    "longitude": 7.1875,
    "code_commune": 408
  },
  {
    "name_fr": "Ain Beida",
    "name_ar": "عين البيضاء",
    "wilaya_code": 4,
    "daira": "Aïn Beïda",
    "postal_code": "04002",
    "latitude": 35.7981327,
    "longitude": 7.3921734,
    "code_commune": 402
  },
  {
    "name_fr": "Ain Diss",
    "name_ar": "عين الديس",
    "wilaya_code": 4,
    "daira": "Aïn Babouche",
    "postal_code": "04009",
    "latitude": 36.03,
    "longitude": 7.8,
    "code_commune": 415
  },
  {
    "name_fr": "Ain Fekroun",
    "name_ar": "عين فكرون",
    "wilaya_code": 4,
    "daira": "Aïn Fakroun",
    "postal_code": "04018",
    "latitude": 35.9711,
    "longitude": 6.8737,
    "code_commune": 425
  },
  {
    "name_fr": "Ain Kercha",
    "name_ar": "عين كرشة",
    "wilaya_code": 4,
    "daira": "Aïn Kercha",
    "postal_code": "04015",
    "latitude": 35.916667,
    "longitude": 6.68333,
    "code_commune": 412
  },
  {
    "name_fr": "Ain M'lila",
    "name_ar": "عين مليلة",
    "wilaya_code": 4,
    "daira": "Aïn M'lila",
    "postal_code": "04005",
    "latitude": 36.03823,
    "longitude": 6.57318,
    "code_commune": 403
  },
  {
    "name_fr": "Ain Zitoun",
    "name_ar": "عين الزيتون",
    "wilaya_code": 4,
    "daira": "Oum El Bouaghi",
    "postal_code": "04001",
    "latitude": 35.684444,
    "longitude": 6.9403,
    "code_commune": 427
  },
  {
    "name_fr": "Behir Chergui",
    "name_ar": "بحير الشرقي",
    "wilaya_code": 4,
    "daira": "Meskiana",
    "postal_code": "04026",
    "latitude": 35.790804,
    "longitude": 7.6833,
    "code_commune": 404
  },
  {
    "name_fr": "Berriche",
    "name_ar": "بريش",
    "wilaya_code": 4,
    "daira": "Aïn Beïda",
    "postal_code": "04004",
    "latitude": 35.795833,
    "longitude": 7.37667,
    "code_commune": 409
  },
  {
    "name_fr": "Bir Chouhada",
    "name_ar": "بئر الشهداء",
    "wilaya_code": 4,
    "daira": "Souk Naamane",
    "postal_code": "04021",
    "latitude": 35.894444,
    "longitude": 6.29,
    "code_commune": 421
  },
  {
    "name_fr": "Dhalaa",
    "name_ar": "الضلعة",
    "wilaya_code": 4,
    "daira": "Dhalaa",
    "postal_code": "04013",
    "latitude": 35.461111,
    "longitude": 7.547222,
    "code_commune": 411
  },
  {
    "name_fr": "El Amiria",
    "name_ar": "العامرية",
    "wilaya_code": 4,
    "daira": "Sigus",
    "postal_code": "04012",
    "latitude": 36.111944,
    "longitude": 6.8822,
    "code_commune": 424
  },
  {
    "name_fr": "El Belala",
    "name_ar": "البلالة",
    "wilaya_code": 4,
    "daira": "Meskiana",
    "postal_code": "04027",
    "latitude": 35.665278,
    "longitude": 7.788333,
    "code_commune": 407
  },
  {
    "name_fr": "El Djazia",
    "name_ar": "الجازية",
    "wilaya_code": 4,
    "daira": "Dhalaa",
    "postal_code": "04014",
    "latitude": 35.663154,
    "longitude": 7.5071271,
    "code_commune": 414
  },
  {
    "name_fr": "El Fedjoudj Boughrara Sa",
    "name_ar": "الفجوج بوغرارة سعودي",
    "wilaya_code": 4,
    "daira": "Aïn Fakroun",
    "postal_code": "04019",
    "latitude": 35.70805,
    "longitude": 6.816944,
    "code_commune": 419
  },
  {
    "name_fr": "El Harmilia",
    "name_ar": "الحرملية",
    "wilaya_code": 4,
    "daira": "Aïn Kercha",
    "postal_code": "04016",
    "latitude": 35.923532,
    "longitude": 6.619263,
    "code_commune": 429
  },
  {
    "name_fr": "Fkirina",
    "name_ar": "فكيرينة",
    "wilaya_code": 4,
    "daira": "Fkirina",
    "postal_code": "04023",
    "latitude": 35.663889,
    "longitude": 7.2989,
    "code_commune": 416
  },
  {
    "name_fr": "Hanchir Toumghani",
    "name_ar": "هنشير تومغني",
    "wilaya_code": 4,
    "daira": "Aïn Kercha",
    "postal_code": "04017",
    "latitude": 35.934722,
    "longitude": 6.7808,
    "code_commune": 413
  },
  {
    "name_fr": "Ksar Sbahi",
    "name_ar": "قصر الصباحي",
    "wilaya_code": 4,
    "daira": "Ksar Sbahi",
    "postal_code": "04010",
    "latitude": 36.0833,
    "longitude": 7.25,
    "code_commune": 422
  },
  {
    "name_fr": "Meskiana",
    "name_ar": "مسكيانة",
    "wilaya_code": 4,
    "daira": "Meskiana",
    "postal_code": "04025",
    "latitude": 35.631,
    "longitude": 7.6669,
    "code_commune": 424
  },
  {
    "name_fr": "Oued Nini",
    "name_ar": "وادي نيني",
    "wilaya_code": 4,
    "daira": "Fkirina",
    "postal_code": "04024",
    "latitude": 35.5722,
    "longitude": 7.298855,
    "code_commune": 423
  },
  {
    "name_fr": "Ouled Gacem",
    "name_ar": "أولاد قاسم",
    "wilaya_code": 4,
    "daira": "Aïn M'lila",
    "postal_code": "04006",
    "latitude": 36.034166,
    "longitude": 6.6658,
    "code_commune": 428
  },
  {
    "name_fr": "Ouled Hamla",
    "name_ar": "أولاد حملة",
    "wilaya_code": 4,
    "daira": "Aïn M'lila",
    "postal_code": "04007",
    "latitude": 36.09042,
    "longitude": 6.46483,
    "code_commune": 410
  },
  {
    "name_fr": "Ouled Zouai",
    "name_ar": "أولاد زواي",
    "wilaya_code": 4,
    "daira": "Souk Naamane",
    "postal_code": "04022",
    "latitude": 35.836111,
    "longitude": 6.506667,
    "code_commune": 420
  },
  {
    "name_fr": "Oum El Bouaghi",
    "name_ar": "أم البواقي",
    "wilaya_code": 4,
    "daira": "Oum El Bouaghi",
    "postal_code": "04000",
    "latitude": 35.8706,
    "longitude": 7.117,
    "code_commune": 401
  },
  {
    "name_fr": "Rahia",
    "name_ar": "الرحية",
    "wilaya_code": 4,
    "daira": "Meskiana",
    "postal_code": "04028",
    "latitude": 35.716667,
    "longitude": 6.933333,
    "code_commune": 426
  },
  {
    "name_fr": "Sigus",
    "name_ar": "سيقوس",
    "wilaya_code": 4,
    "daira": "Sigus",
    "postal_code": "04011",
    "latitude": 36.12361,
    "longitude": 6.7708138,
    "code_commune": 406
  },
  {
    "name_fr": "Souk Naamane",
    "name_ar": "سوق نعمان",
    "wilaya_code": 4,
    "daira": "Souk Naamane",
    "postal_code": "04020",
    "latitude": 35.895833,
    "longitude": 6.389444,
    "code_commune": 417
  },
  {
    "name_fr": "Zorg",
    "name_ar": "الزرق",
    "wilaya_code": 4,
    "daira": "Aïn Beïda",
    "postal_code": "04003",
    "latitude": 35.78777778,
    "longitude": 7.468055,
    "code_commune": 418
  },
  {
    "name_fr": "Ain Djasser",
    "name_ar": "عين جاسر",
    "wilaya_code": 5,
    "daira": "Aïn Djasser",
    "postal_code": "05003",
    "latitude": 35.8308281,
    "longitude": 6.0044121,
    "code_commune": 519
  },
  {
    "name_fr": "Ain Touta",
    "name_ar": "عين التوتة",
    "wilaya_code": 5,
    "daira": "Aïn Touta",
    "postal_code": "05005",
    "latitude": 35.3991089,
    "longitude": 5.9198387,
    "code_commune": 545
  },
  {
    "name_fr": "Ain Yagout",
    "name_ar": "عين ياقوت",
    "wilaya_code": 5,
    "daira": "El Madher",
    "postal_code": "05022",
    "latitude": 35.7746,
    "longitude": 6.41644,
    "code_commune": 522
  },
  {
    "name_fr": "Arris",
    "name_ar": "أريس",
    "wilaya_code": 5,
    "daira": "Arris",
    "postal_code": "05009",
    "latitude": 35.25881,
    "longitude": 6.34706,
    "code_commune": 516
  },
  {
    "name_fr": "Batna",
    "name_ar": "باتنة",
    "wilaya_code": 5,
    "daira": "Batna",
    "postal_code": "05000",
    "latitude": 35.55597,
    "longitude": 6.1741447,
    "code_commune": 501
  },
  {
    "name_fr": "Beni Foudhala El Hakania",
    "name_ar": "بني فضالة الحقانية",
    "wilaya_code": 5,
    "daira": null,
    "postal_code": null,
    "latitude": null,
    "longitude": null,
    "code_commune": null
  },
  {
    "name_fr": "Boulhilat",
    "name_ar": "بولهيلات",
    "wilaya_code": 5,
    "daira": "Chemora",
    "postal_code": "05017",
    "latitude": 35.6752,
    "longitude": 6.6625,
    "code_commune": 560
  },
  {
    "name_fr": "Boumagueur",
    "name_ar": "بومقر",
    "wilaya_code": 5,
    "daira": "N'Gaous",
    "postal_code": "05035",
    "latitude": 35.5052,
    "longitude": 5.5525,
    "code_commune": 541
  },
  {
    "name_fr": "Boumia",
    "name_ar": "بومية",
    "wilaya_code": 5,
    "daira": "El Madher",
    "postal_code": "05023",
    "latitude": 35.677222,
    "longitude": 6.480833,
    "code_commune": 559
  },
  {
    "name_fr": "Bouzina",
    "name_ar": "بوزينة",
    "wilaya_code": 5,
    "daira": "Bouzina",
    "postal_code": "05014",
    "latitude": 35.2698953,
    "longitude": 6.0996978,
    "code_commune": 535
  },
  {
    "name_fr": "Chemora",
    "name_ar": "الشمرة",
    "wilaya_code": 5,
    "daira": "Chemora",
    "postal_code": "05016",
    "latitude": 35.66528,
    "longitude": 6.5011,
    "code_commune": 536
  },
  {
    "name_fr": "Chir",
    "name_ar": "شير",
    "wilaya_code": 5,
    "daira": "Teniet El Abed",
    "postal_code": "05055",
    "latitude": 35.2135627,
    "longitude": 6,
    "code_commune": 552
  },
  {
    "name_fr": "Djerma",
    "name_ar": "جرمة",
    "wilaya_code": 5,
    "daira": "El Madher",
    "postal_code": "05024",
    "latitude": 35.6851412,
    "longitude": 6.3013432,
    "code_commune": 513
  },
  {
    "name_fr": "El Hassi",
    "name_ar": "الحاسي",
    "wilaya_code": 5,
    "daira": "Aïn Djasser",
    "postal_code": "05004",
    "latitude": 35.7227778,
    "longitude": 5.906111,
    "code_commune": 557
  },
  {
    "name_fr": "El Madher",
    "name_ar": "المعذر",
    "wilaya_code": 5,
    "daira": "El Madher",
    "postal_code": "05021",
    "latitude": 35.63121,
    "longitude": 6.369152,
    "code_commune": 507
  },
  {
    "name_fr": "Fesdis",
    "name_ar": "فسديس",
    "wilaya_code": 5,
    "daira": "Batna",
    "postal_code": "05001",
    "latitude": 35.62,
    "longitude": 6.27476,
    "code_commune": 523
  },
  {
    "name_fr": "Foum Toub",
    "name_ar": "فم الطوب",
    "wilaya_code": 5,
    "daira": "Ichmoul",
    "postal_code": "05026",
    "latitude": 35.405,
    "longitude": 6.549721,
    "code_commune": 531
  },
  {
    "name_fr": "Ghassira",
    "name_ar": "غسيرة",
    "wilaya_code": 5,
    "daira": "T'Kout",
    "postal_code": "05060",
    "latitude": 35.2576,
    "longitude": 6.20608,
    "code_commune": 502
  },
  {
    "name_fr": "Gosbat",
    "name_ar": "القصبات",
    "wilaya_code": 5,
    "daira": "Ras El Aioun",
    "postal_code": "05041",
    "latitude": 35.6667,
    "longitude": 5.517,
    "code_commune": 539
  },
  {
    "name_fr": "Guigba",
    "name_ar": "القيقبة",
    "wilaya_code": 5,
    "daira": "Ras El Aioun",
    "postal_code": "05042",
    "latitude": 35.807778,
    "longitude": 6,
    "code_commune": 510
  },
  {
    "name_fr": "Hidoussa",
    "name_ar": "حيدوسة",
    "wilaya_code": 5,
    "daira": "Merouana",
    "postal_code": "05033",
    "latitude": 35.6375,
    "longitude": 5.9375,
    "code_commune": 546
  },
  {
    "name_fr": "Ichemoul",
    "name_ar": "إشمول",
    "wilaya_code": 5,
    "daira": "Ichmoul",
    "postal_code": "05025",
    "latitude": 35.310694,
    "longitude": 6.50382,
    "code_commune": 530
  },
  {
    "name_fr": "Inoughissen",
    "name_ar": "إينوغيسن",
    "wilaya_code": 5,
    "daira": "Ichmoul",
    "postal_code": "05027",
    "latitude": 35.286388,
    "longitude": 6.55,
    "code_commune": 511
  },
  {
    "name_fr": "Kimmel",
    "name_ar": "كيمل",
    "wilaya_code": 5,
    "daira": "T'Kout",
    "postal_code": "05059",
    "latitude": 35.3442,
    "longitude": 6.471658,
    "code_commune": 517
  },
  {
    "name_fr": "Ksar Bellezma",
    "name_ar": "قصر بلزمة",
    "wilaya_code": 5,
    "daira": "Merouana",
    "postal_code": "05032",
    "latitude": 35.67649,
    "longitude": 5.9033,
    "code_commune": 528
  },
  {
    "name_fr": "Larbaa",
    "name_ar": "لارباع",
    "wilaya_code": 5,
    "daira": "Bouzina",
    "postal_code": "05015",
    "latitude": 35.403889,
    "longitude": 6.11124,
    "code_commune": 561
  },
  {
    "name_fr": "Lazrou",
    "name_ar": "لازرو",
    "wilaya_code": 5,
    "daira": "Seriana",
    "postal_code": "05049",
    "latitude": 35.7,
    "longitude": 6.2167,
    "code_commune": 558
  },
  {
    "name_fr": "Lemcene",
    "name_ar": "لمسان",
    "wilaya_code": 5,
    "daira": "Ouled Si Slimane",
    "postal_code": "05039",
    "latitude": null,
    "longitude": null,
    "code_commune": null
  },
  {
    "name_fr": "Maafa",
    "name_ar": "معافة",
    "wilaya_code": 5,
    "daira": "Aïn Touta",
    "postal_code": "05007",
    "latitude": 35.266667,
    "longitude": 5.9198387,
    "code_commune": 503
  },
  {
    "name_fr": "Menaa",
    "name_ar": "منعة",
    "wilaya_code": 5,
    "daira": "Menaa",
    "postal_code": "05028",
    "latitude": 35.1777,
    "longitude": 6.006775,
    "code_commune": 506
  },
  {
    "name_fr": "Merouana",
    "name_ar": "مروانة",
    "wilaya_code": 5,
    "daira": "Merouana",
    "postal_code": "05030",
    "latitude": 35.63106,
    "longitude": 5.91186,
    "code_commune": 504
  },
  {
    "name_fr": "N Gaous",
    "name_ar": "نقاوس",
    "wilaya_code": 5,
    "daira": "N'Gaous",
    "postal_code": "05034",
    "latitude": 35.561836,
    "longitude": 5.610924,
    "code_commune": 509
  },
  {
    "name_fr": "Oued Chaaba",
    "name_ar": "وادي الشعبة",
    "wilaya_code": 5,
    "daira": "Batna",
    "postal_code": "05002",
    "latitude": 35.504722,
    "longitude": 6.07784,
    "code_commune": 537
  },
  {
    "name_fr": "Oued El Ma",
    "name_ar": "وادي الماء",
    "wilaya_code": 5,
    "daira": "Merouana",
    "postal_code": "05031",
    "latitude": 35.64527778,
    "longitude": 5.994722222,
    "code_commune": 533
  },
  {
    "name_fr": "Oued Taga",
    "name_ar": "وادي الطاقة",
    "wilaya_code": 5,
    "daira": "Teniet El Abed",
    "postal_code": "05054",
    "latitude": 35.4205,
    "longitude": 6.23,
    "code_commune": 548
  },
  {
    "name_fr": "Ouled Aouf",
    "name_ar": "أولاد عوف",
    "wilaya_code": 5,
    "daira": "Aïn Touta",
    "postal_code": "05008",
    "latitude": 35.45555556,
    "longitude": 5.756944,
    "code_commune": 540
  },
  {
    "name_fr": "Ouled Fadel",
    "name_ar": "أولاد فاضل",
    "wilaya_code": 5,
    "daira": "Timgad",
    "postal_code": "05057",
    "latitude": 35.4843,
    "longitude": 6.6247,
    "code_commune": 549
  },
  {
    "name_fr": "Ouled Sellem",
    "name_ar": "أولاد سلام",
    "wilaya_code": 5,
    "daira": "Ras El Aioun",
    "postal_code": "05045",
    "latitude": 35.8411857,
    "longitude": 5.8822,
    "code_commune": 520
  },
  {
    "name_fr": "Ouled Si Slimane",
    "name_ar": "أولاد سي سليمان",
    "wilaya_code": 5,
    "daira": "Ouled Si Slimane",
    "postal_code": "05037",
    "latitude": 35.610833,
    "longitude": 5.632777,
    "code_commune": 553
  },
  {
    "name_fr": "Ouyoun El Assafir",
    "name_ar": "عيون العصافير",
    "wilaya_code": 5,
    "daira": "Tazoult",
    "postal_code": "05052",
    "latitude": 35.552203,
    "longitude": 6.3438785,
    "code_commune": 512
  },
  {
    "name_fr": "Rahbat",
    "name_ar": "الرحبات",
    "wilaya_code": 5,
    "daira": "Ras El Aioun",
    "postal_code": "05043",
    "latitude": 35.5333,
    "longitude": 5.65,
    "code_commune": 525
  },
  {
    "name_fr": "Ras El Aioun",
    "name_ar": "رأس العيون",
    "wilaya_code": 5,
    "daira": "Ras El Aioun",
    "postal_code": "05040",
    "latitude": 35.675,
    "longitude": 5.65,
    "code_commune": 551
  },
  {
    "name_fr": "Sefiane",
    "name_ar": "سفيان",
    "wilaya_code": 5,
    "daira": "N'Gaous",
    "postal_code": "05036",
    "latitude": 35.4414,
    "longitude": 5.5581,
    "code_commune": 524
  },
  {
    "name_fr": "Seriana",
    "name_ar": "سريانة",
    "wilaya_code": 5,
    "daira": "Seriana",
    "postal_code": "05048",
    "latitude": 35.691666,
    "longitude": 6.18639,
    "code_commune": 505
  },
  {
    "name_fr": "T Kout",
    "name_ar": "تكوت",
    "wilaya_code": 5,
    "daira": "T'Kout",
    "postal_code": "05058",
    "latitude": 35.3339,
    "longitude": 6.30861,
    "code_commune": 544
  },
  {
    "name_fr": "Talkhamt",
    "name_ar": "تالخمت",
    "wilaya_code": 5,
    "daira": "Ras El Aioun",
    "postal_code": "05044",
    "latitude": 35.665278,
    "longitude": 5.8667,
    "code_commune": 534
  },
  {
    "name_fr": "Taxlent",
    "name_ar": "تاكسلانت",
    "wilaya_code": 5,
    "daira": "Ouled Si Slimane",
    "postal_code": "05038",
    "latitude": 35.5333,
    "longitude": 5.81667,
    "code_commune": 538
  },
  {
    "name_fr": "Tazoult",
    "name_ar": "تازولت",
    "wilaya_code": 5,
    "daira": "Tazoult",
    "postal_code": "05051",
    "latitude": 35.489188,
    "longitude": 6.254311,
    "code_commune": 508
  },
  {
    "name_fr": "Teniet El Abed",
    "name_ar": "ثنية العابد",
    "wilaya_code": 5,
    "daira": "Teniet El Abed",
    "postal_code": "05053",
    "latitude": 35.24695,
    "longitude": 6.19062,
    "code_commune": 547
  },
  {
    "name_fr": "Tighanimine",
    "name_ar": "تيغانمين",
    "wilaya_code": 5,
    "daira": "Arris",
    "postal_code": "05010",
    "latitude": 35.1955527,
    "longitude": 6.25,
    "code_commune": 526
  },
  {
    "name_fr": "Tigharghar",
    "name_ar": "تغرغار",
    "wilaya_code": 5,
    "daira": null,
    "postal_code": null,
    "latitude": null,
    "longitude": null,
    "code_commune": null
  },
  {
    "name_fr": "Timgad",
    "name_ar": "تيمقاد",
    "wilaya_code": 5,
    "daira": "Timgad",
    "postal_code": "05056",
    "latitude": 35.485165,
    "longitude": 6.4686,
    "code_commune": 550
  },
  {
    "name_fr": "Zanet El Beida",
    "name_ar": "زانة البيضاء",
    "wilaya_code": 5,
    "daira": "Seriana",
    "postal_code": "05050",
    "latitude": 35.809722,
    "longitude": 6.08512,
    "code_commune": 554
  },
  {
    "name_fr": "Adekar",
    "name_ar": "أدكار",
    "wilaya_code": 6,
    "daira": "Adekar",
    "postal_code": "06006",
    "latitude": 36.683333,
    "longitude": 4.6667,
    "code_commune": 624
  },
  {
    "name_fr": "Ait R'zine",
    "name_ar": "أيت رزين",
    "wilaya_code": 6,
    "daira": "Ighil Ali",
    "postal_code": "06029",
    "latitude": 36.37034683,
    "longitude": 4.4868,
    "code_commune": 628
  },
  {
    "name_fr": "Ait-Smail",
    "name_ar": "أيت إسماعيل",
    "wilaya_code": 6,
    "daira": "Darguina",
    "postal_code": "06023",
    "latitude": 36.7333,
    "longitude": 4.85,
    "code_commune": 647
  },
  {
    "name_fr": "Akbou",
    "name_ar": "أقبو",
    "wilaya_code": 6,
    "daira": "Akbou",
    "postal_code": "06009",
    "latitude": 36.4575,
    "longitude": 4.53494,
    "code_commune": 625
  },
  {
    "name_fr": "Akfadou",
    "name_ar": "أكفادو",
    "wilaya_code": 6,
    "daira": "Chemini",
    "postal_code": "06021",
    "latitude": 36.6333333,
    "longitude": 4.5895,
    "code_commune": 642
  },
  {
    "name_fr": "Amalou",
    "name_ar": "أمالو",
    "wilaya_code": 6,
    "daira": "Seddouk",
    "postal_code": "06034",
    "latitude": 36.477777,
    "longitude": 4.633333,
    "code_commune": 616
  },
  {
    "name_fr": "Amizour",
    "name_ar": "أميزور",
    "wilaya_code": 6,
    "daira": "Amizour",
    "postal_code": "06002",
    "latitude": 36.64022,
    "longitude": 4.9013,
    "code_commune": 602
  },
  {
    "name_fr": "Aokas",
    "name_ar": "أوقاس",
    "wilaya_code": 6,
    "daira": "Aokas",
    "postal_code": "06013",
    "latitude": 36.6333,
    "longitude": 5.25,
    "code_commune": 622
  },
  {
    "name_fr": "Barbacha",
    "name_ar": "برباشة",
    "wilaya_code": 6,
    "daira": "Barbacha",
    "postal_code": "06015",
    "latitude": 36.5667,
    "longitude": 4.96667,
    "code_commune": 634
  },
  {
    "name_fr": "Bejaia",
    "name_ar": "بجاية",
    "wilaya_code": 6,
    "daira": "Béjaïa",
    "postal_code": "06000",
    "latitude": 36.7508896,
    "longitude": 5.0567333,
    "code_commune": 601
  },
  {
    "name_fr": "Beni Djellil",
    "name_ar": "بني جليل",
    "wilaya_code": 6,
    "daira": "Amizour",
    "postal_code": "06003",
    "latitude": 36.5729271,
    "longitude": 4.8108,
    "code_commune": 623
  },
  {
    "name_fr": "Beni K'sila",
    "name_ar": "بني كسيلة",
    "wilaya_code": 6,
    "daira": "Adekar",
    "postal_code": "06008",
    "latitude": 36.839681,
    "longitude": 4.7070616,
    "code_commune": 635
  },
  {
    "name_fr": "Beni-Mallikeche",
    "name_ar": "بني مليكش",
    "wilaya_code": 6,
    "daira": null,
    "postal_code": null,
    "latitude": null,
    "longitude": null,
    "code_commune": null
  },
  {
    "name_fr": "Benimaouche",
    "name_ar": "بني معوش",
    "wilaya_code": 6,
    "daira": null,
    "postal_code": null,
    "latitude": null,
    "longitude": null,
    "code_commune": null
  },
  {
    "name_fr": "Boudjellil",
    "name_ar": "بو جليل",
    "wilaya_code": 6,
    "daira": "Tazmalt",
    "postal_code": "06046",
    "latitude": 36.334,
    "longitude": 4.414167,
    "code_commune": 652
  },
  {
    "name_fr": "Bouhamza",
    "name_ar": "بوحمزة",
    "wilaya_code": 6,
    "daira": "Seddouk",
    "postal_code": "06036",
    "latitude": 36.489722,
    "longitude": 4.6064,
    "code_commune": 637
  },
  {
    "name_fr": "Boukhelifa",
    "name_ar": "بوخليفة",
    "wilaya_code": 6,
    "daira": "Tichy",
    "postal_code": "06048",
    "latitude": 36.5831,
    "longitude": 4.9667,
    "code_commune": 648
  },
  {
    "name_fr": "Chellata",
    "name_ar": "شلاطة",
    "wilaya_code": 6,
    "daira": "Akbou",
    "postal_code": "06010",
    "latitude": 36.5135502,
    "longitude": 4.5108862,
    "code_commune": 605
  },
  {
    "name_fr": "Chemini",
    "name_ar": "شميني",
    "wilaya_code": 6,
    "daira": "Chemini",
    "postal_code": "06018",
    "latitude": 36.5944017,
    "longitude": 4.6210411,
    "code_commune": 629
  },
  {
    "name_fr": "Darguina",
    "name_ar": "درقينة",
    "wilaya_code": 6,
    "daira": "Darguina",
    "postal_code": "06022",
    "latitude": 36.6344,
    "longitude": 5.375595,
    "code_commune": 620
  },
  {
    "name_fr": "Dra El Caid",
    "name_ar": "ذراع القايد",
    "wilaya_code": 6,
    "daira": "Kherrata",
    "postal_code": "06031",
    "latitude": 36.4295337,
    "longitude": 5.2475518,
    "code_commune": 645
  },
  {
    "name_fr": "El Kseur",
    "name_ar": "القصر",
    "wilaya_code": 6,
    "daira": "El Kseur",
    "postal_code": "06025",
    "latitude": 36.684389,
    "longitude": 4.852222,
    "code_commune": 640
  },
  {
    "name_fr": "Fenaia Il Maten",
    "name_ar": "فناية الماثن",
    "wilaya_code": 6,
    "daira": "El Kseur",
    "postal_code": "06026",
    "latitude": 36.671667,
    "longitude": 4.790555,
    "code_commune": 618
  },
  {
    "name_fr": "Feraoun",
    "name_ar": "فرعون",
    "wilaya_code": 6,
    "daira": "Amizour",
    "postal_code": "06005",
    "latitude": 36.5569444,
    "longitude": 4.85454,
    "code_commune": 603
  },
  {
    "name_fr": "Ighil-Ali",
    "name_ar": "إغيل علي",
    "wilaya_code": 6,
    "daira": "Ighil Ali",
    "postal_code": "06028",
    "latitude": 36.3379865,
    "longitude": 4.4702131,
    "code_commune": 617
  },
  {
    "name_fr": "Ighram",
    "name_ar": "اغرم",
    "wilaya_code": 6,
    "daira": "Akbou",
    "postal_code": "06011",
    "latitude": 36.46295,
    "longitude": 4.505,
    "code_commune": 615
  },
  {
    "name_fr": "Kendira",
    "name_ar": "كنديرة",
    "wilaya_code": 6,
    "daira": "Barbacha",
    "postal_code": "06016",
    "latitude": 36.653,
    "longitude": 5.0173,
    "code_commune": 613
  },
  {
    "name_fr": "Kherrata",
    "name_ar": "خراطة",
    "wilaya_code": 6,
    "daira": "Kherrata",
    "postal_code": "06030",
    "latitude": 36.492724,
    "longitude": 5.278,
    "code_commune": 644
  },
  {
    "name_fr": "Leflaye",
    "name_ar": "الفلاي",
    "wilaya_code": 6,
    "daira": "Sidi-Aïch",
    "postal_code": "06038",
    "latitude": 36.60916667,
    "longitude": 4.8814,
    "code_commune": 643
  },
  {
    "name_fr": "M'cisna",
    "name_ar": "مسيسنة",
    "wilaya_code": 6,
    "daira": "Seddouk",
    "postal_code": "06035",
    "latitude": 36.563407,
    "longitude": 4.710368,
    "code_commune": 609
  },
  {
    "name_fr": "Melbou",
    "name_ar": "مالبو",
    "wilaya_code": 6,
    "daira": "Souk El Ténine",
    "postal_code": "06043",
    "latitude": 36.671389,
    "longitude": 5.360759,
    "code_commune": 641
  },
  {
    "name_fr": "Oued Ghir",
    "name_ar": "وادي غير",
    "wilaya_code": 6,
    "daira": "Béjaïa",
    "postal_code": "06001",
    "latitude": 36.710277,
    "longitude": 4.983333,
    "code_commune": 651
  },
  {
    "name_fr": "Ouzellaguen",
    "name_ar": "أوزلاقن",
    "wilaya_code": 6,
    "daira": "Ouzellaguen",
    "postal_code": "06032",
    "latitude": 36.54203,
    "longitude": 4.6127777,
    "code_commune": 636
  },
  {
    "name_fr": "Seddouk",
    "name_ar": "صدوق",
    "wilaya_code": 6,
    "daira": "Seddouk",
    "postal_code": "06033",
    "latitude": 36.547,
    "longitude": 4.70778,
    "code_commune": 626
  },
  {
    "name_fr": "Sidi Ayad",
    "name_ar": "سيدي عياد",
    "wilaya_code": 6,
    "daira": "Sidi-Aïch",
    "postal_code": "06041",
    "latitude": 36.61667,
    "longitude": 4.75,
    "code_commune": 621
  },
  {
    "name_fr": "Sidi-Aich",
    "name_ar": "سيدي عيش",
    "wilaya_code": 6,
    "daira": "Sidi-Aïch",
    "postal_code": "06037",
    "latitude": 36.612944,
    "longitude": 4.688298,
    "code_commune": 639
  },
  {
    "name_fr": "Smaoun",
    "name_ar": "سمعون",
    "wilaya_code": 6,
    "daira": null,
    "postal_code": null,
    "latitude": null,
    "longitude": null,
    "code_commune": null
  },
  {
    "name_fr": "Souk El Tenine",
    "name_ar": "سوق لإثنين",
    "wilaya_code": 6,
    "daira": "Souk El Ténine",
    "postal_code": "06042",
    "latitude": 36.6256524,
    "longitude": 5.3360215,
    "code_commune": 608
  },
  {
    "name_fr": "Souk Oufella",
    "name_ar": "سوق اوفلا",
    "wilaya_code": 6,
    "daira": "Chemini",
    "postal_code": "06020",
    "latitude": 36.606111,
    "longitude": 4.6389,
    "code_commune": 630
  },
  {
    "name_fr": "Tala Hamza",
    "name_ar": "تالة حمزة",
    "wilaya_code": 6,
    "daira": "Tichy",
    "postal_code": "06049",
    "latitude": 36.6876795,
    "longitude": 5.0078451,
    "code_commune": 633
  },
  {
    "name_fr": "Tamokra",
    "name_ar": "تامقرة",
    "wilaya_code": 6,
    "daira": "Akbou",
    "postal_code": "06012",
    "latitude": 36.3932,
    "longitude": 4.6645,
    "code_commune": 606
  },
  {
    "name_fr": "Tamridjet",
    "name_ar": "تامريجت",
    "wilaya_code": 6,
    "daira": "Souk El Ténine",
    "postal_code": "06044",
    "latitude": 36.5833119,
    "longitude": 5.4253757,
    "code_commune": 646
  },
  {
    "name_fr": "Taourit Ighil",
    "name_ar": "تاوريرت إغيل",
    "wilaya_code": 6,
    "daira": null,
    "postal_code": null,
    "latitude": null,
    "longitude": null,
    "code_commune": null
  },
  {
    "name_fr": "Taskriout",
    "name_ar": "تاسكريوت",
    "wilaya_code": 6,
    "daira": "Darguina",
    "postal_code": "06024",
    "latitude": 36.56667,
    "longitude": 5.2733,
    "code_commune": 631
  },
  {
    "name_fr": "Tazmalt",
    "name_ar": "تازمالت",
    "wilaya_code": 6,
    "daira": "Tazmalt",
    "postal_code": "06045",
    "latitude": 36.3878041,
    "longitude": 4.4079213,
    "code_commune": 627
  },
  {
    "name_fr": "Tibane",
    "name_ar": "طيبان",
    "wilaya_code": 6,
    "daira": "Chemini",
    "postal_code": "06019",
    "latitude": 36.613585,
    "longitude": 4.651185,
    "code_commune": 632
  },
  {
    "name_fr": "Tichy",
    "name_ar": "تيشي",
    "wilaya_code": 6,
    "daira": "Tichy",
    "postal_code": "06047",
    "latitude": 36.6961,
    "longitude": 5.1550882,
    "code_commune": 611
  },
  {
    "name_fr": "Tifra",
    "name_ar": "تيفرة",
    "wilaya_code": 6,
    "daira": "Sidi-Aïch",
    "postal_code": "06040",
    "latitude": 36.6667365,
    "longitude": 4.6963496,
    "code_commune": 614
  },
  {
    "name_fr": "Timezrit",
    "name_ar": "تيمزريت",
    "wilaya_code": 6,
    "daira": "Timezrit",
    "postal_code": "06050",
    "latitude": 36.615556,
    "longitude": 4.7667,
    "code_commune": 607
  },
  {
    "name_fr": "Tinebdar",
    "name_ar": "تينبدار",
    "wilaya_code": 6,
    "daira": null,
    "postal_code": null,
    "latitude": null,
    "longitude": null,
    "code_commune": null
  },
  {
    "name_fr": "Tizi-N'berber",
    "name_ar": "تيزي نبربر",
    "wilaya_code": 6,
    "daira": "Aokas",
    "postal_code": "06014",
    "latitude": 36.6134619,
    "longitude": 5.2176317,
    "code_commune": 649
  },
  {
    "name_fr": "Toudja",
    "name_ar": "توجة",
    "wilaya_code": 6,
    "daira": "El Kseur",
    "postal_code": "06027",
    "latitude": 36.75,
    "longitude": 4.8922277,
    "code_commune": 619
  },
  {
    "name_fr": "Ain Naga",
    "name_ar": "عين الناقة",
    "wilaya_code": 7,
    "daira": "Sidi Okba",
    "postal_code": "07010",
    "latitude": 34.68762,
    "longitude": 6.09419,
    "code_commune": 714
  },
  {
    "name_fr": "Biskra",
    "name_ar": "بسكرة",
    "wilaya_code": 7,
    "daira": "Biskra",
    "postal_code": "07000",
    "latitude": 34.8,
    "longitude": 5.7510475,
    "code_commune": 701
  },
  {
    "name_fr": "Bordj Ben Azzouz",
    "name_ar": "برج بن عزوز",
    "wilaya_code": 7,
    "daira": "Tolga",
    "postal_code": "07022",
    "latitude": 34.697222,
    "longitude": 5.362777,
    "code_commune": 727
  },
  {
    "name_fr": "Bouchakroun",
    "name_ar": "بوشقرون",
    "wilaya_code": 7,
    "daira": "Tolga",
    "postal_code": "07021",
    "latitude": 34.8091667,
    "longitude": 5.341111,
    "code_commune": 729
  },
  {
    "name_fr": "Chetma",
    "name_ar": "شتمة",
    "wilaya_code": 7,
    "daira": "Sidi Okba",
    "postal_code": "07008",
    "latitude": 34.801667,
    "longitude": 5.6597222,
    "code_commune": 704
  },
  {
    "name_fr": "El Feidh",
    "name_ar": "الفيض",
    "wilaya_code": 7,
    "daira": "Zeribet El Oued",
    "postal_code": "07013",
    "latitude": 34.4668996,
    "longitude": 6.5356449,
    "code_commune": 716
  },
  {
    "name_fr": "El Ghrous",
    "name_ar": "الغروس",
    "wilaya_code": 7,
    "daira": "Foughala",
    "postal_code": "07031",
    "latitude": 34.7233926,
    "longitude": 5.285277,
    "code_commune": 731
  },
  {
    "name_fr": "El Hadjab",
    "name_ar": "الحاجب",
    "wilaya_code": 7,
    "daira": "Biskra",
    "postal_code": "07001",
    "latitude": 34.79027,
    "longitude": 5.596944,
    "code_commune": 732
  },
  {
    "name_fr": "El Haouch",
    "name_ar": "الحوش",
    "wilaya_code": 7,
    "daira": "Sidi Okba",
    "postal_code": "07009",
    "latitude": 34.8667,
    "longitude": 6.0255738,
    "code_commune": 713
  },
  {
    "name_fr": "Foughala",
    "name_ar": "فوغالة",
    "wilaya_code": 7,
    "daira": "Foughala",
    "postal_code": "07030",
    "latitude": 34.7326063,
    "longitude": 5.31666667,
    "code_commune": 726
  },
  {
    "name_fr": "Khenguet Sidi Nadji",
    "name_ar": "خنقة سيدي ناجي",
    "wilaya_code": 7,
    "daira": "Zeribet El Oued",
    "postal_code": "07014",
    "latitude": 34.821721,
    "longitude": 6.6958939,
    "code_commune": 733
  },
  {
    "name_fr": "Lichana",
    "name_ar": "ليشانة",
    "wilaya_code": 7,
    "daira": "Tolga",
    "postal_code": "07023",
    "latitude": 34.71753,
    "longitude": 5.4289853,
    "code_commune": 723
  },
  {
    "name_fr": "Lioua",
    "name_ar": "ليوة",
    "wilaya_code": 7,
    "daira": "Ourlal",
    "postal_code": "07016",
    "latitude": 34.63099,
    "longitude": 5.4,
    "code_commune": 722
  },
  {
    "name_fr": "M'chouneche",
    "name_ar": "مشونش",
    "wilaya_code": 7,
    "daira": "M'Chouneche",
    "postal_code": "07006",
    "latitude": 34.9497,
    "longitude": 6.0039,
    "code_commune": 712
  },
  {
    "name_fr": "M'lili",
    "name_ar": "مليلي",
    "wilaya_code": 7,
    "daira": "Ourlal",
    "postal_code": "07019",
    "latitude": 34.805833,
    "longitude": 5.554247,
    "code_commune": 725
  },
  {
    "name_fr": "Mekhadma",
    "name_ar": "مخادمة",
    "wilaya_code": 7,
    "daira": "Ourlal",
    "postal_code": "07018",
    "latitude": 34.64779,
    "longitude": 5.867778,
    "code_commune": 730
  },
  {
    "name_fr": "Meziraa",
    "name_ar": "المزيرعة",
    "wilaya_code": 7,
    "daira": null,
    "postal_code": null,
    "latitude": null,
    "longitude": null,
    "code_commune": null
  },
  {
    "name_fr": "Oumache",
    "name_ar": "أوماش",
    "wilaya_code": 7,
    "daira": "Ourlal",
    "postal_code": "07017",
    "latitude": 34.69292,
    "longitude": 5.6883,
    "code_commune": 702
  },
  {
    "name_fr": "Ourlal",
    "name_ar": "أورلال",
    "wilaya_code": 7,
    "daira": "Ourlal",
    "postal_code": "07015",
    "latitude": 34.655556,
    "longitude": 5.525895,
    "code_commune": 724
  },
  {
    "name_fr": "Sidi Okba",
    "name_ar": "سيدي عقبة",
    "wilaya_code": 7,
    "daira": "Sidi Okba",
    "postal_code": "07007",
    "latitude": 34.74512,
    "longitude": 5.9,
    "code_commune": 711
  },
  {
    "name_fr": "Tolga",
    "name_ar": "طولقة",
    "wilaya_code": 7,
    "daira": "Tolga",
    "postal_code": "07020",
    "latitude": 34.7214,
    "longitude": 5.3802134,
    "code_commune": 721
  },
  {
    "name_fr": "Zeribet El Oued",
    "name_ar": "زريبة الوادي",
    "wilaya_code": 7,
    "daira": "Zeribet El Oued",
    "postal_code": "07011",
    "latitude": 34.683,
    "longitude": 6.511,
    "code_commune": 715
  },
  {
    "name_fr": "Abadla",
    "name_ar": "العبادلة",
    "wilaya_code": 8,
    "daira": "Abadla",
    "postal_code": "08008",
    "latitude": 31.019,
    "longitude": -2.72387,
    "code_commune": 817
  },
  {
    "name_fr": "Bechar",
    "name_ar": "بشار",
    "wilaya_code": 8,
    "daira": "Béchar",
    "postal_code": "08000",
    "latitude": 31.61667,
    "longitude": -2.21667,
    "code_commune": 801
  },
  {
    "name_fr": "Beni-Ounif",
    "name_ar": "بني ونيف",
    "wilaya_code": 8,
    "daira": "Beni Ounif",
    "postal_code": "08001",
    "latitude": 32.0492426,
    "longitude": -1.2514,
    "code_commune": 821
  },
  {
    "name_fr": "Boukais",
    "name_ar": "بوكايس",
    "wilaya_code": 8,
    "daira": "Lahmar",
    "postal_code": "08003",
    "latitude": 31.923333,
    "longitude": -2.46361,
    "code_commune": 815
  },
  {
    "name_fr": "Erg-Ferradj",
    "name_ar": "عرق فراج",
    "wilaya_code": 8,
    "daira": "Abadla",
    "postal_code": "08009",
    "latitude": 31.0347,
    "longitude": -2.791389,
    "code_commune": 802
  },
  {
    "name_fr": "Kenadsa",
    "name_ar": "القنادسة",
    "wilaya_code": 8,
    "daira": "Kenadsa",
    "postal_code": "08005",
    "latitude": 31.5544,
    "longitude": -2.4327,
    "code_commune": 810
  },
  {
    "name_fr": "Lahmar",
    "name_ar": "لحمر",
    "wilaya_code": 8,
    "daira": "Lahmar",
    "postal_code": "08002",
    "latitude": 31.931388,
    "longitude": -2.2597,
    "code_commune": 806
  },
  {
    "name_fr": "Machraa-Houari-Boumediene",
    "name_ar": "مشرع هواري بومدين",
    "wilaya_code": 8,
    "daira": null,
    "postal_code": null,
    "latitude": null,
    "longitude": null,
    "code_commune": null
  },
  {
    "name_fr": "Meridja",
    "name_ar": "المريجة",
    "wilaya_code": 8,
    "daira": "Kenadsa",
    "postal_code": "08006",
    "latitude": 31.55,
    "longitude": -2.95,
    "code_commune": 804
  },
  {
    "name_fr": "Mogheul",
    "name_ar": "موغل",
    "wilaya_code": 8,
    "daira": "Lahmar",
    "postal_code": "08004",
    "latitude": 32.0225,
    "longitude": -2.2227252,
    "code_commune": 816
  },
  {
    "name_fr": "Tabelbala",
    "name_ar": "تبلبالة",
    "wilaya_code": 8,
    "daira": "Tabelbala",
    "postal_code": "52007",
    "latitude": 29.41005,
    "longitude": -3.25261,
    "code_commune": 812
  },
  {
    "name_fr": "Taghit",
    "name_ar": "تاغيت",
    "wilaya_code": 8,
    "daira": "Taghit",
    "postal_code": "08007",
    "latitude": 30.9201058,
    "longitude": -2.0322172,
    "code_commune": 813
  },
  {
    "name_fr": "Ain Romana",
    "name_ar": "عين الرمانة",
    "wilaya_code": 9,
    "daira": "Mouzaïa",
    "postal_code": "09018",
    "latitude": 36.3963569,
    "longitude": 2.6487087,
    "code_commune": 924
  },
  {
    "name_fr": "Beni Mered",
    "name_ar": "بني مراد",
    "wilaya_code": 9,
    "daira": "Ouled Yaïch",
    "postal_code": "09024",
    "latitude": 36.52389,
    "longitude": 2.86131,
    "code_commune": 921
  },
  {
    "name_fr": "Beni-Tamou",
    "name_ar": "بني تامو",
    "wilaya_code": 9,
    "daira": "Oued Alleug",
    "postal_code": "09020",
    "latitude": 36.536389,
    "longitude": 2.8161,
    "code_commune": 919
  },
  {
    "name_fr": "Benkhelil",
    "name_ar": "بن خليل",
    "wilaya_code": 9,
    "daira": "Oued Alleug",
    "postal_code": "09021",
    "latitude": 36.6202778,
    "longitude": 2.876389,
    "code_commune": 910
  },
  {
    "name_fr": "Blida",
    "name_ar": "البليدة",
    "wilaya_code": 9,
    "daira": "Blida",
    "postal_code": "09000",
    "latitude": 36.47004,
    "longitude": 2.8319,
    "code_commune": 901
  },
  {
    "name_fr": "Bouarfa",
    "name_ar": "بوعرفة",
    "wilaya_code": 9,
    "daira": "Blida",
    "postal_code": "09001",
    "latitude": 36.466944,
    "longitude": 2.816389,
    "code_commune": 920
  },
  {
    "name_fr": "Boufarik",
    "name_ar": "بوفاريك",
    "wilaya_code": 9,
    "daira": "Boufarik",
    "postal_code": "09002",
    "latitude": 36.57413,
    "longitude": 2.9108333,
    "code_commune": 916
  },
  {
    "name_fr": "Bougara",
    "name_ar": "بوقرة",
    "wilaya_code": 9,
    "daira": "Bougara",
    "postal_code": "09005",
    "latitude": 36.54,
    "longitude": 3.081,
    "code_commune": 922
  },
  {
    "name_fr": "Bouinan",
    "name_ar": "بوعينان",
    "wilaya_code": 9,
    "daira": "Bouinan",
    "postal_code": "09008",
    "latitude": 36.53167,
    "longitude": 2.99194,
    "code_commune": 903
  },
  {
    "name_fr": "Chebli",
    "name_ar": "الشبلي",
    "wilaya_code": 9,
    "daira": "Bouinan",
    "postal_code": "09009",
    "latitude": 36.567222,
    "longitude": 3.0085182,
    "code_commune": 902
  },
  {
    "name_fr": "Chiffa",
    "name_ar": "الشفة",
    "wilaya_code": 9,
    "daira": "Mouzaïa",
    "postal_code": "09017",
    "latitude": 36.4669,
    "longitude": 2.75,
    "code_commune": 908
  },
  {
    "name_fr": "Chrea",
    "name_ar": "الشريعة",
    "wilaya_code": 9,
    "daira": "Ouled Yaïch",
    "postal_code": "09023",
    "latitude": 36.425556,
    "longitude": 2.876667,
    "code_commune": 906
  },
  {
    "name_fr": "Djebabra",
    "name_ar": "جبابرة",
    "wilaya_code": 9,
    "daira": "Meftah",
    "postal_code": "09015",
    "latitude": 36.58416667,
    "longitude": 3.268903,
    "code_commune": 925
  },
  {
    "name_fr": "El-Affroun",
    "name_ar": "العفرون",
    "wilaya_code": 9,
    "daira": "El Affroun",
    "postal_code": "09010",
    "latitude": 36.4701,
    "longitude": 2.625,
    "code_commune": 907
  },
  {
    "name_fr": "Guerrouaou",
    "name_ar": "قرواو",
    "wilaya_code": 9,
    "daira": "Boufarik",
    "postal_code": "09004",
    "latitude": 36.516667,
    "longitude": 2.8844,
    "code_commune": 923
  },
  {
    "name_fr": "Hammam Elouane",
    "name_ar": "حمام ملوان",
    "wilaya_code": 9,
    "daira": "Bougara",
    "postal_code": "09006",
    "latitude": 36.486667,
    "longitude": 3.045,
    "code_commune": 909
  },
  {
    "name_fr": "Larbaa",
    "name_ar": "الأربعاء",
    "wilaya_code": 9,
    "daira": "Larbaâ",
    "postal_code": "09012",
    "latitude": 36.56527778,
    "longitude": 3.153933,
    "code_commune": 917
  },
  {
    "name_fr": "Meftah",
    "name_ar": "مفتاح",
    "wilaya_code": 9,
    "daira": "Meftah",
    "postal_code": "09014",
    "latitude": 36.6204,
    "longitude": 3.22248,
    "code_commune": 914
  },
  {
    "name_fr": "Mouzaia",
    "name_ar": "موزاية",
    "wilaya_code": 9,
    "daira": "Mouzaïa",
    "postal_code": "09016",
    "latitude": 36.4669,
    "longitude": 2.6899,
    "code_commune": 912
  },
  {
    "name_fr": "Oued  Djer",
    "name_ar": "وادي جر",
    "wilaya_code": 9,
    "daira": "El Affroun",
    "postal_code": "09011",
    "latitude": 36.4201457,
    "longitude": 2.5495112,
    "code_commune": 918
  },
  {
    "name_fr": "Oued El Alleug",
    "name_ar": "وادي العلايق",
    "wilaya_code": 9,
    "daira": "Oued Alleug",
    "postal_code": "09019",
    "latitude": 36.55528,
    "longitude": 2.79028,
    "code_commune": 904
  },
  {
    "name_fr": "Ouled Slama",
    "name_ar": "اولاد سلامة",
    "wilaya_code": 9,
    "daira": "Bougara",
    "postal_code": "09007",
    "latitude": 36.548333,
    "longitude": 3.11,
    "code_commune": 915
  },
  {
    "name_fr": "Ouled Yaich",
    "name_ar": "أولاد يعيش",
    "wilaya_code": 9,
    "daira": "Ouled Yaïch",
    "postal_code": "09022",
    "latitude": 36.50393,
    "longitude": 2.8619,
    "code_commune": 905
  },
  {
    "name_fr": "Souhane",
    "name_ar": "صوحان",
    "wilaya_code": 9,
    "daira": "Larbaâ",
    "postal_code": "09013",
    "latitude": 36.5329164,
    "longitude": 3.2483058,
    "code_commune": 913
  },
  {
    "name_fr": "Soumaa",
    "name_ar": "الصومعة",
    "wilaya_code": 9,
    "daira": "Boufarik",
    "postal_code": "09003",
    "latitude": 36.51833,
    "longitude": 2.905278,
    "code_commune": 911
  },
  {
    "name_fr": "Aghbalou",
    "name_ar": "أغبالو",
    "wilaya_code": 10,
    "daira": "M'Chedallah",
    "postal_code": "10014",
    "latitude": 36.3713916,
    "longitude": 4.225,
    "code_commune": 1027
  },
  {
    "name_fr": "Ahl El Ksar",
    "name_ar": "أهل القصر",
    "wilaya_code": 10,
    "daira": "Bechloul",
    "postal_code": "10008",
    "latitude": 36.2549,
    "longitude": 4.03944,
    "code_commune": 1022
  },
  {
    "name_fr": "Ain El Hadjar",
    "name_ar": "عين الحجر",
    "wilaya_code": 10,
    "daira": "Aïn Bessem",
    "postal_code": "10030",
    "latitude": 36.33889,
    "longitude": 3.806389,
    "code_commune": 1025
  },
  {
    "name_fr": "Ain Laloui",
    "name_ar": "عين العلوي",
    "wilaya_code": 10,
    "daira": "Aïn Bessem",
    "postal_code": "10029",
    "latitude": 36.316667,
    "longitude": 3.75,
    "code_commune": 1041
  },
  {
    "name_fr": "Ain Turk",
    "name_ar": "عين الترك",
    "wilaya_code": 10,
    "daira": "Aïn El Turk",
    "postal_code": "31300",
    "latitude": 35.74494,
    "longitude": -0.7697,
    "code_commune": 3109
  },
  {
    "name_fr": "Ain-Bessem",
    "name_ar": "عين بسام",
    "wilaya_code": 10,
    "daira": "Aïn Bessem",
    "postal_code": "10028",
    "latitude": 36.296667,
    "longitude": 3.67,
    "code_commune": 1035
  },
  {
    "name_fr": "Ait Laaziz",
    "name_ar": "أيت لعزيز",
    "wilaya_code": 10,
    "daira": null,
    "postal_code": null,
    "latitude": null,
    "longitude": null,
    "code_commune": null
  },
  {
    "name_fr": "Aomar",
    "name_ar": "أعمر",
    "wilaya_code": 10,
    "daira": "Kadiria",
    "postal_code": "10017",
    "latitude": 36.4925,
    "longitude": 3.794,
    "code_commune": 1016
  },
  {
    "name_fr": "Ath Mansour",
    "name_ar": "آث  منصور",
    "wilaya_code": 10,
    "daira": "M'Chedallah",
    "postal_code": "10015",
    "latitude": 36.330823,
    "longitude": 4.301147,
    "code_commune": 1043
  },
  {
    "name_fr": "Bechloul",
    "name_ar": "بشلول",
    "wilaya_code": 10,
    "daira": "Bechloul",
    "postal_code": "10005",
    "latitude": 36.316667,
    "longitude": 4.075,
    "code_commune": 1033
  },
  {
    "name_fr": "Bir Ghbalou",
    "name_ar": "بئر غبالو",
    "wilaya_code": 10,
    "daira": "Bir Ghbalou",
    "postal_code": "10025",
    "latitude": 36.26416667,
    "longitude": 3.7224,
    "code_commune": 1036
  },
  {
    "name_fr": "Bordj Okhriss",
    "name_ar": "برج أوخريص",
    "wilaya_code": 10,
    "daira": "Bordj Okhriss",
    "postal_code": "10041",
    "latitude": 36.083333,
    "longitude": 3.974444,
    "code_commune": 1018
  },
  {
    "name_fr": "Bouderbala",
    "name_ar": "بودربالة",
    "wilaya_code": 10,
    "daira": "Lakhdaria",
    "postal_code": "10022",
    "latitude": 36.58,
    "longitude": 3.5089,
    "code_commune": 1023
  },
  {
    "name_fr": "Bouira",
    "name_ar": "البويرة",
    "wilaya_code": 10,
    "daira": "Bouira",
    "postal_code": "10000",
    "latitude": 36.37763,
    "longitude": 3.8962348,
    "code_commune": 1001
  },
  {
    "name_fr": "Boukram",
    "name_ar": "بوكرم",
    "wilaya_code": 10,
    "daira": "Lakhdaria",
    "postal_code": "10020",
    "latitude": 36.5261,
    "longitude": 3.36604,
    "code_commune": 1034
  },
  {
    "name_fr": "Chorfa",
    "name_ar": "شرفة",
    "wilaya_code": 10,
    "daira": "M'Chedallah",
    "postal_code": "10012",
    "latitude": 36.36505,
    "longitude": 4.323611,
    "code_commune": 1017
  },
  {
    "name_fr": "Dechmia",
    "name_ar": "الدشمية",
    "wilaya_code": 10,
    "daira": "Sour El Ghozlane",
    "postal_code": "10039",
    "latitude": 36.13,
    "longitude": 3.5767,
    "code_commune": 1031
  },
  {
    "name_fr": "Dirah",
    "name_ar": "ديرة",
    "wilaya_code": 10,
    "daira": "Sour El Ghozlane",
    "postal_code": "10040",
    "latitude": 36.0003,
    "longitude": 3.65992,
    "code_commune": 1007
  },
  {
    "name_fr": "Djebahia",
    "name_ar": "جباحية",
    "wilaya_code": 10,
    "daira": "Kadiria",
    "postal_code": "10018",
    "latitude": 36.4764,
    "longitude": 3.7588,
    "code_commune": 1026
  },
  {
    "name_fr": "El Adjiba",
    "name_ar": "العجيبة",
    "wilaya_code": 10,
    "daira": "Bechloul",
    "postal_code": "10007",
    "latitude": 36.3749965,
    "longitude": 4.1616143,
    "code_commune": 1019
  },
  {
    "name_fr": "El Asnam",
    "name_ar": "الأسنام",
    "wilaya_code": 10,
    "daira": "Bechloul",
    "postal_code": "10006",
    "latitude": 36.3206,
    "longitude": 4.013889,
    "code_commune": 1002
  },
  {
    "name_fr": "El Hachimia",
    "name_ar": "الهاشمية",
    "wilaya_code": 10,
    "daira": "El Hachimia",
    "postal_code": "10033",
    "latitude": 36.24071,
    "longitude": 3.8161,
    "code_commune": 1015
  },
  {
    "name_fr": "El Khabouzia",
    "name_ar": "الخبوزية",
    "wilaya_code": 10,
    "daira": "Bir Ghbalou",
    "postal_code": "10027",
    "latitude": 36.3159,
    "longitude": 3.6008333,
    "code_commune": 1021
  },
  {
    "name_fr": "El-Hakimia",
    "name_ar": "الحاكمية",
    "wilaya_code": 10,
    "daira": "Sour El Ghozlane",
    "postal_code": "10038",
    "latitude": 36.0914921,
    "longitude": 3.7806,
    "code_commune": 1020
  },
  {
    "name_fr": "El-Mokrani",
    "name_ar": "المقراني",
    "wilaya_code": 10,
    "daira": "Souk El Khemis",
    "postal_code": "10032",
    "latitude": 36.42889,
    "longitude": 3.60375,
    "code_commune": 1044
  },
  {
    "name_fr": "Guerrouma",
    "name_ar": "قرومة",
    "wilaya_code": 10,
    "daira": "Lakhdaria",
    "postal_code": "10024",
    "latitude": 36.4630499,
    "longitude": 3.4296446,
    "code_commune": 1003
  },
  {
    "name_fr": "Hadjera Zerga",
    "name_ar": "الحجرة الزرقاء",
    "wilaya_code": 10,
    "daira": "Bordj Okhriss",
    "postal_code": "10044",
    "latitude": 35.957778,
    "longitude": 3.849444,
    "code_commune": 1042
  },
  {
    "name_fr": "Haizer",
    "name_ar": "حيزر",
    "wilaya_code": 10,
    "daira": "Haizer",
    "postal_code": "10003",
    "latitude": 36.39702,
    "longitude": 3.99917,
    "code_commune": 1012
  },
  {
    "name_fr": "Hanif",
    "name_ar": "حنيف",
    "wilaya_code": 10,
    "daira": "M'Chedallah",
    "postal_code": "10013",
    "latitude": 36.335801,
    "longitude": 4.34149,
    "code_commune": 1006
  },
  {
    "name_fr": "Kadiria",
    "name_ar": "قادرية",
    "wilaya_code": 10,
    "daira": "Kadiria",
    "postal_code": "10016",
    "latitude": 36.5200245,
    "longitude": 3.6927531,
    "code_commune": 1005
  },
  {
    "name_fr": "Lakhdaria",
    "name_ar": "الأخضرية",
    "wilaya_code": 10,
    "daira": "Lakhdaria",
    "postal_code": "10019",
    "latitude": 36.56448,
    "longitude": 3.59675,
    "code_commune": 1013
  },
  {
    "name_fr": "M Chedallah",
    "name_ar": "أمشدالة",
    "wilaya_code": 10,
    "daira": "M'Chedallah",
    "postal_code": "10010",
    "latitude": 36.3713916,
    "longitude": 4.264103,
    "code_commune": 1037
  },
  {
    "name_fr": "Maala",
    "name_ar": "معلة",
    "wilaya_code": 10,
    "daira": "Lakhdaria",
    "postal_code": "10021",
    "latitude": 36.492778,
    "longitude": 3.573611,
    "code_commune": 1014
  },
  {
    "name_fr": "Maamora",
    "name_ar": "المعمورة",
    "wilaya_code": 10,
    "daira": "Sour El Ghozlane",
    "postal_code": "10036",
    "latitude": 36.033056,
    "longitude": 3.62017,
    "code_commune": 1039
  },
  {
    "name_fr": "Mezdour",
    "name_ar": "مزدور",
    "wilaya_code": 10,
    "daira": "Bordj Okhriss",
    "postal_code": "10042",
    "latitude": 36.376111,
    "longitude": 4.07056,
    "code_commune": 1011
  },
  {
    "name_fr": "Oued El Berdi",
    "name_ar": "وادي البردي",
    "wilaya_code": 10,
    "daira": "El Hachimia",
    "postal_code": "10034",
    "latitude": 36.2638925,
    "longitude": 3.9266502,
    "code_commune": 1045
  },
  {
    "name_fr": "Ouled Rached",
    "name_ar": "أولاد راشد",
    "wilaya_code": 10,
    "daira": "Bechloul",
    "postal_code": "10009",
    "latitude": 36.21525,
    "longitude": 4.1106,
    "code_commune": 1040
  },
  {
    "name_fr": "Raouraoua",
    "name_ar": "روراوة",
    "wilaya_code": 10,
    "daira": "Bir Ghbalou",
    "postal_code": "10026",
    "latitude": 36.55528,
    "longitude": 3.7375,
    "code_commune": 1010
  },
  {
    "name_fr": "Ridane",
    "name_ar": "ريدان",
    "wilaya_code": 10,
    "daira": "Sour El Ghozlane",
    "postal_code": "10037",
    "latitude": 36.073888,
    "longitude": 3.46166,
    "code_commune": 1032
  },
  {
    "name_fr": "Saharidj",
    "name_ar": "سحاريج",
    "wilaya_code": 10,
    "daira": "M'Chedallah",
    "postal_code": "10011",
    "latitude": 36.396944,
    "longitude": 3.8619,
    "code_commune": 1030
  },
  {
    "name_fr": "Souk El Khemis",
    "name_ar": "سوق الخميس",
    "wilaya_code": 10,
    "daira": "Souk El Khemis",
    "postal_code": "10031",
    "latitude": 36.388056,
    "longitude": 3.635,
    "code_commune": 1004
  },
  {
    "name_fr": "Sour El Ghozlane",
    "name_ar": "سور الغزلان",
    "wilaya_code": 10,
    "daira": "Sour El Ghozlane",
    "postal_code": "10035",
    "latitude": 36.14766,
    "longitude": 3.69123,
    "code_commune": 1038
  },
  {
    "name_fr": "Taghzout",
    "name_ar": "تاغزوت",
    "wilaya_code": 10,
    "daira": "Haizer",
    "postal_code": "10004",
    "latitude": 36.3167,
    "longitude": 3.9667,
    "code_commune": 1009
  },
  {
    "name_fr": "Taguedite",
    "name_ar": "تاقديت",
    "wilaya_code": 10,
    "daira": "Bordj Okhriss",
    "postal_code": "10043",
    "latitude": 36.0175,
    "longitude": 3.99472221,
    "code_commune": 1028
  },
  {
    "name_fr": "Z'barbar (El Isseri )",
    "name_ar": "زبربر",
    "wilaya_code": 10,
    "daira": "Lakhdaria",
    "postal_code": "10023",
    "latitude": null,
    "longitude": null,
    "code_commune": null
  },
  {
    "name_fr": "Abelsa",
    "name_ar": "ابلسة",
    "wilaya_code": 11,
    "daira": null,
    "postal_code": null,
    "latitude": null,
    "longitude": null,
    "code_commune": null
  },
  {
    "name_fr": "Ain Amguel",
    "name_ar": "عين امقل",
    "wilaya_code": 11,
    "daira": null,
    "postal_code": null,
    "latitude": null,
    "longitude": null,
    "code_commune": null
  },
  {
    "name_fr": "Idles",
    "name_ar": "أدلس",
    "wilaya_code": 11,
    "daira": "Tazrouk",
    "postal_code": "11004",
    "latitude": 23.8173973,
    "longitude": 5.9343664,
    "code_commune": 1105
  },
  {
    "name_fr": "Tamanrasset",
    "name_ar": "تمنراست",
    "wilaya_code": 11,
    "daira": "Tamanrasset",
    "postal_code": "11000",
    "latitude": 22.7888209,
    "longitude": 5.52278,
    "code_commune": 1101
  },
  {
    "name_fr": "Tazrouk",
    "name_ar": "تاظروك",
    "wilaya_code": 11,
    "daira": "Tazrouk",
    "postal_code": "11003",
    "latitude": 23.4133,
    "longitude": 6.265556,
    "code_commune": 1106
  },
  {
    "name_fr": "Ain Zerga",
    "name_ar": "عين الزرقاء",
    "wilaya_code": 12,
    "daira": "Ouenza",
    "postal_code": "12010",
    "latitude": 35.648611,
    "longitude": 8.261111,
    "code_commune": 1223
  },
  {
    "name_fr": "Bedjene",
    "name_ar": "بجن",
    "wilaya_code": 12,
    "daira": "El Ogla",
    "postal_code": "12020",
    "latitude": 35.40417,
    "longitude": 7.4746519,
    "code_commune": 1226
  },
  {
    "name_fr": "Bekkaria",
    "name_ar": "بكارية",
    "wilaya_code": 12,
    "daira": "El Kouif",
    "postal_code": "12001",
    "latitude": 35.366667,
    "longitude": 8.2422222,
    "code_commune": 1217
  },
  {
    "name_fr": "Bir Dheheb",
    "name_ar": "بئر الذهب",
    "wilaya_code": 12,
    "daira": "Morsott",
    "postal_code": "12004",
    "latitude": 34.908056,
    "longitude": 7.938333,
    "code_commune": 1214
  },
  {
    "name_fr": "Bir Mokkadem",
    "name_ar": "بئر مقدم",
    "wilaya_code": 12,
    "daira": "Bir Mokkadem",
    "postal_code": "12015",
    "latitude": 35.3725,
    "longitude": 7.8096037,
    "code_commune": 1210
  },
  {
    "name_fr": "Boukhadra",
    "name_ar": "بوخضرة",
    "wilaya_code": 12,
    "daira": "El Aouinet",
    "postal_code": "12008",
    "latitude": 35.744444,
    "longitude": 8.0325,
    "code_commune": 1218
  },
  {
    "name_fr": "Boulhaf Dyr",
    "name_ar": "بولحاف الدير",
    "wilaya_code": 12,
    "daira": "El Kouif",
    "postal_code": "12002",
    "latitude": 35.52052,
    "longitude": 8.10581,
    "code_commune": 1225
  },
  {
    "name_fr": "Cheria",
    "name_ar": "الشريعة",
    "wilaya_code": 12,
    "daira": "Cheria",
    "postal_code": "12026",
    "latitude": 35.2684831,
    "longitude": 7.7471025,
    "code_commune": 1203
  },
  {
    "name_fr": "El Kouif",
    "name_ar": "الكويف",
    "wilaya_code": 12,
    "daira": "El Kouif",
    "postal_code": "12003",
    "latitude": 35.498333,
    "longitude": 8.321944,
    "code_commune": 1211
  },
  {
    "name_fr": "El Malabiod",
    "name_ar": "الماء الابيض",
    "wilaya_code": 12,
    "daira": null,
    "postal_code": null,
    "latitude": null,
    "longitude": null,
    "code_commune": null
  },
  {
    "name_fr": "El Meridj",
    "name_ar": "المريج",
    "wilaya_code": 12,
    "daira": "Ouenza",
    "postal_code": "12011",
    "latitude": 35.79308,
    "longitude": 8.22951,
    "code_commune": 1224
  },
  {
    "name_fr": "El Mezeraa",
    "name_ar": "المزرعة",
    "wilaya_code": 12,
    "daira": "El Ogla",
    "postal_code": "12019",
    "latitude": 35.266667,
    "longitude": 7.58,
    "code_commune": 1227
  },
  {
    "name_fr": "El Ogla",
    "name_ar": "العقلة",
    "wilaya_code": 12,
    "daira": "El Ogla",
    "postal_code": "12018",
    "latitude": 35.183333,
    "longitude": 7.46762,
    "code_commune": 1213
  },
  {
    "name_fr": "El-Aouinet",
    "name_ar": "العوينات",
    "wilaya_code": 12,
    "daira": "El Aouinet",
    "postal_code": "12009",
    "latitude": 35.867,
    "longitude": 7.887778,
    "code_commune": 1205
  },
  {
    "name_fr": "El-Houidjbet",
    "name_ar": "الحويجبات",
    "wilaya_code": 12,
    "daira": "El Ma Labiodh",
    "postal_code": "12006",
    "latitude": 35.29331683,
    "longitude": 8.278941075,
    "code_commune": 1206
  },
  {
    "name_fr": "Guorriguer",
    "name_ar": "قريقر",
    "wilaya_code": 12,
    "daira": "Bir Mokkadem",
    "postal_code": "12014",
    "latitude": 35.422777,
    "longitude": 7.593333,
    "code_commune": 1216
  },
  {
    "name_fr": "Hammamet",
    "name_ar": "الحمامات",
    "wilaya_code": 12,
    "daira": "Bir Mokkadem",
    "postal_code": "12013",
    "latitude": 35.590833,
    "longitude": 7.953,
    "code_commune": 1208
  },
  {
    "name_fr": "Morsott",
    "name_ar": "مرسط",
    "wilaya_code": 12,
    "daira": "Morsott",
    "postal_code": "12005",
    "latitude": 35.66944,
    "longitude": 8.01667,
    "code_commune": 1212
  },
  {
    "name_fr": "Ouenza",
    "name_ar": "الونزة",
    "wilaya_code": 12,
    "daira": "Ouenza",
    "postal_code": "12012",
    "latitude": 35.9533,
    "longitude": 8.12917,
    "code_commune": 1219
  },
  {
    "name_fr": "Oum Ali",
    "name_ar": "أم علي",
    "wilaya_code": 12,
    "daira": "Oum Ali",
    "postal_code": "12022",
    "latitude": 35.3333,
    "longitude": 8.3009,
    "code_commune": 1221
  },
  {
    "name_fr": "Saf Saf El Ouesra",
    "name_ar": "صفصاف الوسرى",
    "wilaya_code": 12,
    "daira": "Oum Ali",
    "postal_code": "12023",
    "latitude": 34.9565856,
    "longitude": 8.2076282,
    "code_commune": 1207
  },
  {
    "name_fr": "Stah Guentis",
    "name_ar": "سطح قنطيس",
    "wilaya_code": 12,
    "daira": "El Ogla",
    "postal_code": "12021",
    "latitude": 34.9984,
    "longitude": 7.30829,
    "code_commune": 1204
  },
  {
    "name_fr": "Tebessa",
    "name_ar": "تبسة",
    "wilaya_code": 12,
    "daira": "Tébessa",
    "postal_code": "12000",
    "latitude": 35.405556,
    "longitude": 8.12417,
    "code_commune": 1201
  },
  {
    "name_fr": "Telidjen",
    "name_ar": "ثليجان",
    "wilaya_code": 12,
    "daira": null,
    "postal_code": null,
    "latitude": null,
    "longitude": null,
    "code_commune": null
  },
  {
    "name_fr": "Ain Fetah",
    "name_ar": "عين فتاح",
    "wilaya_code": 13,
    "daira": "Fellaoucene",
    "postal_code": "13021",
    "latitude": 34.965556,
    "longitude": -1.638611,
    "code_commune": 1331
  },
  {
    "name_fr": "Ain Fezza",
    "name_ar": "عين فزة",
    "wilaya_code": 13,
    "daira": "Chetouane",
    "postal_code": "13026",
    "latitude": 34.87,
    "longitude": -1.1868,
    "code_commune": 1312
  },
  {
    "name_fr": "Ain Ghoraba",
    "name_ar": "عين غرابة",
    "wilaya_code": 13,
    "daira": "Mansourah",
    "postal_code": "13035",
    "latitude": 34.713889,
    "longitude": -1.389167,
    "code_commune": 1349
  },
  {
    "name_fr": "Ain Kebira",
    "name_ar": "عين الكبيرة",
    "wilaya_code": 13,
    "daira": "Fellaoucene",
    "postal_code": "13022",
    "latitude": 35.032777,
    "longitude": -1.665278,
    "code_commune": 1353
  },
  {
    "name_fr": "Ain Nehala",
    "name_ar": "عين النحالة",
    "wilaya_code": 13,
    "daira": "Aïn Tallout",
    "postal_code": "13003",
    "latitude": 35.027326,
    "longitude": -0.932222,
    "code_commune": 1325
  },
  {
    "name_fr": "Ain Tellout",
    "name_ar": "عين تالوت",
    "wilaya_code": 13,
    "daira": "Aïn Tallout",
    "postal_code": "13002",
    "latitude": 34.805556,
    "longitude": -0.9544444,
    "code_commune": 1303
  },
  {
    "name_fr": "Ain Youcef",
    "name_ar": "عين يوسف",
    "wilaya_code": 13,
    "daira": "Remchi",
    "postal_code": "13005",
    "latitude": 35.047222,
    "longitude": -1.3739,
    "code_commune": 1315
  },
  {
    "name_fr": "Amieur",
    "name_ar": "عمير",
    "wilaya_code": 13,
    "daira": "Chetouane",
    "postal_code": "13027",
    "latitude": 35.035277,
    "longitude": -1.24,
    "code_commune": 1314
  },
  {
    "name_fr": "Azail",
    "name_ar": "العزايل",
    "wilaya_code": 13,
    "daira": null,
    "postal_code": null,
    "latitude": null,
    "longitude": null,
    "code_commune": null
  },
  {
    "name_fr": "Bab El Assa",
    "name_ar": "باب العسة",
    "wilaya_code": 13,
    "daira": "Bab El Assa",
    "postal_code": "13016",
    "latitude": 34.960317,
    "longitude": -2.0318,
    "code_commune": 1318
  },
  {
    "name_fr": "Beni Bahdel",
    "name_ar": "بني بهدل",
    "wilaya_code": 13,
    "daira": "Beni Snous",
    "postal_code": "13043",
    "latitude": 34.693889,
    "longitude": -1.5186,
    "code_commune": 1342
  },
  {
    "name_fr": "Beni Boussaid",
    "name_ar": "بني بوسعيد",
    "wilaya_code": 13,
    "daira": "Beni Boussaid",
    "postal_code": "13044",
    "latitude": 34.65,
    "longitude": -1.75306,
    "code_commune": 1338
  },
  {
    "name_fr": "Beni Khellad",
    "name_ar": "بني خلاد",
    "wilaya_code": 13,
    "daira": "Honaïne",
    "postal_code": "13052",
    "latitude": 35.1725,
    "longitude": -1.5572,
    "code_commune": 1348
  },
  {
    "name_fr": "Beni Mester",
    "name_ar": "بني مستر",
    "wilaya_code": 13,
    "daira": "Mansourah",
    "postal_code": "13001",
    "latitude": 34.87045,
    "longitude": -1.42319,
    "code_commune": 1302
  },
  {
    "name_fr": "Beni Ouarsous",
    "name_ar": "بني وارسوس",
    "wilaya_code": 13,
    "daira": "Remchi",
    "postal_code": "13006",
    "latitude": 35.083333,
    "longitude": -1.55731,
    "code_commune": 1336
  },
  {
    "name_fr": "Beni Smiel",
    "name_ar": "بني صميل",
    "wilaya_code": 13,
    "daira": null,
    "postal_code": null,
    "latitude": null,
    "longitude": null,
    "code_commune": null
  },
  {
    "name_fr": "Beni Snous",
    "name_ar": "بني سنوس",
    "wilaya_code": 13,
    "daira": "Beni Snous",
    "postal_code": "13041",
    "latitude": 34.6593136,
    "longitude": -1.5450766,
    "code_commune": 1317
  },
  {
    "name_fr": "Bensekrane",
    "name_ar": "بن سكران",
    "wilaya_code": 13,
    "daira": "Bensekrane",
    "postal_code": "13040",
    "latitude": 35.0739077,
    "longitude": -1.22747,
    "code_commune": 1324
  },
  {
    "name_fr": "Bouhlou",
    "name_ar": "بوحلو",
    "wilaya_code": 13,
    "daira": "Sabra",
    "postal_code": "13010",
    "latitude": 34.773889,
    "longitude": -1.5731,
    "code_commune": 1347
  },
  {
    "name_fr": "Chetouane",
    "name_ar": "شتوان",
    "wilaya_code": 13,
    "daira": "Chetouane",
    "postal_code": "13028",
    "latitude": 34.9203342,
    "longitude": -1.2975309,
    "code_commune": 1350
  },
  {
    "name_fr": "Dar Yaghmoracen",
    "name_ar": "دار يغمراسن",
    "wilaya_code": 13,
    "daira": "Ghazaouet",
    "postal_code": "13012",
    "latitude": 35.10055556,
    "longitude": -1.800833,
    "code_commune": 1319
  },
  {
    "name_fr": "Djebala",
    "name_ar": "جبالة",
    "wilaya_code": 13,
    "daira": "Nedroma",
    "postal_code": "13018",
    "latitude": 34.976388,
    "longitude": -1.7248,
    "code_commune": 1309
  },
  {
    "name_fr": "El Fehoul",
    "name_ar": "الفحول",
    "wilaya_code": 13,
    "daira": "Remchi",
    "postal_code": "13007",
    "latitude": 35.12,
    "longitude": -1.294444,
    "code_commune": 1305
  },
  {
    "name_fr": "Fellaoucene",
    "name_ar": "فلاوسن",
    "wilaya_code": 13,
    "daira": "Fellaoucene",
    "postal_code": "13020",
    "latitude": 35.035,
    "longitude": -1.605833,
    "code_commune": 1320
  },
  {
    "name_fr": "Ghazaouet",
    "name_ar": "الغزوات",
    "wilaya_code": 13,
    "daira": "Ghazaouet",
    "postal_code": "13011",
    "latitude": 35.093858,
    "longitude": -1.86038,
    "code_commune": 1307
  },
  {
    "name_fr": "Hammam Boughrara",
    "name_ar": "حمام بوغرارة",
    "wilaya_code": 13,
    "daira": "Maghnia",
    "postal_code": "13033",
    "latitude": 34.8935,
    "longitude": -1.6386,
    "code_commune": 1328
  },
  {
    "name_fr": "Hennaya",
    "name_ar": "الحناية",
    "wilaya_code": 13,
    "daira": "Hennaya",
    "postal_code": "13029",
    "latitude": 34.9513889,
    "longitude": -1.3710402,
    "code_commune": 1326
  },
  {
    "name_fr": "Honnaine",
    "name_ar": "هنين",
    "wilaya_code": 13,
    "daira": "Honaïne",
    "postal_code": "13051",
    "latitude": 35.1789336,
    "longitude": -1.6493532,
    "code_commune": 1344
  },
  {
    "name_fr": "M'sirda Fouaga",
    "name_ar": "مسيردة الفواقة",
    "wilaya_code": 13,
    "daira": "Marsa Ben M'Hidi",
    "postal_code": "13038",
    "latitude": 35.019722,
    "longitude": -2.065,
    "code_commune": 1330
  },
  {
    "name_fr": "Maghnia",
    "name_ar": "مغنية",
    "wilaya_code": 13,
    "daira": "Maghnia",
    "postal_code": "13032",
    "latitude": 34.8534497,
    "longitude": -1.730556,
    "code_commune": 1327
  },
  {
    "name_fr": "Mansourah",
    "name_ar": "منصورة",
    "wilaya_code": 13,
    "daira": "Mansourah",
    "postal_code": "13034",
    "latitude": 34.871111,
    "longitude": -1.3379985,
    "code_commune": 1351
  },
  {
    "name_fr": "Marsa Ben M'hidi",
    "name_ar": "مرسى بن مهيدي",
    "wilaya_code": 13,
    "daira": "Marsa Ben M'Hidi",
    "postal_code": "13037",
    "latitude": 35.08669,
    "longitude": -2.19771,
    "code_commune": 1339
  },
  {
    "name_fr": "Nedroma",
    "name_ar": "ندرومة",
    "wilaya_code": 13,
    "daira": "Nedroma",
    "postal_code": "13019",
    "latitude": 35.01361,
    "longitude": -1.748,
    "code_commune": 1340
  },
  {
    "name_fr": "Oued Lakhdar",
    "name_ar": "وادي الخضر",
    "wilaya_code": 13,
    "daira": "Ouled Mimoun",
    "postal_code": "13023",
    "latitude": 34.8749625,
    "longitude": -1.1341144,
    "code_commune": 1311
  },
  {
    "name_fr": "Ouled Mimoun",
    "name_ar": "أولاد ميمون",
    "wilaya_code": 13,
    "daira": "Ouled Mimoun",
    "postal_code": "13024",
    "latitude": 34.90472,
    "longitude": -1.0347,
    "code_commune": 1313
  },
  {
    "name_fr": "Ouled Riyah",
    "name_ar": "أولاد رياح",
    "wilaya_code": 13,
    "daira": "Hennaya",
    "postal_code": "13030",
    "latitude": 34.9625,
    "longitude": -1.49722221,
    "code_commune": 1346
  },
  {
    "name_fr": "Remchi",
    "name_ar": "الرمشي",
    "wilaya_code": 13,
    "daira": "Remchi",
    "postal_code": "13004",
    "latitude": 35.06196,
    "longitude": -1.43362,
    "code_commune": 1304
  },
  {
    "name_fr": "Sabra",
    "name_ar": "صبرة",
    "wilaya_code": 13,
    "daira": "Sabra",
    "postal_code": "13009",
    "latitude": 34.8280257,
    "longitude": -1.5283,
    "code_commune": 1306
  },
  {
    "name_fr": "Sebbaa Chioukh",
    "name_ar": "سبعة شيوخ",
    "wilaya_code": 13,
    "daira": "Remchi",
    "postal_code": "13008",
    "latitude": 35.156111,
    "longitude": -1.3558333,
    "code_commune": 1322
  },
  {
    "name_fr": "Sebdou",
    "name_ar": "سبدو",
    "wilaya_code": 13,
    "daira": "Sebdou",
    "postal_code": "13046",
    "latitude": 34.639444,
    "longitude": -1.32694,
    "code_commune": 1335
  },
  {
    "name_fr": "Sidi Abdelli",
    "name_ar": "سيدي العبدلي",
    "wilaya_code": 13,
    "daira": "Bensekrane",
    "postal_code": "13039",
    "latitude": 35.069,
    "longitude": -1.1371,
    "code_commune": 1334
  },
  {
    "name_fr": "Sidi Medjahed",
    "name_ar": "سيدي مجاهد",
    "wilaya_code": 13,
    "daira": "Beni Boussaid",
    "postal_code": "13045",
    "latitude": 34.775277,
    "longitude": -1.6367,
    "code_commune": 1337
  },
  {
    "name_fr": "Souahlia",
    "name_ar": "السواحلية",
    "wilaya_code": 13,
    "daira": "Ghazaouet",
    "postal_code": "13013",
    "latitude": 35.033333,
    "longitude": -1.8881,
    "code_commune": 1329
  },
  {
    "name_fr": "Souani",
    "name_ar": "السواني",
    "wilaya_code": 13,
    "daira": "Bab El Assa",
    "postal_code": "13015",
    "latitude": 34.9218192,
    "longitude": -1.9172519,
    "code_commune": 1308
  },
  {
    "name_fr": "Souk Tleta",
    "name_ar": "سوق الثلاثاء",
    "wilaya_code": 13,
    "daira": null,
    "postal_code": null,
    "latitude": null,
    "longitude": null,
    "code_commune": null
  },
  {
    "name_fr": "Terny Beni Hediel",
    "name_ar": "تيرني بني هديل",
    "wilaya_code": 13,
    "daira": null,
    "postal_code": null,
    "latitude": null,
    "longitude": null,
    "code_commune": null
  },
  {
    "name_fr": "Tianet",
    "name_ar": "تيانت",
    "wilaya_code": 13,
    "daira": "Ghazaouet",
    "postal_code": "13014",
    "latitude": 35.090833,
    "longitude": -1.8389,
    "code_commune": 1345
  },
  {
    "name_fr": "Tlemcen",
    "name_ar": "تلمسان",
    "wilaya_code": 13,
    "daira": "Tlemcen",
    "postal_code": "13000",
    "latitude": 34.882777,
    "longitude": -1.316667,
    "code_commune": 1301
  },
  {
    "name_fr": "Zenata",
    "name_ar": "زناتة",
    "wilaya_code": 13,
    "daira": "Hennaya",
    "postal_code": "13031",
    "latitude": 35.0167,
    "longitude": -1.4583,
    "code_commune": 1316
  },
  {
    "name_fr": "Ain Bouchekif",
    "name_ar": "عين بوشقيف",
    "wilaya_code": 14,
    "daira": "Dahmouni",
    "postal_code": "14017",
    "latitude": 35.355833,
    "longitude": 1.51056,
    "code_commune": 1403
  },
  {
    "name_fr": "Ain Deheb",
    "name_ar": "عين الذهب",
    "wilaya_code": 14,
    "daira": "Aïn Deheb",
    "postal_code": "14005",
    "latitude": 34.8422,
    "longitude": 1.5450766,
    "code_commune": 1406
  },
  {
    "name_fr": "Ain Dzarit",
    "name_ar": "عين دزاريت",
    "wilaya_code": 14,
    "daira": null,
    "postal_code": null,
    "latitude": null,
    "longitude": null,
    "code_commune": null
  },
  {
    "name_fr": "Ain El Hadid",
    "name_ar": "عين الحديد",
    "wilaya_code": 14,
    "daira": "Frenda",
    "postal_code": "14014",
    "latitude": 35.05783,
    "longitude": 0.88479,
    "code_commune": 1418
  },
  {
    "name_fr": "Ain Kermes",
    "name_ar": "عين كرمس",
    "wilaya_code": 14,
    "daira": "Aïn Kermes",
    "postal_code": "14008",
    "latitude": 34.908176,
    "longitude": 1.10807,
    "code_commune": 1428
  },
  {
    "name_fr": "Chehaima",
    "name_ar": "شحيمة",
    "wilaya_code": 14,
    "daira": "Aïn Deheb",
    "postal_code": "14006",
    "latitude": 34.8959,
    "longitude": 1.3047556,
    "code_commune": 1436
  },
  {
    "name_fr": "Dahmouni",
    "name_ar": "دحموني",
    "wilaya_code": 14,
    "daira": "Dahmouni",
    "postal_code": "14016",
    "latitude": 35.4157148,
    "longitude": 1.483333,
    "code_commune": 1413
  },
  {
    "name_fr": "Djebilet Rosfa",
    "name_ar": "جبيلات الرصفاء",
    "wilaya_code": 14,
    "daira": "Aïn Kermes",
    "postal_code": "14011",
    "latitude": 34.86375,
    "longitude": 1.015,
    "code_commune": 1419
  },
  {
    "name_fr": "Djillali Ben Amar",
    "name_ar": "جيلالي بن عمار",
    "wilaya_code": 14,
    "daira": "Mechraa Safa",
    "postal_code": "14032",
    "latitude": 35.44444,
    "longitude": 0.84972221,
    "code_commune": 1424
  },
  {
    "name_fr": "Faidja",
    "name_ar": "الفايجة",
    "wilaya_code": 14,
    "daira": "Sougueur",
    "postal_code": "14002",
    "latitude": 34.87,
    "longitude": 1.705556,
    "code_commune": 1441
  },
  {
    "name_fr": "Frenda",
    "name_ar": "فرندة",
    "wilaya_code": 14,
    "daira": "Frenda",
    "postal_code": "14013",
    "latitude": 35.05,
    "longitude": 1.0538252,
    "code_commune": 1427
  },
  {
    "name_fr": "Guertoufa",
    "name_ar": "قرطوفة",
    "wilaya_code": 14,
    "daira": "Rahouia",
    "postal_code": "14035",
    "latitude": 35.393056,
    "longitude": 1.25,
    "code_commune": 1422
  },
  {
    "name_fr": "Madna",
    "name_ar": "مادنة",
    "wilaya_code": 14,
    "daira": "Aïn Kermes",
    "postal_code": "14009",
    "latitude": 34.753055,
    "longitude": 0.98278,
    "code_commune": 1410
  },
  {
    "name_fr": "Mahdia",
    "name_ar": "مهدية",
    "wilaya_code": 14,
    "daira": "Mahdia",
    "postal_code": "14018",
    "latitude": 35.4270876,
    "longitude": 1.755,
    "code_commune": 1415
  },
  {
    "name_fr": "Mechraa Safa",
    "name_ar": "مشرع الصفا",
    "wilaya_code": 14,
    "daira": "Mechraa Safa",
    "postal_code": "14031",
    "latitude": 35.38388889,
    "longitude": 1.03803,
    "code_commune": 1434
  },
  {
    "name_fr": "Medrissa",
    "name_ar": "مدريسة",
    "wilaya_code": 14,
    "daira": "Aïn Kermes",
    "postal_code": "14010",
    "latitude": 34.8959,
    "longitude": 1.2407,
    "code_commune": 1408
  },
  {
    "name_fr": "Medroussa",
    "name_ar": "مدروسة",
    "wilaya_code": 14,
    "daira": "Medroussa",
    "postal_code": "14028",
    "latitude": 35.17721,
    "longitude": 1.203611,
    "code_commune": 1402
  },
  {
    "name_fr": "Meghila",
    "name_ar": "مغيلة",
    "wilaya_code": 14,
    "daira": "Meghila",
    "postal_code": "14039",
    "latitude": 35.5964786,
    "longitude": 1.4136,
    "code_commune": 1421
  },
  {
    "name_fr": "Mellakou",
    "name_ar": "ملاكو",
    "wilaya_code": 14,
    "daira": "Medroussa",
    "postal_code": "14030",
    "latitude": 35.2497888,
    "longitude": 1.2337661,
    "code_commune": 1412
  },
  {
    "name_fr": "Nadorah",
    "name_ar": "الناظورة",
    "wilaya_code": 14,
    "daira": "Mahdia",
    "postal_code": "14020",
    "latitude": 35.069,
    "longitude": 1.890556,
    "code_commune": 1431
  },
  {
    "name_fr": "Naima",
    "name_ar": "النعيمة",
    "wilaya_code": 14,
    "daira": "Aïn Deheb",
    "postal_code": "14007",
    "latitude": 34.639444,
    "longitude": 1.4775,
    "code_commune": 1420
  },
  {
    "name_fr": "Oued Lilli",
    "name_ar": "وادي ليلي",
    "wilaya_code": 14,
    "daira": "Oued Lilli",
    "postal_code": "14036",
    "latitude": 35.5107,
    "longitude": 1.2713,
    "code_commune": 1433
  },
  {
    "name_fr": "Rahouia",
    "name_ar": "الرحوية",
    "wilaya_code": 14,
    "daira": "Rahouia",
    "postal_code": "14034",
    "latitude": 35.530278,
    "longitude": 1.6,
    "code_commune": 1414
  },
  {
    "name_fr": "Sebaine",
    "name_ar": "السبعين",
    "wilaya_code": 14,
    "daira": "Mahdia",
    "postal_code": "14021",
    "latitude": 34.63797,
    "longitude": 1.603611,
    "code_commune": 1425
  },
  {
    "name_fr": "Sebt",
    "name_ar": "السبت",
    "wilaya_code": 14,
    "daira": "Meghila",
    "postal_code": "14040",
    "latitude": 35.656111,
    "longitude": 1.3728,
    "code_commune": 1411
  },
  {
    "name_fr": "Si Abdelghani",
    "name_ar": "سي عبد الغني",
    "wilaya_code": 14,
    "daira": "Sougueur",
    "postal_code": "14003",
    "latitude": 35.2194,
    "longitude": 1.638611,
    "code_commune": 1417
  },
  {
    "name_fr": "Sidi Abderrahmane",
    "name_ar": "سيدي عبد الرحمن",
    "wilaya_code": 14,
    "daira": "Aïn Kermes",
    "postal_code": "14012",
    "latitude": 34.79861,
    "longitude": 1.130278,
    "code_commune": 1438
  },
  {
    "name_fr": "Sidi Ali Mellal",
    "name_ar": "سيدي علي ملال",
    "wilaya_code": 14,
    "daira": "Oued Lilli",
    "postal_code": "14037",
    "latitude": 35.563333,
    "longitude": 1.2256,
    "code_commune": 1404
  },
  {
    "name_fr": "Sidi Bakhti",
    "name_ar": "سيدي بختي",
    "wilaya_code": 14,
    "daira": "Medroussa",
    "postal_code": "14029",
    "latitude": 35.156111,
    "longitude": 0.9783,
    "code_commune": 1407
  },
  {
    "name_fr": "Sidi Hosni",
    "name_ar": "سيدي حسني",
    "wilaya_code": 14,
    "daira": "Meghila",
    "postal_code": "14041",
    "latitude": 35.4711,
    "longitude": 1.521582,
    "code_commune": 1423
  },
  {
    "name_fr": "Sougueur",
    "name_ar": "السوقر",
    "wilaya_code": 14,
    "daira": "Sougueur",
    "postal_code": "14001",
    "latitude": 35.18568,
    "longitude": 1.49612,
    "code_commune": 1416
  },
  {
    "name_fr": "Tagdempt",
    "name_ar": "تاقدمت",
    "wilaya_code": 14,
    "daira": "Mechraa Safa",
    "postal_code": "14033",
    "latitude": 35.335556,
    "longitude": 1.5450766,
    "code_commune": 1432
  },
  {
    "name_fr": "Takhemaret",
    "name_ar": "تخمرت",
    "wilaya_code": 14,
    "daira": "Frenda",
    "postal_code": "14015",
    "latitude": 35.035,
    "longitude": 0.683333333,
    "code_commune": 1437
  },
  {
    "name_fr": "Tiaret",
    "name_ar": "تيارت",
    "wilaya_code": 14,
    "daira": "Tiaret",
    "postal_code": "14000",
    "latitude": 35.3667,
    "longitude": 1.3167,
    "code_commune": 1401
  },
  {
    "name_fr": "Tidda",
    "name_ar": "تيدة",
    "wilaya_code": 14,
    "daira": "Oued Lilli",
    "postal_code": "14038",
    "latitude": 35.5825,
    "longitude": 1.266238,
    "code_commune": 1442
  },
  {
    "name_fr": "Tousnina",
    "name_ar": "توسنينة",
    "wilaya_code": 14,
    "daira": "Sougueur",
    "postal_code": "14004",
    "latitude": 34.02,
    "longitude": 1.276389,
    "code_commune": 1426
  },
  {
    "name_fr": "Abi-Youcef",
    "name_ar": "أبي يوسف",
    "wilaya_code": 15,
    "daira": "Aïn El Hammam",
    "postal_code": "15002",
    "latitude": 36.538333,
    "longitude": 4.343889,
    "code_commune": 1531
  },
  {
    "name_fr": "Aghribs",
    "name_ar": "أغريب",
    "wilaya_code": 15,
    "daira": "Azeffoun",
    "postal_code": "15011",
    "latitude": 36.802222,
    "longitude": 4.3227777,
    "code_commune": 1553
  },
  {
    "name_fr": "Agouni-Gueghrane",
    "name_ar": "أقني قغران",
    "wilaya_code": 15,
    "daira": "Ouadhia",
    "postal_code": "15054",
    "latitude": 36.5152247,
    "longitude": 4.1137957,
    "code_commune": 1561
  },
  {
    "name_fr": "Ain-El-Hammam",
    "name_ar": "عين الحمام",
    "wilaya_code": 15,
    "daira": "Aïn El Hammam",
    "postal_code": "15001",
    "latitude": 36.57056,
    "longitude": 4.31111,
    "code_commune": 1502
  },
  {
    "name_fr": "Ain-Zaouia",
    "name_ar": "عين الزاوية",
    "wilaya_code": 15,
    "daira": "Draâ El Mizan",
    "postal_code": "15034",
    "latitude": 36.5504491,
    "longitude": 3.89416,
    "code_commune": 1525
  },
  {
    "name_fr": "Ait Aggouacha",
    "name_ar": "أيت عقـواشة",
    "wilaya_code": 15,
    "daira": "Larbaâ Nath Irathen",
    "postal_code": "15041",
    "latitude": 36.617777,
    "longitude": 4.23,
    "code_commune": 1535
  },
  {
    "name_fr": "Ait Bouaddou",
    "name_ar": "أيت بــوادو",
    "wilaya_code": 15,
    "daira": "Ouadhia",
    "postal_code": "15055",
    "latitude": 36.50833333,
    "longitude": 4.058333,
    "code_commune": 1565
  },
  {
    "name_fr": "Ait Boumahdi",
    "name_ar": "أيت بومهدي",
    "wilaya_code": 15,
    "daira": "Ouacif",
    "postal_code": "15051",
    "latitude": 36.4883,
    "longitude": 4.1820961,
    "code_commune": 1530
  },
  {
    "name_fr": "Ait Khellili",
    "name_ar": "أيت خليلي",
    "wilaya_code": 15,
    "daira": "Mekla",
    "postal_code": "15048",
    "latitude": 36.6664742,
    "longitude": 4.3134,
    "code_commune": 1558
  },
  {
    "name_fr": "Ait Yahia Moussa",
    "name_ar": "أيت يحي موسى",
    "wilaya_code": 15,
    "daira": "Draâ El Mizan",
    "postal_code": "15035",
    "latitude": 36.64111111,
    "longitude": 3.89,
    "code_commune": 1556
  },
  {
    "name_fr": "Ait-Aissa-Mimoun",
    "name_ar": "أيت عيسى ميمون",
    "wilaya_code": 15,
    "daira": "Ouaguenoun",
    "postal_code": "15058",
    "latitude": 36.7486964,
    "longitude": 4.1156,
    "code_commune": 1539
  },
  {
    "name_fr": "Ait-Chafaa",
    "name_ar": "أيت شافع",
    "wilaya_code": 15,
    "daira": "Azeffoun",
    "postal_code": "15012",
    "latitude": 36.81702,
    "longitude": 4.53358,
    "code_commune": 1513
  },
  {
    "name_fr": "Ait-Mahmoud",
    "name_ar": "أيت محمود",
    "wilaya_code": 15,
    "daira": "Beni Douala",
    "postal_code": "15015",
    "latitude": 36.508394,
    "longitude": 3.993187,
    "code_commune": 1528
  },
  {
    "name_fr": "Ait-Oumalou",
    "name_ar": "أيت  أومالو",
    "wilaya_code": 15,
    "daira": "Tizi Rached",
    "postal_code": "15066",
    "latitude": 36.6586389,
    "longitude": 4.2282093,
    "code_commune": 1542
  },
  {
    "name_fr": "Ait-Toudert",
    "name_ar": "أيت تودرت",
    "wilaya_code": 15,
    "daira": "Ouacif",
    "postal_code": "15052",
    "latitude": 36.6914,
    "longitude": 4.1615,
    "code_commune": 1567
  },
  {
    "name_fr": "Ait-Yahia",
    "name_ar": "أيت يحيى",
    "wilaya_code": 15,
    "daira": "Aïn El Hammam",
    "postal_code": "15003",
    "latitude": 36.6066637,
    "longitude": 4.330278,
    "code_commune": 1527
  },
  {
    "name_fr": "Akbil",
    "name_ar": "اقبيل",
    "wilaya_code": 15,
    "daira": "Aïn El Hammam",
    "postal_code": "15004",
    "latitude": 36.4995515,
    "longitude": 4.3051542,
    "code_commune": 1503
  },
  {
    "name_fr": "Akerrou",
    "name_ar": "أقرو",
    "wilaya_code": 15,
    "daira": "Azeffoun",
    "postal_code": "15013",
    "latitude": 36.7992,
    "longitude": 4.4206,
    "code_commune": 1544
  },
  {
    "name_fr": "Assi-Youcef",
    "name_ar": "أسي يوسف",
    "wilaya_code": 15,
    "daira": "Boghni",
    "postal_code": "15022",
    "latitude": 36.5071,
    "longitude": 4,
    "code_commune": 1566
  },
  {
    "name_fr": "Azazga",
    "name_ar": "عزازقة",
    "wilaya_code": 15,
    "daira": "Azazga",
    "postal_code": "15005",
    "latitude": 36.74472,
    "longitude": 4.37222,
    "code_commune": 1518
  },
  {
    "name_fr": "Azeffoun",
    "name_ar": "أزفون",
    "wilaya_code": 15,
    "daira": "Azeffoun",
    "postal_code": "15010",
    "latitude": 36.8895311,
    "longitude": 4.4240151,
    "code_commune": 1537
  },
  {
    "name_fr": "Beni Zmenzer",
    "name_ar": "بنــــي زمنزار",
    "wilaya_code": 15,
    "daira": "Beni Douala",
    "postal_code": "15017",
    "latitude": 36.64775,
    "longitude": 4.04202,
    "code_commune": 1516
  },
  {
    "name_fr": "Beni-Aissi",
    "name_ar": "بني عيسي",
    "wilaya_code": 15,
    "daira": "Beni Douala",
    "postal_code": "15016",
    "latitude": 36.6636279,
    "longitude": 4.0938,
    "code_commune": 1515
  },
  {
    "name_fr": "Beni-Douala",
    "name_ar": "بني دوالة",
    "wilaya_code": 15,
    "daira": "Beni Douala",
    "postal_code": "15014",
    "latitude": 36.61954,
    "longitude": 4.08282,
    "code_commune": 1532
  },
  {
    "name_fr": "Beni-Yenni",
    "name_ar": "بني يني",
    "wilaya_code": 15,
    "daira": "Beni Yenni",
    "postal_code": "15018",
    "latitude": 36.5752,
    "longitude": 4.20764,
    "code_commune": 1552
  },
  {
    "name_fr": "Beni-Zikki",
    "name_ar": "بني زيكــي",
    "wilaya_code": 15,
    "daira": null,
    "postal_code": null,
    "latitude": null,
    "longitude": null,
    "code_commune": null
  },
  {
    "name_fr": "Boghni",
    "name_ar": "بوغني",
    "wilaya_code": 15,
    "daira": "Boghni",
    "postal_code": "15021",
    "latitude": 36.54222,
    "longitude": 3.95306,
    "code_commune": 1540
  },
  {
    "name_fr": "Boudjima",
    "name_ar": "بوجيمة",
    "wilaya_code": 15,
    "daira": "Makouda",
    "postal_code": "15046",
    "latitude": 36.802,
    "longitude": 4.1481,
    "code_commune": 1555
  },
  {
    "name_fr": "Bounouh",
    "name_ar": "بونوح",
    "wilaya_code": 15,
    "daira": "Boghni",
    "postal_code": "15023",
    "latitude": 36.49935,
    "longitude": 4.07056,
    "code_commune": 1512
  },
  {
    "name_fr": "Bouzeguene",
    "name_ar": "بوزقــن",
    "wilaya_code": 15,
    "daira": null,
    "postal_code": null,
    "latitude": null,
    "longitude": null,
    "code_commune": null
  },
  {
    "name_fr": "Draa-Ben-Khedda",
    "name_ar": "ذراع بن خدة",
    "wilaya_code": 15,
    "daira": "Draâ Ben Khedda",
    "postal_code": "15029",
    "latitude": 36.7309604,
    "longitude": 3.9652509,
    "code_commune": 1547
  },
  {
    "name_fr": "Draa-El-Mizan",
    "name_ar": "ذراع الميزان",
    "wilaya_code": 15,
    "daira": "Draâ El Mizan",
    "postal_code": "15033",
    "latitude": 36.536,
    "longitude": 3.833,
    "code_commune": 1510
  },
  {
    "name_fr": "Freha",
    "name_ar": "فريحة",
    "wilaya_code": 15,
    "daira": "Azazga",
    "postal_code": "15006",
    "latitude": 36.76124,
    "longitude": 4.3194,
    "code_commune": 1504
  },
  {
    "name_fr": "Frikat",
    "name_ar": "فريقات",
    "wilaya_code": 15,
    "daira": "Draâ El Mizan",
    "postal_code": "15036",
    "latitude": 36.4926443,
    "longitude": 3.99472221,
    "code_commune": 1514
  },
  {
    "name_fr": "Iboudrarene",
    "name_ar": "إبودرارن",
    "wilaya_code": 15,
    "daira": "Beni Yenni",
    "postal_code": "15019",
    "latitude": 36.529,
    "longitude": 4.298611,
    "code_commune": 1560
  },
  {
    "name_fr": "Idjeur",
    "name_ar": "إيجــار",
    "wilaya_code": 15,
    "daira": "Bouzguène",
    "postal_code": "15027",
    "latitude": 36.6664,
    "longitude": 4.5186,
    "code_commune": 1549
  },
  {
    "name_fr": "Iferhounene",
    "name_ar": "إفــرحــونان",
    "wilaya_code": 15,
    "daira": "Iferhounène",
    "postal_code": "15037",
    "latitude": 36.51667,
    "longitude": 4.38333,
    "code_commune": 1517
  },
  {
    "name_fr": "Ifigha",
    "name_ar": "إيفيغاء",
    "wilaya_code": 15,
    "daira": "Azazga",
    "postal_code": "15007",
    "latitude": 36.671389,
    "longitude": 4.469722,
    "code_commune": 1541
  },
  {
    "name_fr": "Iflissen",
    "name_ar": "إفليـــسن",
    "wilaya_code": 15,
    "daira": "Tigzirt",
    "postal_code": "15061",
    "latitude": 36.89623,
    "longitude": 4.2230836,
    "code_commune": 1554
  },
  {
    "name_fr": "Illilten",
    "name_ar": "إيلـيــلتـن",
    "wilaya_code": 15,
    "daira": "Iferhounène",
    "postal_code": "15038",
    "latitude": 36.5167,
    "longitude": 4.0497,
    "code_commune": 1533
  },
  {
    "name_fr": "Illoula Oumalou",
    "name_ar": "إيلولة أومـــالو",
    "wilaya_code": 15,
    "daira": "Bouzguène",
    "postal_code": "15028",
    "latitude": 36.5667,
    "longitude": 4.59611,
    "code_commune": 1519
  },
  {
    "name_fr": "Imsouhal",
    "name_ar": "إمســوحال",
    "wilaya_code": 15,
    "daira": null,
    "postal_code": null,
    "latitude": null,
    "longitude": null,
    "code_commune": null
  },
  {
    "name_fr": "Irdjen",
    "name_ar": "إيرجـــن",
    "wilaya_code": 15,
    "daira": "Larbaâ Nath Irathen",
    "postal_code": "15042",
    "latitude": 36.6562,
    "longitude": 4.140165,
    "code_commune": 1507
  },
  {
    "name_fr": "Larbaa Nath Irathen",
    "name_ar": "الأربعــاء ناث إيراثن",
    "wilaya_code": 15,
    "daira": "Larbaâ Nath Irathen",
    "postal_code": "15040",
    "latitude": 36.63667,
    "longitude": 4.206709,
    "code_commune": 1521
  },
  {
    "name_fr": "M'kira",
    "name_ar": "مكيرة",
    "wilaya_code": 15,
    "daira": "Tizi Gheniff",
    "postal_code": "15064",
    "latitude": 36.6253,
    "longitude": 3.993611,
    "code_commune": 1526
  },
  {
    "name_fr": "Maatkas",
    "name_ar": "معـــاتقة",
    "wilaya_code": 15,
    "daira": "Mâatkas",
    "postal_code": "15043",
    "latitude": 36.6194358,
    "longitude": 3.9572374,
    "code_commune": 1529
  },
  {
    "name_fr": "Makouda",
    "name_ar": "ماكودة",
    "wilaya_code": 15,
    "daira": "Makouda",
    "postal_code": "15045",
    "latitude": 36.791944,
    "longitude": 4.063,
    "code_commune": 1509
  },