id,name,name_ar,class,postal_code,postal_code_old,address,commune_code,commune_fr,commune_ar,wilaya_code,wilaya_fr,wilaya_ar,lat,lng
1,ADRAR RP,أدرار م ر,CE,01000,,ADRAR CENTRE RUE DES MARYTIM,0101,ADRAR,أدرار,01,ADRAR,أدرار,27.8708439,-0.2871417
1720,ADRAR SIDI MED BELAKBIR,أدرار -س- محمد بلكبير,R1,01002,,CITE 140 LOGTS ADRAR DJADIDA,0101,ADRAR,أدرار,01,ADRAR,أدرار,27.8884146,-0.3048255
116,AOULEF,أولف,R2,01003,,DAIRA AOULEF,0112,AOULEF,أولف,01,ADRAR,أدرار,26.9727167,1.0773252
136,REGGANE,رقان,R2,01004,, DAIRA REGGANE CENTRE,0104,REGGANE,رقان,01,ADRAR,أدرار,26.7185431,0.1740412
644,ADRAR 1ER NOV,أدرار أول نوفمبر,R2,01005,,CITE 400LOGTS ADRAR CENTRE,0101,ADRAR,أدرار,01,ADRAR,أدرار,27.8789492,-0.2887176
1571,ADRAR CITE ADMINISTRATIVE,أدرار الحي الإداري,R2,01006,,CITE ADM ADRAR TILLILANE,0101,ADRAR,أدرار,01,ADRAR,أدرار,27.8780299,-0.2744053
1042,ZAOUIET KOUNTA,زاوية كنتة,R2,01007,,DAIRA ZT KOUNTA,0111,ZAOUIET KOUNTA,زاوية كنتة,01,ADRAR,أدرار,27.2293089,-0.1914553
855,ZAOUIET SIDI AEK,زاوية -س- عبد القادر,R2,01008,,DAIRA FENOUGIL,0115,FENOUGHIL,فنوغيل,01,ADRAR,أدرار,27.6032843,-0.3050543
660,SALI,سالي,R3,01009,,APC SALI,0118,SALI,سالي,01,ADRAR,أدرار,26.9604482,-0.0280963
1242,TSABIT,تسابيت,R3,01011,,DAIRA TSABIT,0108,TSABIT,تسابيت,01,ADRAR,أدرار,28.3080276,-0.2404596
1883,BRINKANE,برينكان,R4,01015,,KSAR BRINKANE,0108,TSABIT,تسابيت,01,ADRAR,أدرار,28.3984351,-0.2380659
281,ADGHA,أدغا,R3,01016,, ADRAR KSAR ADGHA,0101,ADRAR,أدرار,01,ADRAR,أدرار,27.8688917,-0.302671
289,BAHOU,باحو,R4,01017,,KSAR BAHOU,0118,SALI,سالي,01,ADRAR,أدرار,26.8628317,0.0065733
895,HAY EL GHARBI,حي الغربي,R3,01018,,ADRAR HAI EL GHARBI,0101,ADRAR,أدرار,01,ADRAR,أدرار,27.8762682,-0.302426
2473,OUDJLANE,وجلان,R4,01019,,APC TSABIT,0108,TSABIT,تسابيت,01,ADRAR,أدرار,28.3557624,-0.2175173
2381,JEDIDE,جديد,R4,01020,,APC TAMEST,0102,TAMEST,تامست,01,ADRAR,أدرار,27.4654509,-0.267002
2289,BOUFADI,بوفادي,R4,01021,,KSAR BOUFADI,0114,TAMENTIT,تامنطيت,01,ADRAR,أدرار,27.7153709,-0.2726826
1448,SBAA,سبع,R4,01022,,APC SBAA,0126,SBAA,السبع,01,ADRAR,أدرار,28.2172057,-0.1754911
2040,BOUDA EL MANSOUR,بودة المنصور,R4,01023,,APC BOUDA EL MANSOUR,0122,BOUDA,بودة,01,ADRAR,أدرار,27.9534213,-0.4230972
318,LAHMEUR,لحمر,R4,01024,,APC LAHMEUR,0102,TAMEST,تامست,01,ADRAR,أدرار,27.4255441,-0.2451963
1763,OULED AHMED,أولاد أحمد,R3,01025,,APC OAHMED,0121,OULED AHMED TIMMI,أولاد أحمد تيمي,01,ADRAR,أدرار,27.8432811,-0.2837702
1611,BOUDA BEN DRAOU,بودة بن دراعو,R4,01026,,APC BOUDA BEN DRAOU,0122,BOUDA,بودة,01,ADRAR,أدرار,28.0098715,-0.4269247
537,OUADGHA,ودغة,R4,01027,,KSAR OUDGHA,0115,FENOUGHIL,فنوغيل,01,ADRAR,أدرار,27.6548828,-0.3100747
749,TITAF,تيطاف,R4,01028,,APC TAMEST,0102,TAMEST,تامست,01,ADRAR,أدرار,27.4104129,-0.1824578
1113,TAMENTIT,تمنطيط,R4,01029,,APC TAMENTIT,0114,TAMENTIT,تامنطيت,01,ADRAR,أدرار,27.7683063,-0.2684297
2180,MELOUKA,ملوكة,R4,01030,,KSAR MLOUKA,0121,OULED AHMED TIMMI,أولاد أحمد تيمي,01,ADRAR,أدرار,27.8748793,-0.3442609
760,TIT,تيط,R4,01031,,KSAR TIMOKTEN,0106,TIT,تيت,01,ADRAR,أدرار,26.9372637,1.4898848
1320,BOUALI,بوعلي,R4,01040,,KSAR BOUALI,0111,ZAOUIET KOUNTA,زاوية كنتة,01,ADRAR,أدرار,27.148747,-0.1256754
967,AIN BELBAL,عين بلبال,R4,01041,,KSAR INBELBEL,0113,TIMOKTEN,تيمقتن,01,ADRAR,أدرار,27.8861851,1.1675594
581,TIMOKTENE,تيمقطن,R3,01043,,APC TIMOKTEN,0113,TIMOKTEN,تيمقتن,01,ADRAR,أدرار,27.0354776,1.0409613
375,AKABLI,أقبلي,R4,01044,,KSAR AKABLI,0119,AKABLI,أقبلي,01,ADRAR,أدرار,26.7110237,1.3687757
2319,IN ZEGLOUF,إن زقلوف,R4,01045,,KSAR INZAGLOUF,0104,REGGANE,رقان,01,ADRAR,أدرار,26.8183531,0.0303608
2204,TINORT,تينورت,R4,01046,,APC SALI,0118,SALI,سالي,01,ADRAR,أدرار,26.8884908,-0.0118322
2080,TILOULINE,تيلولين,R4,01047,,KSAR INZAGMIR,0105,IN ZGHMIR,أنزجمير,01,ADRAR,أدرار,27.0426263,-0.082023
1956,TIMADANINE,تيمادانين,R4,01048,,KSAR TIMADANINE,0104,REGGANE,رقان,01,ADRAR,أدرار,26.7105852,0.1217948
1811,TIDMAINE,تيدماين,R4,01049,,KSAR TIDMAINE,0105,IN ZGHMIR,أنزجمير,01,ADRAR,أدرار,27.0935918,-0.1134264
1516,TITAOUINE LAKHRASSE,تيطاوين لخراص,R4,01050,,APC INZAGMIR,0105,IN ZGHMIR,أنزجمير,01,ADRAR,أدرار,27.0701414,-0.0994532
1679,BERICHE,بريش,R4,01056,,KSAR EL BERRICH,0118,SALI,سالي,01,ADRAR,أدرار,26.873725,0.0067461
1971,BOUDA LAGHMARA,بودة لغمارة,R4,01057,,KSAR BOUDA LAGMARA,0122,BOUDA,بودة,01,ADRAR,أدرار,28.0291926,-0.4554518
613,ADRAR CITE ZIARI MED,حي زراري محمد,R3,01062,,HAI 200LOGTS ADRAR,0101,ADRAR,أدرار,01,ADRAR,أدرار,27.8653854,-0.2775414
2102,ADRAR UNIVERSITE,أدرار الجامعة,R4,01063,,UNIVERSITE  ADRAR,0101,ADRAR,أدرار,01,ADRAR,أدرار,27.890509,-0.2857043
2230,ADRAR CITE UNIVERSITE,أدرار الحي الجامعي,R4,01064,,CITE UNIVERSITE TILLILANE,0101,ADRAR,أدرار,01,ADRAR,أدرار,27.8794882,-0.2603283
2347,ADRAR GARE ROUTIERE,أدرار المحطة,R4,01065,,ADRAR GARE ROUTIERRE,0101,ADRAR,أدرار,01,ADRAR,أدرار,27.8940097,-0.2884251
2434,REGGAN CHEIKH MOULAY A REGGANI,رقان مولاي رقاني,R3,01067,,"REGGANE EL DJADIDA,ADRAR",0104,REGGANE,رقان,01,ADRAR,أدرار,26.726177,0.1698454
3626,TIOURIRINE,تيوريرين,R4,01069,,KSAR TIOURERINE,0111,ZAOUIET KOUNTA,زاوية كنتة,01,ADRAR,أدرار,27.3275313,-0.2162631
3754,ADRAR BUREAU ITINERANT 1,أدرار- المكتب -البريدي -المتنقل- 1,R4,01071,,ADRAR,0101,ADRAR,أدرار,01,ADRAR,أدرار,27.8728594,-0.2889309
3742,AOULEF TIDIKLETE,أولف-تيديكلت,R2,01074,,AOULEF-VILLE,0112,AOULEF,أولف,01,ADRAR,أدرار,26.9725918,1.089437
3840,ZAOUIET AHCHEF,زاوية الحشف,R4,01075,, KSAR ZAOUIET LAHCHEF,0118,SALI,سالي,01,ADRAR,أدرار,26.8471851,0.0119875
3842,INZEGMIR,أنزجمير,R4,01076,,KSAR  INZAGMIR,0105,IN ZGHMIR,أنزجمير,01,ADRAR,أدرار,27.1101192,-0.1217929
4039,ADRAR TOUAT,أدرار-توات,R3,01077,,CHEF LIEU VILLE ADRAR,0101,ADRAR,أدرار,01,ADRAR,أدرار,27.8956897,-0.2735879
4134,ADRAR SAHET EL CHOHADA,أدرار-ساحة-الشهداء,R3,01085,,PLACE DES MARYTIMES ADRAR CENTRE VILLE,0101,ADRAR,أدرار,01,ADRAR,أدرار,27.8769391,-0.2602514
2,CHLEF RP,الشلف-م-ر,CE,02000,,RUE DU 20 AOUT ,0201,CHLEF,الشلف,02,CHLEF,الشلف,36.1663002,1.3331448
2983,OUED FODDA MOUSSALAHA,وادي-الفضة-المصالحة,HC,02001,,OUED FODDA CENTRE,0229,OUED FODDA,وادي الفضة,02,CHLEF,الشلف,36.184884,1.5301184
85,BOUKADIR,بوقدير,R1,02002,,ROUTE NATIONALE NÂ°04 BOUKADIR,0212,BOUKADIR,بوقادير,02,CHLEF,الشلف,36.0639457,1.125601
117,OUED FODDA,وادي-الفضة,R1,02003,,ROUTE NATIONALE NÂ°04 OUED FODDA,0229,OUED FODDA,وادي الفضة,02,CHLEF,الشلف,36.1878636,1.5313938
229,AIN MERANE,عين-مران,R1,02004,,AIN MERANE CENTRE,0232,AIN MERANE,عين مران,02,CHLEF,الشلف,36.1625143,0.9697827
230,CHLEF BENSOUNA,الشلف-بن-سونة,R1,02005,,HAY BENSOUNA,0201,CHLEF,الشلف,02,CHLEF,الشلف,36.1618508,1.3201701
168,TENES,تنس,HC,02006,,RUE KOSIER TENES CENTRE TENES,0202,TENES,تنس,02,CHLEF,الشلف,36.5104978,1.3061645
1234,CHLEF CHETTIA,الشلف-شطية,R2,02007,,ANNEXE,0224,CHETTIA,الشطية,02,CHLEF,الشلف,36.1972365,1.2609916
1047,EL KARIMIA,الكريمية,R2,02008,,EL KARIMIA CENTRE,0204,EL KARIMIA,الكريمية,02,CHLEF,الشلف,36.1151566,1.5524949
2273,SIDI AKKACHA,سيدي-عكاشة,R2,02009,,ROUTE NATIONALE NÂ°19 SIDI AKKACHA,0211,SIDI AKKACHA,سيدي عكاشة,02,CHLEF,الشلف,36.4637922,1.303094
2153,OULED FARES,أولاد فارس,R2,02010,,OULED FARES CENTRE,0210,OULED FARES,أولاد فارس,02,CHLEF,الشلف,36.2312717,1.2370683
1409,OUED SLY,وادي-السلي,R2,02011,,OUED SLY CENTRE,0221,OUED SLY,وادي سلي,02,CHLEF,الشلف,36.1021647,1.2000602
2624,TAOUGRITE,توقريت,R2,02012,,TAOUGRITE CENTRE,0206,TAOUGRITE,تاوقريت,02,CHLEF,الشلف,36.2468117,0.9235767
1063,CHLEF CITE ADMINISTRATIVE,الشلف-حي-الإداري,R3,02013,,RUE DE LA RESISTANCE,0201,CHLEF,الشلف,02,CHLEF,الشلف,36.1639518,1.3372366
2627,CHLEF ZEBOUDJA,زبوجة,R2,02014,,ZEBOUDJA CENTRE,0220,ZEBOUDJA,الزبوجة,02,CHLEF,الشلف,36.3518145,1.4307826
1745,CHLEF EL MARSA,المرسى,R3,02015,,EL-MARSA,0223,EL MARSA,المرسى,02,CHLEF,الشلف,36.4042944,0.9163598
2628,AHMED KHALFAOUI,أحمد-خلفاوي,R3,02016,,ZONE 2,0201,CHLEF,الشلف,02,CHLEF,الشلف,36.1549883,1.3523233
890,BENI HAOUA,بني-حواء,R2,02017,,BENI HAOUA,0207,BENI HAOUA,بني حواء,02,CHLEF,الشلف,36.5304212,1.5701206
293,ABOU EL HASSAN,أبو-الحسن,R2,02018,,ABOU EL-HASSEN,0222,ABOU EL HASSAN,أبو الحسن,02,CHLEF,الشلف,36.4176075,1.1954408
2704,HEUMIS AIN BEIDA,حميس-عين-البيضاء,R3,02019,,LA GARE,0231,BOUZGHAIA,بوزغاية,02,CHLEF,الشلف,36.3091492,1.2443776
712,CHETTIA VSA,الشطية,R2,02020,,CHETTIA VSA,0224,CHETTIA,الشطية,02,CHLEF,الشلف,36.1864486,1.2501049
1273,BOUZGHAIA,بوزغاية,R2,02021,,RN19,0231,BOUZGHAIA,بوزغاية,02,CHLEF,الشلف,36.3369423,1.2395152
1909,CHLEF HAY BADR,الشلف-حي-البدر,R3,02022,,ZONE 3,0201,CHLEF,الشلف,02,CHLEF,الشلف,36.137025,1.3047017
1449,HAY NASR,الشلف-حي-النصر,R3,02023,,ZONE 5,0201,CHLEF,الشلف,02,CHLEF,الشلف,36.1609833,1.366205
1913,OUM DROU,أم-الدروع,R2,02024,,OUM DROU,0233,OUM DROU,أم الدروع,02,CHLEF,الشلف,36.1979067,1.3863333
2174,SENDJAS,سنجاس,R2,02025,,SENDJAS,0219,SENDJAS,السنجاس,02,CHLEF,الشلف,36.0628591,1.401728
3013,BOUKADIR HAY EL HOURIA,بوقادير-الحرية,R3,02026,,HAY EL HOURIA BOUKADIR,0212,BOUKADIR,بوقادير,02,CHLEF,الشلف,36.0648318,1.1238261
2988,TENES BOUDIAF,تنس-محمد-بوضياف,R2,02027,,TENES CENTRE,0202,TENES,تنس,02,CHLEF,الشلف,36.5109427,1.3081764
1297,EL ATHMANIA,العثمانية,R4,02028,,EL-ATMANIA,0212,BOUKADIR,بوقادير,02,CHLEF,الشلف,36.0186286,1.1615489
2044,CHLEF OULED ABBES,أولاد-عباس,R3,02029,,OULED ABBES,0218,OULED ABBES,أولاد عباس,02,CHLEF,الشلف,36.2148267,1.4862767
2047,OULED ZIAD,أولاد-زياد,R4,02030,,OULED ZIAD ,0208,SOBHA,صبحة,02,CHLEF,الشلف,36.1524288,1.0469286
1479,HARCHOUN,حرشون,R3,02031,,HARCHOUN,0209,HARCHOUN,حرشون,02,CHLEF,الشلف,36.1115617,1.505075
2305,CHLEF SIDI MOUSSA,سيدي-موسى,R4,02032,,SIDI MOUSSA,0217,DAHRA,الظهرة,02,CHLEF,الشلف,36.2499232,0.7586322
2397,SOBHA,صبحة,R2,02033,,SOBHA,0208,SOBHA,صبحة,02,CHLEF,الشلف,36.1108217,1.109635
552,BIR SAF SAF,بئر-صفصاف,R4,02034,,BIR SAF SAF,0229,OUED FODDA,وادي الفضة,02,CHLEF,الشلف,36.2033356,1.5927295
355,BENI RACHED,بني-راشد,R3,02035,,BENI RACHED,0213,BENI RACHED,بني راشد,02,CHLEF,الشلف,36.2769909,1.5216757
2491,DAHRA,الظهرة,R3,02036,,DAHRA,0217,DAHRA,الظهرة,02,CHLEF,الشلف,36.2569171,0.8512662
1785,OULED BEN AEK,أولاد-ب-عبد-القادر,R2,02037,,OULED BEN AEK,0230,OULED BEN ABDELKADER,أولاد بن عبد القادر,02,CHLEF,الشلف,36.0262396,1.2741366
2567,HERANFA,الههرنفة,R3,02038,,HERENFA,0215,HARENFA,الهرانفة,02,CHLEF,الشلف,36.2478935,1.044498
775,BENAIRIA,بنارية,R3,02039,,BENAIRIA,0203,BENAIRIA,بنايرية,02,CHLEF,الشلف,36.35388,1.3733667
575,AIN SERDOUNE,عين-سردون,R4,02040,,AIN SERDOUNE,0232,AIN MERANE,عين مران,02,CHLEF,الشلف,36.2025194,0.946682
578,CHLEF SAHLI,الشلف-سحلي,R2,02041,,HAY SAHLI,0201,CHLEF,الشلف,02,CHLEF,الشلف,36.1756562,1.3277226
971,CHLEF LALA AOUDA,الشلف-لالة-عودة,R3,02042,,HAY LALLA AOUDA,0201,CHLEF,الشلف,02,CHLEF,الشلف,36.1454617,1.33183
2498,TADJENA,تجنة,R2,02043,,TADJNA CENTRE,0205,TADJENA,تاجنة,02,CHLEF,الشلف,36.3226765,1.1365406
1661,KALAA BOUHALOU,القلعة-بوحلو,R4,02044,,EL-KALAA BOUHALLOU,0211,SIDI AKKACHA,سيدي عكاشة,02,CHLEF,الشلف,36.4371715,1.2984561
1663,CHLEF HAY ABBAD,الشلف-حي-عباد,R3,02045,,HAY ABBAD,0201,CHLEF,الشلف,02,CHLEF,الشلف,36.1437317,1.3458133
1953,GUELTA,القلتة,R4,02046,,GUELTA,0223,EL MARSA,المرسى,02,CHLEF,الشلف,36.3596234,0.8358111
591,KECHACHEDA,قشاشدة,R4,02047,,KECHACHDA,0231,BOUZGHAIA,بوزغاية,02,CHLEF,الشلف,36.3804807,1.3217329
797,ATTATFA,عطاطفة,R4,02048,,KHERBA,0231,BOUZGHAIA,بوزغاية,02,CHLEF,الشلف,36.3612565,1.230488
1671,LABIODH MEDJADJA,الأبيض-مجاجة,R3,02049,,KHERRARA,0228,LABIOD MEDJADJA,الأبيض مجاجة,02,CHLEF,الشلف,36.2508967,1.392755
2835,CHLEF EL HADJADJ,الحجاج,R4,02050,,EL-HADJADJ,0227,EL HADJADJ,الحجاج,02,CHLEF,الشلف,36.0133581,1.3750917
1349,HAOUCH EL GHABA,حوش-الغابة,R4,02051,,HAOUCH EL-GHABA,0210,OULED FARES,أولاد فارس,02,CHLEF,الشلف,36.2757122,1.3026126
388,ZELGOU,زلقو,R4,02052,,ZELGOU,0203,BENAIRIA,بنايرية,02,CHLEF,الشلف,36.3831101,1.3667405
992,CHOUCHAOUA,شوشاوة,R4,02053,,PETIT BARRAGE,0204,EL KARIMIA,الكريمية,02,CHLEF,الشلف,36.0849666,1.59499
2729,ZEMMOURA,زمورة,R4,02054,,ZEMOURA,0230,OULED BEN ABDELKADER,أولاد بن عبد القادر,02,CHLEF,الشلف,35.968915,1.2554861
2506,SI BELKACEM,سي-بلقاسم,R4,02055,,CAPER,0210,OULED FARES,أولاد فارس,02,CHLEF,الشلف,36.1620567,1.1769617
2887,OUED SLY HAY HOURIA,واد-السلي-الحرية,R4,02056,,HAY SONELGAZ,0221,OUED SLY,وادي سلي,02,CHLEF,الشلف,36.0840346,1.2000897
2509,CHLEF CHEGGA,الشلف-الشقة,R4,02057,,HAY CHEGGA,0201,CHLEF,الشلف,02,CHLEF,الشلف,36.1919484,1.3469814
2930,BOULEFRED,بولفراد,R4,02058,,HAY BOULEFRED,0221,OUED SLY,وادي سلي,02,CHLEF,الشلف,36.0952633,1.2255733
2791,OULED FETTI,اولاد فتي,R4,02059,,OULED FETTI,0208,SOBHA,صبحة,02,CHLEF,الشلف,36.0616117,0.9890633
611,MOUSSADEK,موسدق,R4,02060,,MOUSSADEK,0226,MOUSSADEK,مصدق,02,CHLEF,الشلف,36.3542978,1.0093922
2844,OUED GOUSSINE,وادي-قوسين,R4,02061,,OUED GOUSSINE,0216,OUED GOUSSINE,وادي قوسين,02,CHLEF,الشلف,36.5248377,1.4962118
2795,VIEUX TENES,تنس-حي-القديم,R4,02062,,VIEUX TENES,0202,TENES,تنس,02,CHLEF,الشلف,36.5009393,1.3144388
2933,DHAR EL MEDDAH,دار-المداح,R4,02063,,DAR EL MEDDAH,0205,TADJENA,تاجنة,02,CHLEF,الشلف,36.312419,1.0955888
2969,CHAARIR,الشعارير,R4,02064,,CHAARIR,0202,TENES,تنس,02,CHLEF,الشلف,36.504332,1.2767955
2593,TALASSA,تلسة,R4,02065,,TALASSA,0214,TALASSA,تلعصة,02,CHLEF,الشلف,36.425274,1.0946342
2432,CHLEF SIDI ABDERRAHMANE,سيدي-عبد-الرحمان,R4,02066,,SIDI ABDERAHMANE,0225,SIDI ABDERRAHMANE,سيدي عبد الرحمن,02,CHLEF,الشلف,36.4926333,1.0957605
2232,REGGOUN,رقون,R4,02067,,REGGOUN,0202,TENES,تنس,02,CHLEF,الشلف,36.5027471,1.2556614
2110,MAIN SINFITA,مان-سنفيتة,R4,02068,,MAIN SINFITA,0220,ZEBOUDJA,الزبوجة,02,CHLEF,الشلف,36.3889266,1.52806
815,BENI OUAZEN,بني-وعزان,R4,02069,,BENI OUAZENE,0230,OULED BEN ABDELKADER,أولاد بن عبد القادر,02,CHLEF,الشلف,35.9566068,1.3801735
1536,BRIERA,بريرة,R4,02070,,BREIRA,0234,BREIRA,بريرة,02,CHLEF,الشلف,36.4490633,1.6153655
2351,BENI BOUATTEB,بني-بوعتاب,R4,02071,,BENI BOUATEB,0235,BENI BOUATEB,بني بوعتاب,02,CHLEF,الشلف,35.9922367,1.6216086
1203,CHAABNIA,شعابنية,R4,02072,,CHAABNIA,0206,TAOUGRITE,تاوقريت,02,CHLEF,الشلف,36.2436125,0.9496412
1844,MEDDINA,مدينة,R4,02073,,MEDDINA,0228,LABIOD MEDJADJA,الأبيض مجاجة,02,CHLEF,الشلف,36.2579067,1.3535517
1989,OULED BERRADJAH,أولاد-براجح,R4,02074,,OULED BERRADJAH,0232,AIN MERANE,عين مران,02,CHLEF,الشلف,36.1390851,0.9799432
2972,GUELAFTIA,قلافطية,R4,02075,,GUELAFTIA,0233,OUM DROU,أم الدروع,02,CHLEF,الشلف,36.1840783,1.4060383
2893,BENI OUADREN,بني-ودران,R4,02076,,BENI OUDRENE,0219,SENDJAS,السنجاس,02,CHLEF,الشلف,36.1240583,1.38187
2850,CHLEF OULED BOUALI,أولاد-بوعلي,R4,02077,,OULED BOUALI,0218,OULED ABBES,أولاد عباس,02,CHLEF,الشلف,36.2087217,1.454495
2802,MEZAOUAT,مزاوت,R4,02078,,MEZAOUET,0209,HARCHOUN,حرشون,02,CHLEF,الشلف,36.1430824,1.5099788
2744,BOUHENYENNE,بوحنبان,R4,02079,,BOUHENYENNE,0213,BENI RACHED,بني راشد,02,CHLEF,الشلف,36.3211504,1.515947
2676,ZEBABDJA,زبابجة,R4,02080,,ZEBABDJA,0229,OUED FODDA,وادي الفضة,02,CHLEF,الشلف,36.17487,1.4923433
2897,KALLOUL,كحلول,R4,02081,,KAHLOUL,0222,ABOU EL HASSAN,أبو الحسن,02,CHLEF,الشلف,36.4204087,1.2360913
2443,REZIM MAAMAR,رزيم-معمر,R4,02082,,CINQ PALMIER,0210,OULED FARES,أولاد فارس,02,CHLEF,الشلف,36.2817909,1.2395517
1021,BORDJ BAAL,برج-البعل,R4,02083,,BORDJ BAAL,0217,DAHRA,الظهرة,02,CHLEF,الشلف,36.3029266,0.8252016
3043,DAID MOHAMED,دايد محمد,R4,02084,,SIDI AISSA,0206,TAOUGRITE,تاوقريت,02,CHLEF,الشلف,36.2601397,0.9108807
3022,CHACHOU ALI,شاشو علي,R4,02085,,SIDI MEDOUL,0204,EL KARIMIA,الكريمية,02,CHLEF,الشلف,36.0967907,1.5535072
3061,BOUKADIR A SLIMANI,بوقادير سليماني,R3,02086,,DOUAIDIA,0212,BOUKADIR,بوقادير,02,CHLEF,الشلف,36.0574385,1.1323734
1379,CHETTIA B DJAYAHIA,الشطية ب جايحي,R2,02087,,ZONE 9,0224,CHETTIA,الشطية,02,CHLEF,الشلف,36.208805,1.26577
2804,CHLEF BOUABDELLAH FERAHI,الشلف ب فراحي,R4,02088,,712 LOGTS,0201,CHLEF,الشلف,02,CHLEF,الشلف,36.1347083,1.2857467
3023,CHLEF SIDI ZIANE,سيدي زيان,R4,02089,,SIDI ZIANE,0205,TADJENA,تاجنة,02,CHLEF,الشلف,36.3151249,1.1473883
2853,CHLEF FRERES KHELIF,الشلف اخوة خليف,R3,02090,,HAY BADR AADL,0201,CHLEF,الشلف,02,CHLEF,الشلف,36.1456567,1.3114267
2900,CHLEF HAI ESSALEM,الشلف حي السلام,R2,02091,,HAY ES SALAM,0201,CHLEF,الشلف,02,CHLEF,الشلف,36.1553113,1.3401386
1551,OULED FARES C U,الشلف-حي-الجامعي,R4,02092,,CITE UNIVERSITAIRE,0210,OULED FARES,أولاد فارس,02,CHLEF,الشلف,36.2250633,1.2437248
3044,EL FELLAGUIA GUENDEZ DJILLALI,الفلاقية-قندز-الجيلالي,R4,02093,,HAI EL FELLAGUIA,0203,BENAIRIA,بنايرية,02,CHLEF,الشلف,36.3389283,1.3249783
2941,CHLEF MOHAMED KOUADRI,الشلف محمد قوادري,R2,02094,,"CITE DES FONCTIONNAIRES,CHLEF CENTRE",0201,CHLEF,الشلف,02,CHLEF,الشلف,36.1695284,1.3409566
3614,AIN MERANE TAHER MOHAMED,عين مران طاهر م,R3,02095,,"CENTRE VILLE D'AIN MERANE,CHLEF",0232,AIN MERANE,عين مران,02,CHLEF,الشلف,36.1575107,0.9678402
3615,HERENFA CHEIKH EL HABIB,الهرنفة ش حبيب,R4,02096,,"LOCALITE D'AIN SERAGUE,HERENFA",0215,HARENFA,الهرانفة,02,CHLEF,الشلف,36.2017233,1.04143
3616,OUED SLY BOUKFOUSSA EL GHOUL CHAREF,وادي-سلي-بوكفوسة-الغول-الشارف,R4,02097,,DHARIDJ,0221,OUED SLY,وادي سلي,02,CHLEF,الشلف,36.1059529,1.2515841
3829,CHLEF GARRE ROUTIERE,الشلف-المحطة-البرية,R4,02098,,RN NÂ°04,0201,CHLEF,الشلف,02,CHLEF,الشلف,36.1557827,1.3043728
3830,CHLEF ALI HADJI AHMED,الشلف-علي-حاجي-أحمد,R4,02099,,HAY BENSOUNA,0201,CHLEF,الشلف,02,CHLEF,الشلف,36.1530533,1.3266783
3873,CHLEF ETABLISSEMENT POSTAL ITINERANT 1,الشلف-المكتب-البريدي-المتنقل-1,R4,02100,,DUPW CHLEF,0201,CHLEF,الشلف,02,CHLEF,الشلف,36.1629614,1.3445284
4013,CHLEF MAGHRAOUI SAHNOUN,الشلف-مغراوي-سحنون,R4,02101,,NOUVELLE VILLE BRADI,0201,CHLEF,الشلف,02,CHLEF,الشلف,36.15179,1.3079033
3,LAGHOUAT RP,الاغواط - م ر,HC,03000,,LAGHOUAT-RP RN 01,0301,LAGHOUAT,الأغواط,03,LAGHOUAT,الاغواط,33.8144646,2.8686543
50,AFLOU,افلو,HC,03001,,AFLOU,0319,AFLOU,أفلو,03,LAGHOUAT,الاغواط,34.114064,2.0958223
1222,LAGHOUAT MAAMOURAH,الاغواط - المعمورة,R1,03002,,MAAMOURAH,0301,LAGHOUAT,الأغواط,03,LAGHOUAT,الاغواط,33.7997965,2.8698357
118,KSAR EL HIRANE,قصر- الحيران,R2,03003,,KSAR-EL-HIRANE,0302,KSAR EL HIRANE,قصر الحيران,03,LAGHOUAT,الاغواط,33.7910432,3.1449996
137,HASSI RMEL,حاسي - الرمل,R2,03004,,HASSI-R'MEL,0306,HASSI R'MEL,حاسي الرمل,03,LAGHOUAT,الاغواط,32.9323947,3.2718787
153,BRIDA,بريدة,R3,03005,,BRIDA,0313,BRIDA,بريدة,03,LAGHOUAT,الاغواط,33.905825,1.7838181
847,LAGHOUAT EL MAKAM,الاغواط -المقام,R2,03006,,EL-MAKAM,0301,LAGHOUAT,الأغواط,03,LAGHOUAT,الاغواط,33.7946939,2.8536728
450,TADJEMOUT,تاجموت,R3,03007,,TADJEMOUT,0308,TADJEMOUT,تاجموت,03,LAGHOUAT,الاغواط,33.8798303,2.5232505
656,BELLIL,بليل,R3,03008,,BELLIL,0306,HASSI R'MEL,حاسي الرمل,03,LAGHOUAT,الاغواط,33.2670751,3.1942881
463,HASSI RMEL 1ER NOV,حاسي - الرمل - 1- نوفمبر,R3,03009,,HASSI-R'MEL-1ER NOV.,0306,HASSI R'MEL,حاسي الرمل,03,LAGHOUAT,الاغواط,32.954741,3.2776064
864,EL KHENEG,الخنق,R3,03010,,EL-KHENEG,0309,KHENEG,الخنق,03,LAGHOUAT,الاغواط,33.7433725,2.789972
672,TADJEROUNA,تاجرونة,R4,03011,,TADJEROUNA,0318,TADJROUNA,تاجرونة,03,LAGHOUAT,الاغواط,33.505031,2.1041548
193,AIN MADHI,عين - ماضي,R3,03012,,AIN-MADHI,0307,AIN MADHI,عين ماضي,03,LAGHOUAT,الاغواط,33.7973277,2.3063373
269,BEIDA,البيضاء,R4,03013,,BEIDHA,0312,BEIDHA,بيضاء,03,LAGHOUAT,الاغواط,34.4773474,2.1775786
274,EL ASSAFIA,العسافية,R4,03014,,EL-ASSAFIA,0320,EL ASSAFIA,العسافية,03,LAGHOUAT,الاغواط,33.8236772,2.9869307
1884,LAGHOUAT ESSADIKIA,الاغواط - الصاديقية,R2,03015,,CITE-ESSADIKIA,0301,LAGHOUAT,الأغواط,03,LAGHOUAT,الاغواط,33.794689,2.8767241
1585,LAGHOUAT CITE NORD,الاغواط - حي - الشمالي,R2,03016,,CITE-NORD,0301,LAGHOUAT,الأغواط,03,LAGHOUAT,الاغواط,33.8118462,2.856851
1078,LAGHOUAT 1ER NOV,الاغواط -اول نوفمبر,R3,03017,,CITE 1ER NOV.,0301,LAGHOUAT,الأغواط,03,LAGHOUAT,الاغواط,33.7862043,2.8517302
294,LAGHOUAT EMIR ABDELKADER,الاغواط - امير-ع - ق - ر,R1,03018,,ELGHARBIA,0301,LAGHOUAT,الأغواط,03,LAGHOUAT,الاغواط,33.8032105,2.8796317
504,SIDI MAKHLOUF,سيدي - مخلوف,R3,03019,,SIDI-MAKHLOUF,0304,SIDI MAKHLOUF,سيدي مخلوف,03,LAGHOUAT,الاغواط,34.1316445,3.0147638
1598,AFLOU HAI EL GAADA,افلو - حي - القعدة,R3,03020,,AFLOU-HAY-EL-GAADA,0319,AFLOU,أفلو,03,LAGHOUAT,الاغواط,34.1025583,2.1047667
1906,AFLOU MED BOUDIAF,افلو - ح - محمد - بوضياف,R3,03021,,AFLOU-HAI-MED-BOUDIAF,0319,AFLOU,أفلو,03,LAGHOUAT,الاغواط,34.1170267,2.1097717
311,HASSI DELAA,حاسي - الدلاعة,R3,03022,,HASSI-DALAA,0305,HASSI DELAA,حاسى دلاعة,03,LAGHOUAT,الاغواط,33.4171825,3.5517912
518,EL GUICHA,الغيشة,R3,03023,,EL-GHICHA,0314,EL GHICHA,الغيشة,03,LAGHOUAT,الاغواط,33.9317372,2.1423903
1099,SIDI BOUZID,سيدي - بوزيد,R4,03024,,SIDI-BOUZID,0324,SIDI BOUZID,سيدي بوزيد,03,LAGHOUAT,الاغواط,34.346055,2.2659133
527,GUELTAT SIDI SAAD,قلتة - سيدي - سعد,R3,03025,,GUELTAT-SIDI-SAAD,0310,GUELTAT SIDI SAAD,قتلة سيدي سعيد,03,LAGHOUAT,الاغواط,34.2980018,1.945144
741,TAOUIALA,تاويالة,R4,03026,,TAOUIALA,0317,TAOUIALA,تاويالة,03,LAGHOUAT,الاغواط,33.8684167,1.8571
1293,OUED MORRA,واد - مرة,R3,03027,,OUED-MOURRA,0321,OUED MORRA,واد مورة,03,LAGHOUAT,الاغواط,34.1699958,2.3280495
328,AIN SIDI ALI,عين - سيدي - علي,R4,03028,,AIN-SIDI-ALI,0311,AIN SIDI ALI,عين سيدي على,03,LAGHOUAT,الاغواط,34.1565033,1.54606
2048,AIN SKHOUNA,عين - السخونة,R4,03030,,AIN-SKHOUNA,0324,SIDI BOUZID,سيدي بوزيد,03,LAGHOUAT,الاغواط,34.2416783,2.216655
2181,CHEKALA,الشكالة,R4,03031,,CHEKKALA,0324,SIDI BOUZID,سيدي بوزيد,03,LAGHOUAT,الاغواط,34.29115,2.2299833
1483,BORDJ SENOUCI,برج - السنوسي,R4,03032,,BORDJ-SENOUCI,0301,LAGHOUAT,الأغواط,03,LAGHOUAT,الاغواط,33.8252979,2.8974306
1125,BENACER BENCHOHRA,بن - ناصر - بن شهرة,R4,03033,,BENACER-BENCHOHRA,0303,BENACER BEN CHOHRA,بن ناصر بن شهرة,03,LAGHOUAT,الاغواط,33.7544521,2.998791
1309,SEBGAG,سبقاق,R4,03034,,SEBGAG,0316,SEBGAG,سبقاق,03,LAGHOUAT,الاغواط,34.0282336,1.9319522
1491,TERKELLAL,ترقلل,R4,03035,,TERGHALEL,0314,EL GHICHA,الغيشة,03,LAGHOUAT,الاغواط,33.8226219,1.9625984
772,LAGHOUAT DJAMIA,الاغواط - الجامعة,R4,03036,,UNIVERSITE LAGHOUAT,0301,LAGHOUAT,الأغواط,03,LAGHOUAT,الاغواط,33.8005239,2.8501005
1786,ANFOUS,انفوس,R4,03037,,ANFOUS,0314,EL GHICHA,الغيشة,03,LAGHOUAT,الاغواط,33.9734676,2.1200086
1145,HADJ MECHRI,حاج - المشري,R4,03038,,HADJ-MECHERI,0315,HADJ MECHERI,حاج مشري,03,LAGHOUAT,الاغواط,33.9583942,1.6024224
368,EL HOUITA,الحويطة,R4,03040,,EL-HOUITA,0323,EL HOUITA,الحويطة,03,LAGHOUAT,الاغواط,33.6435863,2.4409792
1503,OUED MZI,واد - مزي,R4,03041,,OUED-M'ZI,0322,OUED M'ZI,واد مزي,03,LAGHOUAT,الاغواط,33.9203684,2.435755
1157,LALMAYA,للماية,R4,03042,,LALMAYA,0318,TADJROUNA,تاجرونة,03,LAGHOUAT,الاغواط,33.4240621,1.9982044
973,OUED TOUIL,واد - الطويل,R4,03043,,OUED-TOUIL,0310,GUELTAT SIDI SAAD,قتلة سيدي سعيد,03,LAGHOUAT,الاغواط,34.2485467,1.86141
790,HESSIAN DHIB,حسيان - الذيب,R4,03044,,HASSIANE-DHIB,0310,GUELTAT SIDI SAAD,قتلة سيدي سعيد,03,LAGHOUAT,الاغواط,34.4681655,1.8262545
981,BOUZBAIER,بوزبير,R4,03046,,BOUZBAEIR,0306,HASSI R'MEL,حاسي الرمل,03,LAGHOUAT,الاغواط,33.0694251,3.4834915
2321,AFLOU ZAOUI SAID,افلو زاوي سعيد,R3,03047,,AFLOU-ZAOUI-SAID,0319,AFLOU,أفلو,03,LAGHOUAT,الاغواط,34.1115165,2.107047
2210,LAGHOUAT POLE 1,الاغواط - قطب ج 1,R4,03049,,UNIVERSITE POLE 1 LAGHOUAT,0301,LAGHOUAT,الأغواط,03,LAGHOUAT,الاغواط,33.7961699,2.8468438
3202,AFLOU UNIVERSITE,افلو الجامعة,R4,03050,,AFLOU-UNIVERSITE,0319,AFLOU,أفلو,03,LAGHOUAT,الاغواط,34.10825,2.0707167
3201,LAGHOUAT EL WIAM,الاغواط الوئام,R2,03052,,CITE EL WIAM,0301,LAGHOUAT,الأغواط,03,LAGHOUAT,الاغواط,33.7875056,2.8423192
3292,AFLOU 1ER MAI,افلو 1 ماي,R3,03053,,AFLOU 1ER MAI,0319,AFLOU,أفلو,03,LAGHOUAT,الاغواط,34.1141337,2.0930553
3753,LAGHOUAT POLE 2,الاغواط قطب ج 2,R4,03054,,UNIVERSITE POLE 2 LAGHOUAT,0301,LAGHOUAT,الأغواط,03,LAGHOUAT,الاغواط,33.7755525,2.8260221
3913,LAGHOUAT ETABLISSEMENT POSTAL ITINERANT 1,الأغواط-المكتب-البريدي-المتنقل- 1,R4,03055,,LAGHOUAT,0301,LAGHOUAT,الأغواط,03,LAGHOUAT,الاغواط,33.814832,2.8685007
3912,LAGHOUAT DHALAA,الأغواط-الضلعة,R4,03056,,RUE DHALAA,0301,LAGHOUAT,الأغواط,03,LAGHOUAT,الاغواط,33.807438,2.8861763
3924,EL HADJEB,الحاجب,R4,03057,,EL-HADJEUB RN23 VERS AFLOU,0308,TADJEMOUT,تاجموت,03,LAGHOUAT,الاغواط,33.9434687,2.6206372
4,OUM EL BOUAGHI RP,ام البواقي-م ر,CE,04000,,BD HOUARI BOUMEDIENE,0401,OUM EL BOUAGHI,أم البواقي,04,OUM EL BOUAGHI,أم البواقي,35.8689583,7.110575
51,OEB AIN BEIDA,عين البيضاء,HC,04001,,BD MOHAMED KHEMISTI,0402,AIN BEIDA,عين البيضاء,04,OUM EL BOUAGHI,أم البواقي,35.7955489,7.3935655
86,AIN MLILA,عين مليلة,HC,04002,,CITE BRAKNIA 750 LOGTS BOUKETANA ALI,0403,AIN M'LILA,عين مليلة,04,OUM EL BOUAGHI,أم البواقي,36.0416138,6.5737103
1569,OEB HOUARI BOUMEDIENE,ام -البواقي-ه-ب,R1,04003,,rue 1er novembre 1954,0401,OUM EL BOUAGHI,أم البواقي,04,OUM EL BOUAGHI,أم البواقي,35.8754725,7.1175506
2461,MESKIANA,مسكيانة,R1,04004,,RUE DU 1ER NOVEMBRE,0424,MESKIANA,مسكيانة,04,OUM EL BOUAGHI,أم البواقي,35.6333796,7.6667949
645,AIN FAKROUN,عين- فكرون,R2,04005,,AIN EL BORDJ,0425,AIN FAKROUN,عين فكرون,04,OUM EL BOUAGHI,أم البواقي,35.9750332,6.8741169
848,AIN KERCHA,عين - كرشة,R1,04006,,RUE DRAGA MAOUCHE ,0412,AIN KERCHA,عين كرشة,04,OUM EL BOUAGHI,أم البواقي,35.9256627,6.6989094
240,AIN BAIDA LAZABI,عين -البيضاء- العزابي,R2,04007,,CITE  LAZABI,0402,AIN BEIDA,عين البيضاء,04,OUM EL BOUAGHI,أم البواقي,35.7933279,7.3815291
1729,DHALAA,الضلعة,R3,04008,,RUE DU 1ER NOVEMBRE,0411,DHALAA,الضلعة,04,OUM EL BOUAGHI,أم البواقي,35.46139,7.5463783
860,OEB ANNASR,ام البواقي -النصر,R3,04009,,CITE AN NASR,0401,OUM EL BOUAGHI,أم البواقي,04,OUM EL BOUAGHI,أم البواقي,35.8779817,7.1239717
3031,SOUK NAAMANE,سوق - نعمان,R2,04010,,RUE NATIONALE NÂ°10,0417,SOUK NAAMANE,سوق نعمان,04,OUM EL BOUAGHI,أم البواقي,35.8965533,6.393855
2986,SIGUS,سيقوس,R2,04011,,OULED-ZAID,0406,SIGUS,سيقوس,04,OUM EL BOUAGHI,أم البواقي,36.1250926,6.7864384
2625,HENCHIR TOUMGHANI,هنشير - تومغني,R2,04012,,HENCHIR-LAATACHE,0413,HANCHIR TOUMGHANI,هنشير تومغاني,04,OUM EL BOUAGHI,أم البواقي,35.9328705,6.7405778
2024,FKIRINA,افكرينة,R2,04013,,ROUTE NATIONALE NÂ°10,0416,F'KIRINA,فكرينة,04,OUM EL BOUAGHI,أم البواقي,35.6668049,7.301798
275,AIN MLILA GOUADJLIA,عين -امليلة -قواجلية,R2,04014,,RUE SOUIKI,0403,AIN M'LILA,عين مليلة,04,OUM EL BOUAGHI,أم البواقي,36.0203883,6.5717483
1417,BERRICHE,بريش,R3,04015,,RUE NATIONALE NÂ°80,0409,BERRICHE,بريش,04,OUM EL BOUAGHI,أم البواقي,35.9183624,7.3773018
282,AIN FAKROUN SATHA,عين - فكرون سطحة,R3,04016,,CITE-SATHA,0425,AIN FAKROUN,عين فكرون,04,OUM EL BOUAGHI,أم البواقي,35.9688665,6.8760234
1261,AIN MLILA BEN MHIDI,عين مليلة بن م,R3,04017,,BOUGHERARA-FEDJOUDJ,0403,AIN M'LILA,عين مليلة,04,OUM EL BOUAGHI,أم البواقي,36.0344983,6.5737183
500,KSAR SBAHI,قصر- الصبيحي,R3,04018,,RUE DU 1ER NOVEMBRE,0422,KSAR SBAHI,قصر الصباحي,04,OUM EL BOUAGHI,أم البواقي,36.0828946,7.2566235
2821,OULED HAMLA,ا ولاد - حملة,R3,04019,,CITE ANNASR,0410,OULED HAMLA,أولاد حملة,04,OUM EL BOUAGHI,أم البواقي,36.0782498,6.4689218
209,AIN BABOUCHE,عين- ببوش,R2,04020,,DUPW Oum El Bouaghi,0408,AIN BABOUCHE,عين بابوش,04,OUM EL BOUAGHI,أم البواقي,35.9435217,7.1857867
1443,BIR CHOUHADA,بئر- الشهداء,R3,04021,,CARREFOUR BEN M'HIDI ROUTE NATINALE NÂ°3,0421,BIR CHOUHADA,بئر الشهداء,04,OUM EL BOUAGHI,أم البواقي,35.8941547,6.2958762
2771,BERRIRICHE,بريريش,R4,04022,,BERRIRICHE,0409,BERRICHE,بريش,04,OUM EL BOUAGHI,أم البواقي,35.8739367,7.374276
911,AIN ZITOUN,عين - الزيتون,R4,04023,,ROUTE DE WILAYA NÂ°9 VERS BATNA NÂ°10,0427,AIN ZITOUN,عين الزيتون,04,OUM EL BOUAGHI,أم البواقي,35.6854919,6.9347518
733,AIN FERHAT,عين- فرحات,R4,04024,,AIN-FERHAT,0418,ZORG,الزرق,04,OUM EL BOUAGHI,أم البواقي,35.7871732,7.4714061
321,BIR AMAR,بئر عمار,R4,04025,,BIR-AMAR,0415,AIN DISS,عين الديس,04,OUM EL BOUAGHI,أم البواقي,36.0323166,7.0001655
1287,BEHAIR CHERGUI,بحير-الشرقي,R4,04026,,BEHAIR-CHERGUI,0404,BEHIR CHERGUI,بحير الشرقي,04,OUM EL BOUAGHI,أم البواقي,35.7939485,7.7198904
1619,BIR ROGAA,بئر- رقعة,R4,04027,,BIR-ROGAA,0409,BERRICHE,بريش,04,OUM EL BOUAGHI,أم البواقي,35.7883946,7.3802907
1466,TOUZELINE,توزلين,R4,04028,,TOUZELINE,0401,OUM EL BOUAGHI,أم البواقي,04,OUM EL BOUAGHI,أم البواقي,35.9349433,6.96515
541,SIDI RGHISS,سيدي- رغيس امزي,R4,04029,,SIDI-R'GHISS,0401,OUM EL BOUAGHI,أم البواقي,04,OUM EL BOUAGHI,أم البواقي,35.9144667,7.0051217
332,BIR KHECHBA,بئر- خشبة,R4,04030,,BIR-KHECHBA,0401,OUM EL BOUAGHI,أم البواقي,04,OUM EL BOUAGHI,أم البواقي,35.8928755,7.1579325
2306,HARMELIA,حرملية,R4,04032,,OULED-GACEM,0429,EL HARMILIA,الحرملية,04,OUM EL BOUAGHI,أم البواقي,35.9248233,6.623425
3086,SOUALHIA,صوالحية,R4,04033,,BIR-TANDJA,0403,AIN M'LILA,عين مليلة,04,OUM EL BOUAGHI,أم البواقي,36.013245,6.600356
3071,BIR TANDJA,بئر - طنجة,R4,04034,,TAXAS,0406,SIGUS,سيقوس,04,OUM EL BOUAGHI,أم البواقي,36.11802,6.8185433
3052,TAXAS,طاقزة,R4,04035,,RUE D'INDEPENDANCED,0406,SIGUS,سيقوس,04,OUM EL BOUAGHI,أم البواقي,36.06856,6.81425
2919,OULED ZAID,اولاد - زايد,R4,04037,,OULED-NACEUR,0403,AIN M'LILA,عين مليلة,04,OUM EL BOUAGHI,أم البواقي,36.0757901,6.5511172
2879,OULED NACEUR,اولاد - ناصر,R4,04038,,OULED-HAMLA,0405,EL AMIRIA,العامرية,04,OUM EL BOUAGHI,أم البواقي,36.1121383,6.8838283
2405,HENCHIR LAATACHE,هنشير لعطش,R4,04039,,HARMELIA,0420,OULED ZOUAI,أولاد زاوي,04,OUM EL BOUAGHI,أم البواقي,35.8414143,6.511436
2196,EL DJAZIA,الجزية,R4,04040,,EL-DJAZIA,0414,EL DJAZIA,الجازية,04,OUM EL BOUAGHI,أم البواقي,35.6646689,7.5091814
1947,OULED GACEM,اولاد- قاسم,R4,04041,,SILA,0428,OULED GACEM,أولاد قاسم,04,OUM EL BOUAGHI,أم البواقي,36.033795,6.6667667
1158,BOUGHERARA EL FEDJOUDJ,بوغرارة- الفجوج,R4,04042,,RUE RADJAI AMMAR,0419,EL FEDJOUDJ BOUGHRARA SAOUDI,الفجوج بوغرارة سعودي,04,OUM EL BOUAGHI,أم البواقي,35.709465,6.820255
582,AIN EL BORDJ,عين البرج,R4,04043,,CITE GOUADJLIA,0405,EL AMIRIA,العامرية,04,OUM EL BOUAGHI,أم البواقي,36.10993,6.9452733
583,EL BELLALA,البلالة,R4,04044,,RAHIA,0407,EL BELALA,البلالة,04,OUM EL BOUAGHI,أم البواقي,35.6637567,7.7889897
377,R HIA,الرحية,R4,04045,,RUE HOUARI-BOUMEDIENNE,0426,RAHIA,الراحية,04,OUM EL BOUAGHI,أم البواقي,35.7635765,7.6442284
2652,BIR OUNES,بئر- وناس,R4,04046,,BIR-OUNES,0402,AIN BEIDA,عين البيضاء,04,OUM EL BOUAGHI,أم البواقي,35.8152248,7.3220496
2322,HENCHIR DOUAMES,هنشير-الدوامس,R4,04047,,HENCHIR-DOUAMES,0423,OUED NINI,وادي نيني,04,OUM EL BOUAGHI,أم البواقي,35.5740123,7.3499788
2927,AIN BAIDA 1ER NOV,عين -البيضاء ا نوفمبر,R2,04048,,RUE DU 1ER NOVEMBRE,0402,AIN BEIDA,عين البيضاء,04,OUM EL BOUAGHI,أم البواقي,35.8046797,7.3923578
799,OEB 18 FEVRIER,ام البواقي 18 ف,R1,04050,,NOUVELLE VILLE MAKOMADAS,0401,OUM EL BOUAGHI,أم البواقي,04,OUM EL BOUAGHI,أم البواقي,35.8748418,7.0948119
3483,AIN BENAYED,عين بن عياد,R4,04051,,AIN BENAYAD,0418,ZORG,الزرق,04,OUM EL BOUAGHI,أم البواقي,35.8090175,7.5365323
3485,GARAA SAIDA,قرعة- سعيدة,R4,04052,,RUE DU 1ER NOVEMBRE 54,0412,AIN KERCHA,عين كرشة,04,OUM EL BOUAGHI,أم البواقي,35.8464453,6.6673365
3486,SILA,سيلة,R4,04053,,GARAA SAIDA,0406,SIGUS,سيقوس,04,OUM EL BOUAGHI,أم البواقي,36.106115,6.7024467
3487,OEB B BOULAID,ام البواقي ب بولعيد,R4,04054,,RUE HOUARI-BOUMEDIENNE CITE 1500 LOGS,0401,OUM EL BOUAGHI,أم البواقي,04,OUM EL BOUAGHI,أم البواقي,35.86697,7.1197433
3489,OEB UNIVERSITE,أم البواقي-الجامعة,R4,04056,,UNIVERSITE LARBI BEN M'HIDI,0401,OUM EL BOUAGHI,أم البواقي,04,OUM EL BOUAGHI,أم البواقي,35.8783466,7.0917062
3481,AIN BAIDA SAIDI DJEMOI,ع البيضاء سعيدي,R3,04057,,CITE SAIDI DJEMOI,0402,AIN BEIDA,عين البيضاء,04,OUM EL BOUAGHI,أم البواقي,35.7891408,7.3924442
3484,MESKIANA BELFETNI,مسكانة بلفتني,R4,04058,,EL-BELLALA,0424,MESKIANA,مسكيانة,04,OUM EL BOUAGHI,أم البواقي,35.622428,7.6579635
3494,AIN MLILA 05 JUILLET,عين مليلة 5 جويلية,R3,04061,,EL AMIRIA,0403,AIN M'LILA,عين مليلة,04,OUM EL BOUAGHI,أم البواقي,36.0386861,6.5607504
3490,AIN BEIDA 20 AOUT,عين البيضاء 20 اوت,R4,04062,,CITE ASKRI CHERIF,0402,AIN BEIDA,عين البيضاء,04,OUM EL BOUAGHI,أم البواقي,35.7909466,7.385198
3495,AIN KERCHA ESSALEM,عين كرشة السلام,R3,04063,,CITE  05 JUILLET,0412,AIN KERCHA,عين كرشة,04,OUM EL BOUAGHI,أم البواقي,35.9250933,6.7035767
3482,AIN FAKROUN BEKHOUCHE AISSA,عين فكرون بكوش-ع,R3,04064,,rue 1er novembre 1954,0425,AIN FAKROUN,عين فكرون,04,OUM EL BOUAGHI,أم البواقي,35.9808955,6.8719097
3491,AIN BEIDA EL KAHINA,عين البيضاء الكاهنة,R3,04065,,CITE EL KAHINA,0402,AIN BEIDA,عين البيضاء,04,OUM EL BOUAGHI,أم البواقي,35.7908946,7.4034634
3780,SIGUS 20 AOUT,سيقوس 20 اوت 1955,R4,04066,,CITE ESSALAM,0406,SIGUS,سيقوس,04,OUM EL BOUAGHI,أم البواقي,36.12182,6.783845
3781,SOUK NAAMANE HOUARI BOUMEDIEN,سوق نعمان هواري -ب,R3,04067,,CITE 20 AOUT 1955,0417,SOUK NAAMANE,سوق نعمان,04,OUM EL BOUAGHI,أم البواقي,35.8925697,6.3885913
3846,AIN FAKROUN AFAK 2,عين-فكرون-أفاق-2,R3,04068,,CITE AFAK2,0425,AIN FAKROUN,عين فكرون,04,OUM EL BOUAGHI,أم البواقي,35.9745799,6.8680477
4010,OEB GARE,أم-البواقي-محطة,R4,04069,,OEB GARE ROUTIERE ,0401,OUM EL BOUAGHI,أم البواقي,04,OUM EL BOUAGHI,أم البواقي,35.8622977,7.1139782
4068,OUM EL BOUAGHI EPI 1,أم-البواقي- المكتب -البريدي -المتنقل- 1,R4,04070,,DUPW  OUM EL BOUAGHI,0401,OUM EL BOUAGHI,أم البواقي,04,OUM EL BOUAGHI,أم البواقي,,
4104,MESKIANA 08 MAI 45,مسكيانة 8 ماي 45,R3,04071,,RUE ZAIDI AMOR  CITE 08 MAI 45,0424,MESKIANA,مسكيانة,04,OUM EL BOUAGHI,أم البواقي,35.6249662,7.6607133
5,BATNA RP,باتنة م ر,CE,05000,,CitÃ© des 410 logts ex ECOTEC BATNA,0501,BATNA,باتنة,05,BATNA,باتنة,35.5519126,6.1782881
52,BARIKA POSTE,بريكة,HC,05001,,CENTRE VILLE BARIKA,0542,BARIKA,بريكة,05,BATNA,باتنة,35.3849846,5.3706018
87,AIN TOUTA POSTE,عين التوتة,R1,05002,,ROUTE DE BISKRA,0545,AIN TOUTA,عين التوتة,05,BATNA,باتنة,35.3776252,5.892512
436,BATNA BEN BOULAID,باتنة بن بولعيد,R1,05003,,ALEES BEN BOULAID,0501,BATNA,باتنة,05,BATNA,باتنة,35.5591073,6.1741982
138,NGAOUS POSTE,نقاوس,R1,05004,,CITE ADMINISTRATIF,0509,N'GAOUS,نقاوس,05,BATNA,باتنة,35.5522833,5.6144364
1039,BATNA MEBARKI,باتنة مباركي,R1,05005,,CITE LAMBARKIA,0501,BATNA,باتنة,05,BATNA,باتنة,35.5454855,6.1908356
1228,BATNA 1ER NOV,باتنة أول نوفمبر,R1,05006,,FRERES BOUABSA BATNA,0501,BATNA,باتنة,05,BATNA,باتنة,35.5545038,6.1772796
177,ARRIS,أريس,R1,05007,,PLACE BEN BOULAID,0516,ARRIS,أريس,05,BATNA,باتنة,35.25787,6.3496767
1874,BATNA FRERES KHEZZAR,باتنة الاخوة خزار,R2,05008,,CITE 742 LOGTS,0501,BATNA,باتنة,05,BATNA,باتنة,35.5343807,6.1832682
1237,RAS EL AIOUNE,رأس العيون,R1,05009,,CENTRE VILLE RAS-EL-AIOUN,0551,RAS EL AIOUN,رأس العيون,05,BATNA,باتنة,35.674588,5.6535598
2466,HADJ LAKHDAR,باتنة حاج لخضر,R1,05010,,CITE 800 LOGTS,0501,BATNA,باتنة,05,BATNA,باتنة,35.5461394,6.1616392
189,TAZOULT,تازولت لامباز,R2,05011,,CENTRE VILLE TAZOULT,0508,TAZOULT,تازولت,05,BATNA,باتنة,35.48258,6.257175
1578,BATNA MENAA,منعة,R2,05012,,CENTRE VILLE MENAA,0506,MENAA,منعة,05,BATNA,باتنة,35.1770667,6.0048517
195,MEROUANA POSTE,مروانة,R1,05013,,ROUTE RAS EL AIOUN,0504,MEROUANA,مروانة,05,BATNA,باتنة,35.6342689,5.9060312
276,BATNA ANNASR,باتنة النصر,R2,05014,,CITE AN-NASR,0501,BATNA,باتنة,05,BATNA,باتنة,35.5502502,6.168752
200,REHAL ABDELAZIZ,المعذر,R2,05015,,CENTRE VILLE EL-MADHER,0507,EL MADHER,المعذر,05,BATNA,باتنة,35.6236944,6.3698821
1423,OUED EL MA,واد الماء,R2,05016,,CENTRE VILLE OUED-EL-MA,0533,OUED EL MA,وادي الماء,05,BATNA,باتنة,35.6462455,5.9954895
2284,BATNA EMIR AEK,بانتة الأمير ع- ق-ر,R3,05017,,CITE EMIR ABDELKADER,0501,BATNA,باتنة,05,BATNA,باتنة,35.5601817,6.1823167
2380,BATNA IMADGHASSENE,باتنة امدغاسن,R3,05018,,AEROPORT BATNA,0501,BATNA,باتنة,05,BATNA,باتنة,35.7575855,6.3084746
2705,NGAOUS 5 JUILLET,نقاوس 5 جويلية,R2,05019,,N'GAOUS CENTRE VILLE,0509,N'GAOUS,نقاوس,05,BATNA,باتنة,35.5526134,5.611515
2167,TKOUT,تكوت,R3,05020,,T'KOUT CENTRE,0544,T'KOUT,تكوت,05,BATNA,باتنة,35.137945,6.3084867
2170,BATNA EL BOUSTENE,باتنة البستان,R2,05021,,CITE EL BOUSTENE,0501,BATNA,باتنة,05,BATNA,باتنة,35.5342237,6.1659317
2038,BARIKA LIBERTE,بريكة الحرية,R3,05022,,CITE LIBERTE,0542,BARIKA,بريكة,05,BATNA,باتنة,35.3982233,5.3721183
1094,TIMGAD,تيمقاد,R2,05023,,ROUTE DES RUINESTIMGAD,0550,TIMGAD,تيمقاد,05,BATNA,باتنة,35.4945705,6.4671608
1914,ARRIS MEZOUDJI AMOR,أريس مزوجي أعمر,R3,05024,,CITE MEZOUDJI-AMOR,0516,ARRIS,أريس,05,BATNA,باتنة,35.2544933,6.3524083
1764,BATNA SERIANA,سريانة,R2,05025,,CENTRE VILLE SERIANA,0505,SERIANA,سريانة,05,BATNA,باتنة,35.6923589,6.1853444
1458,MEDINA,مدينة,R3,05026,,MEDINA CENTRE,0530,ICHMOUL,أشمول,05,BATNA,باتنة,35.3085883,6.5100583
1109,SEGGANA,سقانة,R3,05027,,ROUTE DE BARIKA,0529,SEGGANA,سقانة,05,BATNA,باتنة,35.36551,5.5708517
2177,BARIKA BENBAATOUCHE,بريكة بن بعطوش,R2,05028,,CITE 1000 LOGTS,0542,BARIKA,بريكة,05,BATNA,باتنة,35.391831,5.3529018
2391,NGAOUS RAS EL AIN,نقاوس رأس العين,R3,05029,,CITE RAS EL AIN,0509,N'GAOUS,نقاوس,05,BATNA,باتنة,35.5473701,5.6322796
2875,MEROUANA 8 MAI,مروانة 8 ماي 45,R3,05030,,RUE 5 JUILLET,0504,MEROUANA,مروانة,05,BATNA,باتنة,35.6287321,5.9134802
337,AIN YAGOUT,عين ياقوت,R3,05031,,AIN-YAGOUT CENTRE,0522,AIN YAGOUT,عين ياقوت,05,BATNA,باتنة,35.7759383,6.41524
547,AIN DJASSER,عين جاسر,R2,05032,,CENTRE VILLE A. DJASSER,0519,AIN DJASSER,عين جاسر,05,BATNA,باتنة,35.8590295,6.001724
1126,ALI NEMEUR,علي النمر,R3,05033,,CITE ALI-NEMEUR,0546,HIDOUSSA,حيدوسة,05,BATNA,باتنة,35.6086629,5.9349043
2827,MEROUANA H B,مروانة -ه- بومدين,R2,05034,,CITE HOUARI-BOUMEDIENE,0504,MEROUANA,مروانة,05,BATNA,باتنة,35.6230871,5.912413
219,TENIET EL ABED,ثنية العابد,R2,05035,,TENIET-EL-ABED CENTRE,0547,TENIET EL ABED,ثنية العابد,05,BATNA,باتنة,35.25317,6.1980483
2402,OUED TAGA,واد الطاقة,R3,05036,,OUED-TAGA CITE NOUVELLE,0548,OUED TAGA,وادي الطاقة,05,BATNA,باتنة,35.4311416,6.4140386
958,MDOUKAL,أمدوكال,R3,05037,,M'DOUKAL CENTRE,0555,M'DOUKAL,أمدوكال,05,BATNA,باتنة,35.1199504,5.1773326
2193,NOUADER,نوادر,R3,05038,,NOUADER ROUTE MENAA,0552,CHIR,شير,05,BATNA,باتنة,35.22669,6.1304867
961,BATNA CHEMORA,الشمرة,R2,05039,,CHEMMORA CENTRE,0536,CHEMORA,شمرة,05,BATNA,باتنة,35.6681533,6.6442933
964,BATNA KECHIDA,باتنة كشيدة,R3,05040,,BATNA CITE KECHIDA,0501,BATNA,باتنة,05,BATNA,باتنة,35.5614445,6.1568228
1323,BOUZINA,بوزينة,R3,05041,,BOUZINA CENTRE,0535,BOUZINA,بوزينة,05,BATNA,باتنة,35.2644039,6.0992268
2495,ARRIS GRINE BELGAC,أريس قرين بلقاسم,R3,05042,,CITE 1052 LOGTS ARRIS,0516,ARRIS,أريس,05,BATNA,باتنة,35.2577133,6.36809
2071,TIFFELFEL,تيفلفال,R4,05043,,TIFELFEL,0502,GHASSIRA,غسيرة,05,BATNA,باتنة,35.1168417,6.2321933
1328,MCIL,لمسيل,R3,05044,,M'CIL CENTRE,0520,OULED SELLAM,أولاد سلام,05,BATNA,باتنة,35.8258445,5.88252
378,BITAM,بيطام,R3,05045,,ROUTE BISKRA-BITAM,0514,BITAM,بيطام,05,BATNA,باتنة,35.3128417,5.3734717
792,MERABTINE,مرابطين,R2,05046,,MERABTINE EL DJEZZAR,0543,DJEZZAR,الجزار,05,BATNA,باتنة,35.507405,5.2649567
982,EL KSAR,القصر,R3,05047,,EL-KSAR,0528,KSAR BELEZMA,قصر بلزمة,05,BATNA,باتنة,35.6752443,5.9014741
1809,AIN TOUTA 1ER NOV,عين التوتة 1 نوفمبر,R4,05048,,RUE LOUCHENE TAHAR,0545,AIN TOUTA,عين التوتة,05,BATNA,باتنة,35.3780114,5.8968725
985,FOUM TOUB,فوم الطوب,R4,05049,,FOUM-TOUB,0531,FOUM TOUB,فم الطوب,05,BATNA,باتنة,35.4056946,6.5521124
2084,AIN TOUTA HAMADA,عين التوتة حمادة,R4,05050,,CITE HAMADA,0545,AIN TOUTA,عين التوتة,05,BATNA,باتنة,35.3698559,5.8955801
2088,TALKHEMPT,تالخمت,R3,05051,,TALKHEMPT,0534,TALKHAMT,تالغمت,05,BATNA,باتنة,35.6682067,5.7918485
2727,CHELMA,شلمة,R4,05052,,ROUTE DE MENAA,0506,MENAA,منعة,05,BATNA,باتنة,35.1881667,6.040295
1965,NARA,نارة,R4,05053,,NARA,0506,MENAA,منعة,05,BATNA,باتنة,35.159785,6.0431767
1677,CHAABAT OULED CHEL,شعبة أولاد شليح,R4,05054,,CHAABET-OULED-CHELIH,0537,OUED CHAABA,وادي الشعبة,05,BATNA,باتنة,35.5255206,5.9999968
1823,TAXLENT,تكسلانت,R4,05055,,TAXLENT,0538,TAXLENT,تاكسلانة,05,BATNA,باتنة,35.604385,5.7988413
2584,TAGOUST EL HAMRA,تاقوست الحمراء,R4,05056,,TAGOUST-EL-HAMRA,0535,BOUZINA,بوزينة,05,BATNA,باتنة,35.2350978,6.0477455
391,BOUMAGUEUR,بومقر,R4,05057,,BOUMAGUER,0541,BOUMAGUER,بومقر,05,BATNA,باتنة,35.50474,5.5524867
2667,TLETZ,ثلاث,R4,05058,,T'LETZ,0547,TENIET EL ABED,ثنية العابد,05,BATNA,باتنة,35.2840917,6.25066
2336,OUARKA,ورقة,R4,05059,,OUARKA,0521,TIGHERGHAR,تيغرغار,05,BATNA,باتنة,35.1334771,5.9690688
397,BOUSSALAH,بوصالح,R4,05060,,BOUSSALAH,0526,TIGHANIMINE,تغانمين,05,BATNA,باتنة,35.2126967,6.3029467
1192,BAIOU,بايو,R4,05061,,BAIOU,0548,OUED TAGA,وادي الطاقة,05,BATNA,باتنة,35.424805,6.3419283
614,BOULHILET,بولهيلات,R4,05062,,BOULHILET CENTRE,0560,BOULHILAT,بوالحيلات,05,BATNA,باتنة,35.7244633,6.6611867
813,BOU EL FRAIS,بولفرايس,R4,05063,,BOU-EL-FREISS,0549,OULED FADHEL,أولاد فاضل,05,BATNA,باتنة,35.5155749,6.7555553
1532,SEFIANE,سفيان,R3,05064,,SEFIANE ROUTE DE BARIKA,0524,SEFIANE,سفيان,05,BATNA,باتنة,35.4380183,5.5584067
1686,TOUFFANA,توفانة,R4,05065,,TOUFFANA OULED FADEL,0549,OULED FADHEL,أولاد فاضل,05,BATNA,باتنة,35.4853311,6.6185604
1200,OULED SIDI SLIMANE,أولاد سيدي سليمان,R3,05066,,OULED-SIDI-SLIMANE,0553,OULED SI SLIMANE,أولاد سي سليمان,05,BATNA,باتنة,35.6117188,5.6332318
1013,GUIGBA,قيقبة,R4,05067,,GUIGBA,0510,GUIGBA,قيقبة,05,BATNA,باتنة,35.7341539,5.5905459
618,DJERIAT,جرياط,R3,05068,,DJERIAT,0539,GOSBAT,القصبات,05,BATNA,باتنة,35.7111155,5.4646413
1015,SIDI MANCAR,سيدي معنصر,R4,05069,,SIDI-MANCAR,0512,OUYOUN EL ASSAFIR,عيون العصافير,05,BATNA,باتنة,35.5208117,6.37713
817,DRAA EL GBOR,دراع القبور,R4,05070,,VILLAGE AGRICOLE DRAA-EL-GBOR,0505,SERIANA,سريانة,05,BATNA,باتنة,35.7485617,6.2115732
407,ZANA EL BEIDA,زانة البيضاء,R4,05071,,ZANA-EL-BEIDA,0554,ZANAT EL BEIDA,زانة البيضاء,05,BATNA,باتنة,35.8107573,6.1332967
1697,RHAOUET,الرحاوات,R4,05072,,R'HAOUET,0546,HIDOUSSA,حيدوسة,05,BATNA,باتنة,35.5052806,5.9100723
1845,LAMBIRIDI,لمبريدي,R4,05073,,ROUTE DE AIN TOUTA,0537,OUED CHAABA,وادي الشعبة,05,BATNA,باتنة,35.5057048,6.078036
2119,HAMLA,حملة,R4,05074,,VILLAGE HAMLA,0537,OUED CHAABA,وادي الشعبة,05,BATNA,باتنة,35.5552305,6.0828326
2357,TZOUKET,تزوكت,R4,05075,,T'ZOUKET,0516,ARRIS,أريس,05,BATNA,باتنة,35.38806,6.4083117
410,AIN ASSAFFEUR,عين العصافير,R4,05076,,AIN-EL-ASSAFEUR,0512,OUYOUN EL ASSAFIR,عيون العصافير,05,BATNA,باتنة,35.555365,6.309585
623,MOUSSA GUETTAFI,موسى قطافي,R4,05077,,CITE FRERES-BENCHADI,0523,FESDIS,فسديس,05,BATNA,باتنة,35.5955233,6.2124417
820,HAMOU DAMBRI,حمو دمبري,R4,05078,,COMMUNE FESDIS,0523,FESDIS,فسديس,05,BATNA,باتنة,35.6174684,6.2464896
1850,BATNA SIDI ALI,سيدي علي,R4,05079,,SIDI-ALI,0517,KIMMEL,كيمل,05,BATNA,باتنة,35.2163261,6.5454346
1705,RHOUFI,غوفي,R4,05080,,RHOUFI,0502,GHASSIRA,غسيرة,05,BATNA,باتنة,35.0612667,6.17078
626,CHENAOURA,شناورة,R4,05081,,CHENAOURA,0544,T'KOUT,تكوت,05,BATNA,باتنة,35.1685467,6.3405417
1374,KEF LAAROUS,كاف لعروس,R4,05082,,KEF-LAAROUS,0502,GHASSIRA,غسيرة,05,BATNA,باتنة,35.0492517,6.1353317
1206,INOUGHISSENE,انوغيسن,R4,05083,,INOUGHISSENE,0511,INOUGHISSENE,إينوغيسن,05,BATNA,باتنة,35.2840656,6.5362742
821,BATNA EL HADJADJ,الحجاج,R4,05084,,EL-HADJADJ,0530,ICHMOUL,أشمول,05,BATNA,باتنة,35.2679317,6.4037683
2445,DERMOUNE,درمون,R4,05085,,DERMOUNE,0517,KIMMEL,كيمل,05,BATNA,باتنة,34.8656102,6.5245004
1547,OULED DERRADJI,أولاد دراجي,R4,05087,,OULED-DERRADJI,0515,AZIL ABDELKADER (METKOUAK),عزيل عبد القادر,05,BATNA,باتنة,35.47481,4.9774833
2363,KOUDIAT MESSARA,كوديات مصارة,R4,05088,,KOUDIAT-MESSARA,0527,LEMSANE,لمسان,05,BATNA,باتنة,35.6569387,5.7952339
2527,KENDA,كندة,R4,05089,,KENDA,0551,RAS EL AIOUN,رأس العيون,05,BATNA,باتنة,35.663308,5.5722484
2600,CHAABET EL GOSBAT,شعبة القصبات,R4,05090,,CHAABET-EL-GOSBAT,0539,GOSBAT,القصبات,05,BATNA,باتنة,35.6336926,5.5219486
2680,RAHBAT,الرحبات,R4,05091,,RAHBAT,0525,RAHBAT,الرحبات,05,BATNA,باتنة,35.7125033,5.6551994
631,AMENTANE,أمنطان,R4,05093,,AMENTANE,0521,TIGHERGHAR,تيغرغار,05,BATNA,باتنة,35.1139467,5.9303583
824,AOUGHANIME,أوغانيم,R4,05094,,AOUGHANIME,0521,TIGHERGHAR,تيغرغار,05,BATNA,باتنة,35.122047,5.9858926
1026,BAALI,بعلي,R4,05095,,BAALI,0547,TENIET EL ABED,ثنية العابد,05,BATNA,باتنة,35.294255,6.2788883
2133,TINIBAOUINE,تنيباوين,R4,05096,,TINIBAOUINE,0538,TAXLENT,تاكسلانة,05,BATNA,باتنة,35.5775236,5.7401119
1857,MEZELINE,مزلين,R4,05097,,MEZLINE,0535,BOUZINA,بوزينة,05,BATNA,باتنة,35.2796037,6.1202148
1999,TIFRENE,تيفران,R4,05098,,TIFRENE,0524,SEFIANE,سفيان,05,BATNA,باتنة,35.4261683,5.6541317
2531,OUED AZZOUZ,أولاد عزوز,R4,05099,,OULED-AZZOUZ,0547,TENIET EL ABED,ثنية العابد,05,BATNA,باتنة,35.3115717,6.299815
2806,BRAYADH,بريض,R4,05100,,BRAYADH,0506,MENAA,منعة,05,BATNA,باتنة,35.1465233,6.0075554
1211,DRAA BOULTIF,ذراع بولطيف,R4,05101,,DRAA-BOULTIF,0522,AIN YAGOUT,عين ياقوت,05,BATNA,باتنة,35.8305017,6.3697
1382,EL KOUACHIA,الكواشية,R4,05102,,EL-KOUACHIA,0560,BOULHILAT,بوالحيلات,05,BATNA,باتنة,35.6977976,6.6062971
1558,LEGRINE,لقرين,R4,05103,,LEGRINE,0549,OULED FADHEL,أولاد فاضل,05,BATNA,باتنة,35.5768179,6.7285415
1860,HAIDHAR BRAHIM,حيضر براهيم,R4,05104,,COMMUNE BOUMIA,0559,BOUMIA,بومية,05,BATNA,باتنة,35.6778967,6.4819817
2003,SIDI KHIAR,سيدي خيار,R4,05105,,COMMUNE DJERMA,0513,DJERMA,جرمة,05,BATNA,باتنة,35.6614917,6.30945
2136,FESDIS FERME,فسديس الضيعة,R4,05106,,FESDIS-FERME,0523,FESDIS,فسديس,05,BATNA,باتنة,35.6231675,6.2909933
2856,TIGHERGHER,تيغرغار,R4,05107,,TIGHARGHAR,0521,TIGHERGHAR,تيغرغار,05,BATNA,باتنة,35.1591467,5.970115
1560,CHIR,شير,R4,05108,,CHIR,0552,CHIR,شير,05,BATNA,باتنة,35.21637,6.103375
2607,BATNA ZONE INDUSTRIELLE,باتنة منطقة صناعية,R3,05109,,BATNA-ZONE-INDUSTRIELLE,0501,BATNA,باتنة,05,BATNA,باتنة,35.5546243,6.1544284
2257,TENIET SEDRA,ثنية السدرة,R4,05110,,TENIET-ESSADRA,0554,ZANAT EL BEIDA,زانة البيضاء,05,BATNA,باتنة,35.8526117,6.1619789
2367,TIMEDOUINE,تيمدوين,R4,05111,,TIMEDOUINE,0520,OULED SELLAM,أولاد سلام,05,BATNA,باتنة,35.8635208,5.7249368
2451,ZANA,زانة,R4,05112,,ZANA,0554,ZANAT EL BEIDA,زانة البيضاء,05,BATNA,باتنة,35.7797844,6.0840313
2533,SFASAF,الصفاصف,R4,05113,,SFASAF,0520,OULED SELLAM,أولاد سلام,05,BATNA,باتنة,35.7866924,5.7491147
2608,CHARF EL AIN,شرف العين,R4,05114,,CHARF-EL-AIN,0504,MEROUANA,مروانة,05,BATNA,باتنة,35.671113,5.8529368
2684,NAFLA,نافلة,R4,05115,,NAFLA,0546,HIDOUSSA,حيدوسة,05,BATNA,باتنة,35.5267767,5.9375758
2751,BATNA EL HASSI,الحاسي,R4,05116,,EL-HASSI,0557,EL HASSI,الحاسي,05,BATNA,باتنة,35.8026802,5.9398394
2807,LAZROU,لازرو,R4,05117,,LAZROU,0558,LAZROU,لازرو,05,BATNA,باتنة,35.8424041,6.2159655
2260,BATNA CHOTT,الشط,R4,05118,,CHOTT,0520,OULED SELLAM,أولاد سلام,05,BATNA,باتنة,35.8854524,5.8404121
1388,OULED AICHE,أولاد عيش,R4,05119,,OULED-AICHE,0514,BITAM,بيطام,05,BATNA,باتنة,35.2995383,5.3020617
1716,OULED AMMAR,أولاد عمار,R4,05121,,OULED-AMMAR,0556,OULED AMMAR,أولاد عمار,05,BATNA,باتنة,35.4629617,5.1554017
829,MAAFA,معافة,R4,05123,,MAAFA,0503,MAAFA,معافة,05,BATNA,باتنة,35.2898147,5.8590803
1031,RAS EL MA,راس الماء,R4,05124,,RAS-EL-MA,0545,AIN TOUTA,عين التوتة,05,BATNA,باتنة,35.4099798,5.9500594
1562,TAZEGHT,تازغت,R4,05125,,TAZEGHT,0529,SEGGANA,سقانة,05,BATNA,باتنة,35.325765,5.542515
1717,MOULIA,مولية,R4,05126,,MOULIA,0503,MAAFA,معافة,05,BATNA,باتنة,35.2761045,5.7973559
2008,LEGRIDET,لقريدات,R4,05127,,LEGRIDET,0518,TILATOU,تيلاطو,05,BATNA,باتنة,35.35684,5.712185
830,FENAROU,فنارو,R4,05128,,FENAROU,0509,N'GAOUS,نقاوس,05,BATNA,باتنة,35.5721558,5.614099
1718,TARF,طارف,R4,05129,,TARF,0539,GOSBAT,القصبات,05,BATNA,باتنة,35.647792,5.4595149
1218,MTKAOUAK,متكعوك,R4,05130,,M'TKAOUAK,0515,AZIL ABDELKADER (METKOUAK),عزيل عبد القادر,05,BATNA,باتنة,35.4321283,5.1300267
2688,TAMACHIT,تامشيط,R2,05131,,CITE TAMACHIT BATNA,0501,BATNA,باتنة,05,BATNA,باتنة,35.531857,6.1721744
3266,BOUTERAA KERMIA,بوترعة قرمية,R4,05132,,BOUTERAA-KERMIA,0525,RAHBAT,الرحبات,05,BATNA,باتنة,35.6816408,5.6547179
3260,TAMESGHIT,تامسغيت,R4,05133,,TAMESGHIT,0540,OULED AOUF,أولاد عوف,05,BATNA,باتنة,35.4557034,5.7561886
3267,BATNA GARE ROUTIERE,باتنة المحطة,R4,05134,,GARE-ROUTIERE,0501,BATNA,باتنة,05,BATNA,باتنة,35.5765107,6.1804469
3265,BATNA UNIVERSITE,باتنة الجامعة,R4,05137,,BATNA-UNIVERSITE,0501,BATNA,باتنة,05,BATNA,باتنة,35.5409191,6.1501532
3262,AIN TOUTA CHAFFAT,بني فضالة الحقانية,R4,05140,,"CITE CHAFFET, COMMUNE AIN TOUTA, BATNA",0545,AIN TOUTA,عين التوتة,05,BATNA,باتنة,35.3690051,5.9083086
3264,BENI FEDHALA HAKANIA,عين التوتة الشافات,R4,05141,,"COMMUNE BENI FEDALA EL HAKANIA, BATNA",0532,BENI FOUDHALA EL HAKANIA,بني فضالة الحقانية,05,BATNA,باتنة,35.3630663,6.0054566
3258,TAZOULT 20 AOUT 1956,تازولت 20 أوت,R4,05142,,ALLEES MENZER CHERIF ,0508,TAZOULT,تازولت,05,BATNA,باتنة,35.483405,6.259665
3268,BATNA EL AURES,باتنة اللأوراس,R3,05143,,ROUTE HAMLA CITE KECHIDA,0501,BATNA,باتنة,05,BATNA,باتنة,35.5506378,6.1282134
3764,BATNA BOUZOURANE,باتنة-بوزوران,R3,05144,,CITE 208 LOGTS CITE BOUZOURANE,0501,BATNA,باتنة,05,BATNA,باتنة,35.56176,6.1960067
3960,OUED EL MA ESSALAM,واد-الماء-السلام,R4,05145,,CITE EL MOUDJAHID ROUTE MEROUANA,0533,OUED EL MA,وادي الماء,05,BATNA,باتنة,35.6461822,5.9874278
3959,BATNA ETABLISSEMENT POSTAL ITINERANT 1,باتنة- المكتب -البريدي -المتنقل- 1,R4,05146,,CITE 800 LOGTS,0501,BATNA,باتنة,05,BATNA,باتنة,35.54635,6.1623367
3961,BATNA UNIVERSITE 2,باتنة-الجامعة-2,R4,05147,,UNIVERSITE MOSTAFA BEN BOULAID FESDIS,0523,FESDIS,فسديس,05,BATNA,باتنة,35.6375433,6.27805
3917,BATNA BOUAKAL,باتنة -بوعقال,R2,05148,,RUE B O CITE BOUAKAL 3 ,0501,BATNA,باتنة,05,BATNA,باتنة,35.5441426,6.17364
4096,CHEMORA EL MOUSTAKBAL,الشمرة المستقبل,R4,05149,,CITE DOUAR EL CHAIR ,0536,CHEMORA,شمرة,05,BATNA,باتنة,35.66378,6.6432017
4135,BARIKA CITE 300 LOGTS,بريكة-حي-300-مسكن,R4,05150,,CITE 300 LOGEMENTS BARIKA,0542,BARIKA,بريكة,05,BATNA,باتنة,35.3792283,5.38386
6,BEJAIA RP,بجاية م ر,CE,06000,,PLACE MEDJAHED CHERIF BEJAIA ,0601,BEJAIA,بجاية,06,BEJAIA,بجاية,36.7528075,5.0834116
53,AKBOU,أقبو,HC,06001,,RUE  ABDELKADER  SAHNOUNE   NÂ° 12  AKBOU CENTRE,0625,AKBOU,أقبو,06,BEJAIA,بجاية,36.4630399,4.536077
639,BEJAIA LIBERTE,بجاية الحرية,R1,06002,,RUE DE LA LIBERTE  BEJAIA,0601,BEJAIA,بجاية,06,BEJAIA,بجاية,36.7530168,5.0725643
835,EL KSEUR,القصر,R1,06003,,EL KSEUR CENTRE,0640,EL KSEUR,القصر,06,BEJAIA,بجاية,36.6881899,4.8465842
139,KHERRATA,خراطة,R1,06004,,PLACE 8 MAI 1945    KHERRATA,0644,KHERRATA,خراطة,06,BEJAIA,بجاية,36.4911564,5.2777305
154,SIDI AICH,سيدي عيش,R1,06005,,SIDI AICH CENTRE,0639,SIDI AICH,سيدي عيش,06,BEJAIA,بجاية,36.6114876,4.6852599
2268,TAZMALT,تازمالت,R1,06006,,RUE PRINCIPALE ABDERRAHMANE MIRA  06006,0627,TAZMALT,تزمالت,06,BEJAIA,بجاية,36.3841899,4.4020087
241,AOKAS,أوقاس,R2,06007,,AOKAS CENTRE,0622,AOKAS,أوقاس,06,BEJAIA,بجاية,36.6353177,5.243881
180,AMIZOUR,أميزور,R1,06008,,AMIZOUR CENTRE,0602,AMIZOUR,أميزور,06,BEJAIA,بجاية,36.6436345,4.9039677
661,BARBACHA,برباشة,R2,06009,,BARBACHA CENTRE,0634,BARBACHA,برباشة,06,BEJAIA,بجاية,36.5741448,4.9677485
2154,IGHZER AMOKRANE,إغزر أمقران,R2,06010,,IGHER AMOKRANE,0636,OUZELAGUEN,أوزلاقن,06,BEJAIA,بجاية,36.5420383,4.6139628
190,SEDDOUK,صدوق,R2,06011,,RUE MOHALI  LARBI  SEDDOUK  06011,0626,SEDDOUK,صدوق,06,BEJAIA,بجاية,36.5431711,4.6864851
1579,SOUK EL TENINE,سوق الأثنين,R2,06012,,SOUK EL TENINE CENTRE,0608,SOUK EL TENINE,سوق الاثنين,06,BEJAIA,بجاية,36.6257285,5.3357497
1582,GUENDOUZE,قندوز,R3,06013,,GUENDOUZE CENTRE,0628,AIT R'ZINE,أيت أرزين,06,BEJAIA,بجاية,36.3688052,4.4866148
1740,IGHIL ALI,إغيل علي,R3,06014,,IGHIL ALI CENTRE,0617,IGHIL ALI,إغيل علي,06,BEJAIA,بجاية,36.3379918,4.4708394
491,BORDJ MIRA,برج ميرة,R3,06015,,BORDJ MIRA  06015  Cne TASKERIOUT  ,0631,TASKRIOUT,تاسكريوت,06,BEJAIA,بجاية,36.5482039,5.2725618
699,DARGUINA,درقينة,R3,06016,,DARGUINA CENTRE,0620,DARGUINA,درقينة,06,BEJAIA,بجاية,36.5663784,5.3170371
703,OUED GHIR,واد غير,R3,06017,,OUED GHIR CENTRE,0651,OUED GHIR,وادي غير,06,BEJAIA,بجاية,36.7102195,4.9753973
1267,BOUDJELLIL,بوجليل,R3,06018,,BOUDJELLIL CENTRE,0652,BOUDJELLIL,بوجليل,06,BEJAIA,بجاية,36.3506539,4.4103622
297,AKABIOU,أقبيو,R3,06019,,AKABIOU CENTRE,0607,TIMZRIT,تيمزريت,06,BEJAIA,بجاية,36.6157194,4.7735193
2033,SEMAOUNE,سمعون,R3,06020,,SEMAOUNE CENTRE,0612,SEMAOUNE,سمعون,06,BEJAIA,بجاية,36.6087232,4.8221664
213,ADEKAR,أدكار,R3,06021,,ADEKAR CENTRE CHEF LIEU COMMUNAL,0624,ADEKAR,أدكار,06,BEJAIA,بجاية,36.6938415,4.6716992
512,CHEMINI,شميني,R2,06022,,CHEMINI CENTRE,0629,CHEMINI,شميني,06,BEJAIA,بجاية,36.5938801,4.6216705
215,TICHI,تيشي,R2,06023,,TICHI CENTRE,0611,TICHY,تيشي,06,BEJAIA,بجاية,36.6685426,5.16074
734,BENI MAOUCHE,بني معوش,R3,06024,,BENI MAOUCHE CENTRE,0650,BENI MAOUCHE,بني معوش,06,BEJAIA,بجاية,36.5063387,4.7603369
925,TIZAMOURINE,تيزمورين,R4,06025,,TIZAMOURINE,0642,AKFADOU,أكفادو,06,BEJAIA,بجاية,36.6384802,4.618127
931,BENI MANCOUR,بني منصور,R4,06026,,BENI MANSOUR,0652,BOUDJELLIL,بوجليل,06,BEJAIA,بجاية,36.3362178,4.3540144
325,DJEBLAA,جبلاعة,R4,06027,,DJEBLAA,0635,BENI KSILA,بني كسيلة,06,BEJAIA,بجاية,36.7933675,4.7507344
750,SILLAL,سلال,R4,06028,,SILLAL,0614,TIFRA,تيفرة,06,BEJAIA,بجاية,36.6496833,4.678155
542,KIRIA,كيرية,R4,06029,,KIRIA,0624,ADEKAR,أدكار,06,BEJAIA,بجاية,36.7319429,4.5624126
1926,TOUDJA,توجة,R4,06030,,TOUDJA,0619,TOUDJA,توجة,06,BEJAIA,بجاية,36.7496599,4.8903455
1480,BOUHAMZA,بوحمزة,R4,06031,,BOUHAMZA,0637,BOUHAMZA,بوحمزة,06,BEJAIA,بجاية,36.4445131,4.683328
1778,TIZI TINDJIT,تيزي تينجيت,R4,06032,,KENDIRA CHEF LIEU COMMUNALE,0613,KENDIRA,كنديرة,06,BEJAIA,بجاية,36.5405007,5.0268715
1127,FERAOUNE,فرعون,R3,06033,,FERAOUNE CENTRE,0603,FERRAOUN,فرعون,06,BEJAIA,بجاية,36.5575118,4.864265
553,AKOURMA,عكرمة,R4,06034,,AMALOU,0616,AMALOU,أمالو,06,BEJAIA,بجاية,36.4763038,4.6321423
1133,TIZI EL KORN,تيزي القرن,R4,06035,,TAOURIT IGHIL,0604,TAOURIRT IGHIL,تاوريرت اغيل,06,BEJAIA,بجاية,36.7113762,4.6994553
1645,TAKRIETZ,تقريت,R4,06036,,TAKERIETZ,0630,SOUK OUFELLA,السوق أوفلا,06,BEJAIA,بجاية,36.5786317,4.6501633
2312,TINEBDAR,تنبدار,R4,06037,,TINEBDAR,0610,TINEBDAR,تينبذار,06,BEJAIA,بجاية,36.6226399,4.6800162
1146,SIDI SAID,سيدي سعيد,R4,06038,,SIDI SAID,0609,M'CISNA,مسيسنة,06,BEJAIA,بجاية,36.5636597,4.7098092
569,BENI MELIKECHE,بني مليكش,R4,06039,,BEN MELIKECHE,0638,BENI MELIKECHE,بني مليكش,06,BEJAIA,بجاية,36.445158,4.4136734
1791,SIDI AHMED,بجاية سيدي أحمد,R4,06040,,792 Logements Bt K17 Sidi Ahmed Bejaia,0601,BEJAIA,بجاية,06,BEJAIA,بجاية,36.7650399,5.0603949
2198,IL MATTEN,إلماثن,R4,06041,,IL MATTEN,0618,IFELAIN ILMATHEN,إفلاين الماثن,06,BEJAIA,بجاية,36.646637,4.7733991
2069,TILIOUACADI,تيليواقاضي,R4,06042,,SOUK OUFELA,0630,SOUK OUFELLA,السوق أوفلا,06,BEJAIA,بجاية,36.6022876,4.6304432
785,EL FLAYE,الفلاي,R4,06043,,EL FLAYE,0643,LEFLAYE,لفلاي,06,BEJAIA,بجاية,36.6084234,4.6673855
1951,TEREGREGT,ترقرقت,R4,06044,,TEREGRET  06044  Cne AIT SEMAIL,0647,AIT SMAIL,أيت سماعيل,06,BEJAIA,بجاية,36.546604,5.2305319
2650,DJEMAA,جمعة,R4,06045,,DJAMAA,0636,OUZELAGUEN,أوزلاقن,06,BEJAIA,بجاية,36.5496424,4.557241
1335,BOUKHIAMA,بوخيامة,R4,06046,,"VILLAGE  BOUKHIAMA,BEJAIA",0601,BEJAIA,بجاية,06,BEJAIA,بجاية,36.7412833,5.0166733
1171,AMTIK N TAFAT,أمطيق أنثفات,R4,06047,,VILLAGE AMITIK N'TAFATH BEJAIA,0601,BEJAIA,بجاية,06,BEJAIA,بجاية,36.7669618,4.9654907
2722,TASLENT,تسلنت,R4,06048,,TASLENT,0615,IGHRAM,إغرم,06,BEJAIA,بجاية,36.4726743,4.4872237
2576,BOUHITEM,بوحيتم,R4,06049,,BOUHITEM,0637,BOUHAMZA,بوحمزة,06,BEJAIA,بجاية,36.4556524,4.5987171
2836,GUENDOUZA,قندوزة,R4,06050,,GUENDOUZA  BAS  NÂ° 02  AKBOU,0625,AKBOU,أقبو,06,BEJAIA,بجاية,36.4502928,4.5400489
2883,OULED ALOUANE,أولاد علوان,R4,06051,,OULED ALOUANE,0652,BOUDJELLIL,بوجليل,06,BEJAIA,بجاية,36.362831,4.4721552
2929,CHELLATA,شلاطة,R4,06052,,CHELLATA,0605,CHELLATA,شلاطة,06,BEJAIA,بجاية,36.4855232,4.5110361
2786,BICHER,بيشر,R4,06053,,BICHER,0606,TAMOKRA,تامقرة,06,BEJAIA,بجاية,36.3925867,4.6335433
805,BELAYEL,بلعيال,R4,06054,,BELAYEL,0617,IGHIL ALI,إغيل علي,06,BEJAIA,بجاية,36.3286637,4.556824
2422,TIZI ALOUANE,تيزي علوان,R4,06055,,TIZI ALOUANE,0628,AIT R'ZINE,أيت أرزين,06,BEJAIA,بجاية,36.3849517,4.5228583
1182,BENI OUAMAR,بني واعمر,R4,06056,,VILLAGE   BENI OUAMAR ,0638,BENI MELIKECHE,بني مليكش,06,BEJAIA,بجاية,36.4492064,4.3976854
2098,IGHRAM,إغرام,R4,06057,,IGHRAM,0615,IGHRAM,إغرم,06,BEJAIA,بجاية,36.4625774,4.504054
607,IFALENE,إيفالن,R4,06058,,VILLAGE  IFALENE  TIZI N'BERBER,0649,TIZI NBERBER,تيزي أنبربار,06,BEJAIA,بجاية,36.59288,5.1831633
1002,TAGUEMOUNT,تقمونت,R4,06059,,VILLAGE  TAGUEMOUNT,0648,BOUKHELIFA,بوخليفة,06,BEJAIA,بجاية,36.6233935,5.1102517
1187,TIZI NBERBER,تيزي نبربر,R4,06060,,TIZI N'BERBER,0649,TIZI NBERBER,تيزي أنبربار,06,BEJAIA,بجاية,36.6155205,5.2173842
1361,AKKAR,أدكار,R4,06061,,AKKAR,0622,AOKAS,أوقاس,06,BEJAIA,بجاية,36.6191478,5.260363
1531,MELLALA,ملالة,R4,06062,,MELLALA,0651,OUED GHIR,وادي غير,06,BEJAIA,بجاية,36.7131955,5.0258609
1979,IGHIL OUMCED,إغيل أومسد,R4,06063,,IGHIL OUMCED,0605,CHELLATA,شلاطة,06,BEJAIA,بجاية,36.5213617,4.5617367
2344,IGHIL OUANTAR,إغيل أوعنتر,R4,06064,,IGHIL OUANTAR,0609,M'CISNA,مسيسنة,06,BEJAIA,بجاية,36.5474339,4.7214664
1687,TIZI OUAKLANE,تيزي عقلان,R4,06065,,TIZI OUAKLANE,0611,TICHY,تيشي,06,BEJAIA,بجاية,36.6148254,5.1634291
1836,TALA HAMZA,تالة حمزة,R4,06066,,TALA HAMZA,0633,TALA HAMZA,تالة حمزة,06,BEJAIA,بجاية,36.697472,5.0181756
2520,AIT SKHEUR,أيت سخر,R4,06067,,AIT S'KHEUR,0623,BENI DJELLIL,بني جليل,06,BEJAIA,بجاية,36.5511656,4.7764032
2971,AYACHA,عياشة,R4,06068,,AYACHA,0638,BENI MELIKECHE,بني مليكش,06,BEJAIA,بجاية,36.4405963,4.4294151
2522,IGHIL NACER,إغيل ناصر,R4,06069,,IGHIL NASSER,0615,IGHRAM,إغرم,06,BEJAIA,بجاية,36.459449,4.4888919
2236,BERZAKH,برزاخ,R4,06070,,VILLAGE  BERZAKH  DRAA EL  KAID,0645,DRAA EL KAID,ذراع القائد,06,BEJAIA,بجاية,36.4173194,5.2261516
2352,ACHLOUF,اشلوف,R4,06071,,ACHELOUF,0619,TOUDJA,توجة,06,BEJAIA,بجاية,36.7754687,4.8551017
1987,TAKAATZ,تقعتس,R4,06072,,VILLAGE  TAKAATZ  ,0626,SEDDOUK,صدوق,06,BEJAIA,بجاية,36.5558598,4.6751045
2116,MAHFOUDA,محفوظة,R4,06073,,MAHFOUDA,0637,BOUHAMZA,بوحمزة,06,BEJAIA,بجاية,36.4444591,4.647554
409,ADJIOUNE,أجيون,R4,06074,,ADJIOUN  CENTRE ,0645,DRAA EL KAID,ذراع القائد,06,BEJAIA,بجاية,36.4584458,5.2047721
1018,DRADRA,درادرا,R4,06075,,DRADRA  CENTRE,0645,DRAA EL KAID,ذراع القائد,06,BEJAIA,بجاية,36.3951505,5.2420442
1205,EL DJORF,الجرف,R3,06076,,MELBOU  CENTRE,0641,MELBOU,مالبو,06,BEJAIA,بجاية,36.6414031,5.3656005
1373,EL ALEM,العلم,R4,06077,,EL ALEM,0646,TAMRIDJET,تامريجت,06,BEJAIA,بجاية,36.5874471,5.4410197
1541,AIT IDRIS,أيت إدريس,R4,06078,,AIT IDRISS,0631,TASKRIOUT,تاسكريوت,06,BEJAIA,بجاية,36.5628602,5.2874988
1704,TIBOUAMOUCHINE,تيبوعموشين,R4,06079,,VILLAGE  TIBOUAMOUCHINE  06079,0626,SEDDOUK,صدوق,06,BEJAIA,بجاية,36.5194147,4.7095738
2125,TIZIOUEL,تيزوال,R4,06080,,TIZOUEL 06080  Cne  AIT SMAIL,0647,AIT SMAIL,أيت سماعيل,06,BEJAIA,بجاية,36.5517409,5.2415901
1543,AIT ADJISSA,أيت عجيسة,R4,06081,,AIT ADJISSA,0650,BENI MAOUCHE,بني معوش,06,BEJAIA,بجاية,36.5197685,4.8066607
1019,IGHIL NSEBT,إغيل نسبت,R4,06082,,BENI DJELLIL,0623,BENI DJELLIL,بني جليل,06,BEJAIA,بجاية,36.5711433,4.8120383
1207,IGHIL OUTOUAF,إغيل أوطواف,R4,06083,,IGHIL OUTOUAF,0607,TIMZRIT,تيمزريت,06,BEJAIA,بجاية,36.6090007,4.7863981
1376,SEMAOUNE CHEMINI,سمعون شميني,R4,06084,,SEMAOUNE CHEMINI,0629,CHEMINI,شميني,06,BEJAIA,بجاية,36.5921647,4.5819326
1546,SIDI AYAD,سيدي عياد,R4,06085,,SIDI AYAD,0621,SIDI AYAD,سيدي عياد,06,BEJAIA,بجاية,36.6127665,4.7156054
1852,TALA TAZERT,تالة تزرت,R4,06086,,FENAIA ,0618,IFELAIN ILMATHEN,إفلاين الماثن,06,BEJAIA,بجاية,36.6729068,4.7913504
1998,TIBANE,تيبان,R4,06087,,TIBANE,0632,TIBANE,طيبان,06,BEJAIA,بجاية,36.6132466,4.6506488
2447,IL MATTEN HOPITAL,الماثن مستشفى,R4,06088,,IL MATTEN HOPITAL,0618,IFELAIN ILMATHEN,إفلاين الماثن,06,BEJAIA,بجاية,36.668799,4.7684173
2599,IKEDJANE,إكجان,R4,06089,,IKEDJANE,0614,TIFRA,تيفرة,06,BEJAIA,بجاية,36.6480849,4.6456683
1855,TAMRICHT,تمريشت,R4,06090,,TAMRICHT,0646,TAMRIDJET,تامريجت,06,BEJAIA,بجاية,36.5723662,5.3743666
2681,BOUKHALFA,بوخالفة,R4,06091,,BOUKHALFA,0602,AMIZOUR,أميزور,06,BEJAIA,بجاية,36.6434317,4.8946489
422,AGHBALA,أغبالة,R4,06092,,AGHBALA,0623,BENI DJELLIL,بني جليل,06,BEJAIA,بجاية,36.5719146,4.7867784
632,AOURIR ADJISSA,أورير عجيسة,R4,06093,,AOURIR ADJISSA,0612,SEMAOUNE,سمعون,06,BEJAIA,بجاية,36.6008765,4.8386985
1381,GARET,قارات,R4,06094,,GARET,0640,EL KSEUR,القصر,06,BEJAIA,بجاية,36.7422078,4.8074051
1554,KHELLIL,خليل,R4,06095,,KHELLIL,0634,BARBACHA,برباشة,06,BEJAIA,بجاية,36.5340411,4.9492253
1709,TADART TAMOKRANT,تادارث تامقرانت,R4,06096,,TADART TAMOKRANT,0602,AMIZOUR,أميزور,06,BEJAIA,بجاية,36.6203673,5.0014084
2254,SIDI ALI,سيدي علي,R4,06097,,SIDI ALI,0634,BARBACHA,برباشة,06,BEJAIA,بجاية,36.6011855,4.9826274
2448,IGHIL IALOUANENE,إغيل إعلوانن,R4,06098,,IGHIL IALOUANENE,0602,AMIZOUR,أميزور,06,BEJAIA,بجاية,36.6368237,4.9233005
1858,AKHNAK,أخناق,R4,06099,,VILLAGE  AKHNAK  06099,0626,SEDDOUK,صدوق,06,BEJAIA,بجاية,36.5158284,4.6322992
2604,TIZI BENI KHETTAB,تيزي بني خطاب,R4,06100,,TIZI BENI KHETTAB,0603,FERRAOUN,فرعون,06,BEJAIA,بجاية,36.5497122,4.8913175
3003,TIGRINE,تيقرين,R4,06101,,TIGRINE,0652,BOUDJELLIL,بوجليل,06,BEJAIA,بجاية,36.334288,4.4358145
2749,MERDJ OUAMENE,مرج ومان,R4,06102,,MERDJ OUAMENE,0602,AMIZOUR,أميزور,06,BEJAIA,بجاية,36.6819133,4.9488683
1384,TIZI OUGUENI,تيزي أوقني,R4,06103,,TIZI OUGUENI,0624,ADEKAR,أدكار,06,BEJAIA,بجاية,36.7250479,4.6565125
1559,ASSAM,عصام,R4,06104,,ASSAM,0614,TIFRA,تيفرة,06,BEJAIA,بجاية,36.6674959,4.6892161
1861,BENI KSILA,بني كسيلة,R4,06106,,BENI K'SILA,0635,BENI KSILA,بني كسيلة,06,BEJAIA,بجاية,36.8819216,4.6618015
426,AGUEMOUNE BENI KHIAR,أقمون بني خيار,R4,06107,,AGUEMOUNE BENI KHIAR,0650,BENI MAOUCHE,بني معوش,06,BEJAIA,بجاية,36.4815533,4.7446048
1030,IMMOULA,إيمولا,R4,06108,,IMMOULA,0609,M'CISNA,مسيسنة,06,BEJAIA,بجاية,36.5738988,4.743439
1386,TAMOKRA,تامقرة,R4,06109,,TAMOKRA,0606,TAMOKRA,تامقرة,06,BEJAIA,بجاية,36.3939139,4.6660347
2366,LOTA,لوطة,R4,06110,,LOTA,0608,SOUK EL TENINE,سوق الاثنين,06,BEJAIA,بجاية,36.6228929,5.2957845
3046,AKBOU 1ER NOVEMBRE,أقبو أول نوفبر,R1,06111,,BOULEVARD  1er NOV NÂ° 226  AKBOU ,0625,AKBOU,أقبو,06,BEJAIA,بجاية,36.4637883,4.5284983
3026,ALLAGHAN,ألاغن,R4,06112,,ROUTE  NATIONALE NÂ° 26  ALLAGHANE,0627,TAZMALT,تزمالت,06,BEJAIA,بجاية,36.3969583,4.4520583
2452,SNADLA,سنادلة,R4,06113,,RUE DE LA LIBERTE SNADLA,0645,DRAA EL KAID,ذراع القائد,06,BEJAIA,بجاية,36.4427509,5.2588118
2534,TIZI EL OUED,تيزى الواد,R4,06114,,TIZI EL OUED  CENTRE  MELBOU ,0641,MELBOU,مالبو,06,BEJAIA,بجاية,36.6216262,5.3417407
2006,TAOURIRT IGHIL,توريرث إغيل,R4,06115,,TAOURIRT-IGHIL-CENTRE,0604,TAOURIRT IGHIL,تاوريرت اغيل,06,BEJAIA,بجاية,36.698943,4.6957303
2258,BEJAIA PEPINIERE,بجاية مشتلة,R4,06116,,RÃ©sidence Universitaire PÃ©piniÃ¨re  Bejaia,0601,BEJAIA,بجاية,06,BEJAIA,بجاية,36.7460783,5.05734
2808,EL HAMMA,الحامة,R4,06117,,EL HAMMA,0602,AMIZOUR,أميزور,06,BEJAIA,بجاية,36.6273393,4.9524277
2610,KHERRATA NOUVELLE,خراطة الجديدة,R4,06118,,CITE  EPLF  KHERRATA ,0644,KHERRATA,خراطة,06,BEJAIA,بجاية,36.4805523,5.2643969
2686,ABAINOU,أباينو,R4,06119,,VILLAGE  ABAINOU,0607,TIMZRIT,تيمزريت,06,BEJAIA,بجاية,36.6168113,4.7402467
2858,BERCHICHE RESIDENCE UNIVERSITAIRE,برشيش الإقامة الجامعية,R4,06120,,R.U.BERCHICHE 3. ELKSEUR,0640,EL KSEUR,القصر,06,BEJAIA,بجاية,36.6897718,4.8496454
3063,HELOUANE,هلوان,R4,06121,,HELLOUANE,0636,OUZELAGUEN,أوزلاقن,06,BEJAIA,بجاية,36.5122097,4.5863123
2752,IDERAKEN,إدراقن,R4,06122,,VILLAGE  IDERAKEN,0607,TIMZRIT,تيمزريت,06,BEJAIA,بجاية,36.6288103,4.7801937
2369,BEJAIA GARE ROUTIERE,بجاية المحطة,R3,06123,,GARE ROUTIERE DE BAJAIA,0601,BEJAIA,بجاية,06,BEJAIA,بجاية,36.7374715,5.0636654
2454,TAOURIRT LARBAA,توريرث  الأربعاء,R4,06124,,Village  TAOURIRT LARBAA,0651,OUED GHIR,وادي غير,06,BEJAIA,بجاية,36.6936276,4.9266956
428,BEJAIA AHMED OUGANA,بجاية أحمد أوقانة,R3,06125,,RUE AHMED OUGANA  BEJAIA,0601,BEJAIA,بجاية,06,BEJAIA,بجاية,36.7539633,5.0798545
2538,BEJAIA HASSIBA BEN BOUALI,بجاية حسيبة بن بوعلي,R3,06126,,Rue hassiba ben bouali en face de l'OPOW Bejaia,0601,BEJAIA,بجاية,06,BEJAIA,بجاية,36.7511479,5.0460135
2613,BEJAIA ABBANE RAMDANE,بجاية عبان رمضان,R3,06127,,MarchÃ© Couvert des 1000 Logement Ihaddaden Bejaia,0601,BEJAIA,بجاية,06,BEJAIA,بجاية,36.74176,5.0429283
2687,BEJAIA NACERIA,بجاية الناصرية,R2,06128,,CitÃ© des 82 Logements AADL NACERIA  BEJAIA,0601,BEJAIA,بجاية,06,BEJAIA,بجاية,36.7475289,5.0649095
3498,BEJAIA TALA OURIANE,بجاية تالة أوريان,R4,06129,,CitÃ© des 392 Logements  Bloc  A 05  Tala  Ouriane . Bejaia,0601,BEJAIA,بجاية,06,BEJAIA,بجاية,36.7606968,5.0561625
3496,BEJAIA IHADDADENE,بجاية إحدادن,R3,06130,,CitÃ© des 600 logements Bt  D29  Ihaddaden  Bejaia,0601,BEJAIA,بجاية,06,BEJAIA,بجاية,36.7357983,5.0447333
3499,BEJAIA SIDI ALI LEBHAR,بجاية سيدي علي البحر,R3,06131,,CitÃ© des 150 Logements Sidi Ali Labhar  BEJAIA,0601,BEJAIA,بجاية,06,BEJAIA,بجاية,36.7216788,5.0685976
3501,EL KSEUR AKAL ABERKANE,القصر أكال أبركان,R4,06132,,CITE AKAL ABERKAN. EL KSEUR,0640,EL KSEUR,القصر,06,BEJAIA,بجاية,36.6804699,4.846735
3497,DJERMOUNA,جرمونة,R4,06133,,IGHIL N'TAHAR  DJERMOUNA,0644,KHERRATA,خراطة,06,BEJAIA,بجاية,36.4742965,5.2288684
3500,BEJAIA TAASSAST,بجاية تعساست,R3,06134,,CITE   MEZZAI  ABDELKADER BEJAIA,0601,BEJAIA,بجاية,06,BEJAIA,بجاية,36.7593678,5.0678045
3718,AOKAS 20 AOUT,أوقاس-20-أوت-1956,R4,06136,,"CITE 100/900 LOGEMENTS LOCAUX NÃ‚Â° 109 ET 110 OPGI,AOKAS",0622,AOKAS,أوقاس,06,BEJAIA,بجاية,36.6349909,5.2479681
3717,AKBOU HOPITAL,أقبو المستشفى,R4,06137,,CITE 90 LOGTS  NÂ° 02 AKBOU  HOPITAL,0625,AKBOU,أقبو,06,BEJAIA,بجاية,36.458145,4.5272017
3758,SIDI AICH TIMZEGHRA,سيدي عيش تمزغرة,R4,06138,,SIDI AICH,0639,SIDI AICH,سيدي عيش,06,BEJAIA,بجاية,36.607307,4.6932223
3741,BEJAIA SIDI SOFIANE,بجاية سيدي سفيان,R4,06139,,50 RUE DES VIELLARDS  BEJAIA,0601,BEJAIA,بجاية,06,BEJAIA,بجاية,36.7573774,5.0844268
3762,MEROUAHA,مرواحة,R4,06140,,"LA ROUTE NATIONALE NÂ°9,VILLAGE DE MEROUAHA,BEJAIA",0644,KHERRATA,خراطة,06,BEJAIA,بجاية,36.4517144,5.3108012
3773,AKBOU GUELDAMEN,أقبو قلدمان,R3,06141,,RUE DE LA GARE  NÂ° 40  TOURNANT  CHALAL  AKBOU,0625,AKBOU,أقبو,06,BEJAIA,بجاية,36.4595722,4.5356926
3747,AKFADOU,أكفادوا,R4,06142,,VILLAGE TINIRI CHEF LIEU COMMUNE D'AKFADOU,0642,AKFADOU,أكفادو,06,BEJAIA,بجاية,36.6300641,4.6235697
3774,AIT MEKEDEM,أيت-مقدم,R4,06143,,VILLAGE  AIT  MEKEDEM,0605,CHELLATA,شلاطة,06,BEJAIA,بجاية,36.5127139,4.4814125
3871,BEJAIA EP ITINERANT 1,بجاية-المكتب-اابريدي-المتنقل-1,R4,06144,,SIEGE DE LA DIRECTION DE L'UPW  BEJAIA,0601,BEJAIA,بجاية,06,BEJAIA,بجاية,36.7443287,5.0582622
4014,BARBACHA AMARAT,برباشة أمعراط,R4,06145,,Village AMARAT,0634,BARBACHA,برباشة,06,BEJAIA,بجاية,36.5861267,4.9283781
4015,FERAOUNE IMELAHANE,فرعون املاحن,R4,06146,,Village AIT OUNIR,0603,FERRAOUN,فرعون,06,BEJAIA,بجاية,36.5621434,4.8458919
4016,AIT RZINE TAOURIRT OUABLA,أيت أرزين تاوريرت اوعبلة,R4,06147,,Village Taourirt Ouabla,0628,AIT R'ZINE,أيت أرزين,06,BEJAIA,بجاية,36.3910667,4.5426733
4081,DARGUINA AIT ANANE,درقينة أيت أعنان,R3,06148,,Village AIT ANANE,0620,DARGUINA,درقينة,06,BEJAIA,بجاية,36.588039,5.3390275
7,BISKRA RP,بسكرة القباضة الرئيسية,CE,07000,,BOULEVARD EMIR AEK BISKRA,0701,BISKRA,بسكرة,07,BISKRA,بسكرة,34.8524338,5.7305992
833,STAR MELOUK,بسكرة سطر ملوك,R1,07001,,RUE ZAATCHA STAR BEN MELOUK  BISKRA,0701,BISKRA,بسكرة,07,BISKRA,بسكرة,34.8461085,5.7172145
119,TOLGA,طولقة,R1,07003,,AV 5 JUILLET TOLGA,0721,TOLGA,طولقة,07,BISKRA,بسكرة,34.7315844,5.3814334
155,SIDI OKBA,سيدي عقبة,R1,07005,,ROUTE AIN NAGA SIDI OKBA,0711,SIDI OKBA,سيدي عقبة,07,BISKRA,بسكرة,34.75019,5.9080317
443,BAB DARB,بسكرة باب الضرب,R2,07006,,RUE KHRACHI BRAHIM BISKRA,0701,BISKRA,بسكرة,07,BISKRA,بسكرة,34.8324219,5.7242517
1048,EL KANTRA,القنطرة,R2,07008,,RUE 5 JUILLET EL KANTARA,0717,EL KANTARA,القنطرة,07,BISKRA,بسكرة,35.2256295,5.7103232
1052,LICHANA,ليشانة,R3,07009,,RUE 1ER NOV 54 LICHANA,0723,LICHANA,لشانة,07,BISKRA,بسكرة,34.72492,5.4320367
1879,MCHOUNECH,مشونش,R3,07010,,RUE MEOURI M'CHOUNECHE,0712,M'CHOUNECHE,مشونش,07,BISKRA,بسكرة,34.941115,5.9936567
2019,OURLAL,اورلال,R3,07011,,RUE CHAIBA ABDEL MADJID OURLAL,0724,OURLAL,أورلال,07,BISKRA,بسكرة,34.6563,5.514093
2378,ZERIBET EL OUED,زريبة الواد,R2,07012,,RUE NATIONNALE NÂ° 83 ZERIBET EL OUED,0715,ZERIBET EL OUED,زريبة الوادي,07,BISKRA,بسكرة,34.681595,6.5019017
479,AIN ZAATOUT,عين زعطوط,R4,07013,,RUE 10 JUILLET 57 AIN ZAATOUT,0718,AIN ZAATOUT,عين زعطوط,07,BISKRA,بسكرة,35.1459267,5.8374367
1741,BISKRA BENI MORAH,بسكرة بني مرة,R2,07014,, HAI BELAIATH BISKRA,0701,BISKRA,بسكرة,07,BISKRA,بسكرة,34.8560871,5.7107057
1418,CITE EL AMEL,بسكرة الأمل,R2,07015,,CITE 726 LOGTS BISKRA,0701,BISKRA,بسكرة,07,BISKRA,بسكرة,34.8493518,5.7083149
700,BISKRA EL ALIA,بسكرة العالية,R2,07016,,RUE FRERES OUANOUGHI EL ALIA BISKRA,0701,BISKRA,بسكرة,07,BISKRA,بسكرة,34.8588353,5.7415941
1892,BISKRA EL ALIA NOUR,بسكرة العالية نور,R2,07017,,RUE FERAH MELOUD EL ALIA BISKRA,0701,BISKRA,بسكرة,07,BISKRA,بسكرة,34.8531278,5.7409837
2030,BISKRA LEBCHECHE,بسكرة لبشاش,R4,07018,,HAI LEBCHECHE BISKRA ,0701,BISKRA,بسكرة,07,BISKRA,بسكرة,34.8215595,5.7332194
2162,SIDI GHEZAL,بسكرة سيدي غزال,R4,07019,,HAI SIDI GHEZEL BISKRA,0701,BISKRA,بسكرة,07,BISKRA,بسكرة,34.8261798,5.6975898
2474,BISKRA UNIVERSITE,بسكرة الجامعة,R3,07020,,UNIVERSITE KHAIDER MED  BISKRA,0701,BISKRA,بسكرة,07,BISKRA,بسكرة,34.8456143,5.7484039
306,BORDJ BEN AZZOUZ,برج بن عزوز,R4,07021,,RUE ALI HAIF  BORDJ BEN AZZOUZ,0727,BORDJ BEN AZZOUZ,برج بن عزوز,07,BISKRA,بسكرة,34.6973068,5.3607299
513,BOUCHAGROUNE,بوشقرون,R4,07022,,RUE EMIR AEK BOUCHAGROUNE,0729,BOUCHAGROUN,بوشقرون,07,BISKRA,بسكرة,34.7197022,5.468737
728,BRANIS,برانيس,R4,07023,,RUE 19 JUIN BRANIS,0703,BRANIS,البرانس,07,BISKRA,بسكرة,34.9960083,5.7720033
921,CHETMA,شتمة,R3,07024,,RUE AMRANE MOHAMED CHETMA,0704,CHETMA,شتمة,07,BISKRA,بسكرة,34.8494579,5.7937494
926,DJAMMORAH,جمورة,R2,07025,,RUE 1ER NOV DJEMMORAH,0720,DJEMORAH,جمورة,07,BISKRA,بسكرة,35.0709008,5.8455217
1288,EL FEIDH,الفيض,R3,07026,,HAI EL JADIDE EL FEIDH,0716,EL FEIDH,الفيض,07,BISKRA,بسكرة,34.530155,6.5231917
746,EL GHROUS,الغروس,R4,07027,,RUE SOUERET EL TAYB EL GHROUS,0731,EL GHROUS,الغروس,07,BISKRA,بسكرة,34.7045017,5.2847533
1467,EL HAOUCH,الحوش,R4,07028,,HAI EL MOUDJAHIDINE EL HAOUCH,0713,EL HAOUCH,الحوش,07,BISKRA,بسكرة,34.5622108,6.0515223
1627,EL KANTARA LES GORGES,القنطرة المضائق,R4,07029,,ROUTE DE BATNA EL KANTARA,0717,EL KANTARA,القنطرة,07,BISKRA,بسكرة,35.235267,5.6998957
217,EL OUTAYA,الوطاية,R3,07030,,RUE BOUDJEMAA MIHOUB EL OUTAYA,0719,EL OUTAYA,الوطاية,07,BISKRA,بسكرة,35.0353978,5.5949897
944,FOUGHALA,فوغالة,R3,07031,,RUE SELLAMINE AISSA FOUGHALA,0726,FOUGHALA,فوغالة,07,BISKRA,بسكرة,34.7289291,5.3254059
1779,SIDI NADJI,خنقة سيدي ناجي البرج,R4,07032,,RUE NATIONNALE NÃ‚Â° 83  KHANGAT-SIDI-NADJI-EL-BORDJ,0733,KHENGUET SIDI NADJI,خنقة سيدي ناجي,07,BISKRA,بسكرة,34.8044,6.7034333
1305,LIOUA,ليوة,R3,07033,,RUE SAHEL SEDIK LIOUA,0722,LIOUA,لواء,07,BISKRA,بسكرة,34.636755,5.4014767
1642,BISKRA MEKHADMA,مخادمة,R4,07034,,RUE DES COUSINS ZAGHEZ  MEKHADMA,0730,MEKHADMA,مخادمة,07,BISKRA,بسكرة,34.65121,5.4708833
1937,OUMACHE,اوماش,R3,07035,,CITE BELKHOUKH OUMACHE,0702,OUMACHE,أوماش,07,BISKRA,بسكرة,34.6904195,5.6981358
2313,BISKRA AIN EL KERMA,عين الكرمة,R4,07037,,RUE MESTAOUI AIN-EL-KERMA,0732,EL HADJAB,الحاجب,07,BISKRA,بسكرة,34.7664417,5.5446017
363,AIN GHEZZAL,عين غزال,R4,07038,,RUE MOSQUE EL RAHMA AIN-GHEZAL,0719,EL OUTAYA,الوطاية,07,BISKRA,بسكرة,35.1222,5.6153133
365,AIN NAGA,عين ناقة,R4,07039,,ROUTE NATIONAL NÂ° 83 AIN-NAGA,0714,AIN NAGA,عين الناقة,07,BISKRA,بسكرة,34.6882433,6.0934083
579,BADES,بادس,R4,07041,,ROUTE NATIONAL NÂ° 83BADES,0715,ZERIBET EL OUED,زريبة الوادي,07,BISKRA,بسكرة,34.7455367,6.6664117
783,BANIANE,بانيان,R4,07042,,ROUTE NATIONAL NÂ° 31 BANIANE,0712,M'CHOUNECHE,مشونش,07,BISKRA,بسكرة,35.0031683,6.0464117
786,BEGHILA,البغيلة,R4,07043,,RUE LAKHDAR BOUHITEM BEGHILA,0728,MEZIRAA,المزيرعة,07,BISKRA,بسكرة,34.7387167,6.4254983
2653,BOUCHAGROUN AMIROU,بوشقرون حي عميروش,R4,07046,,CITE AMIROUCHE  BOUCHAGROUNE,0729,BOUCHAGROUN,بوشقرون,07,BISKRA,بسكرة,34.7384516,5.4857192
1813,DRISS AMOR,دريس عمر,R4,07049,,ROUTE NATIONAL NÂ°03,0719,EL OUTAYA,الوطاية,07,BISKRA,بسكرة,34.9744383,5.627525
1177,DROH,الدروع,R4,07050,,ROUTE D'ARRIS  DROH,0704,CHETMA,شتمة,07,BISKRA,بسكرة,34.8677603,5.8721441
2578,EL AMRI,العمري,R4,07051,,HAY EL-AMRI,0731,EL GHROUS,الغروس,07,BISKRA,بسكرة,34.6836865,5.3002898
1675,EL HORAYA,الحراية,R4,07052,, RUE ECOLE CHOUCHANE LAKHDAR EL-HORAYA,0714,AIN NAGA,عين الناقة,07,BISKRA,بسكرة,34.7122883,5.9640817
1966,EL KANTARA 1ER NOV,القنطرة اول نوفمبر,R4,07053,,CITE 200 LOGEMENT EL KANTARA,0717,EL KANTARA,القنطرة,07,BISKRA,بسكرة,35.2163783,5.7166667
2221,EL OUALADJA,الولاجة,R4,07054,,RUE REZGUI EL BOUZAHRI EL-OUALADJA,0716,EL FEIDH,الفيض,07,BISKRA,بسكرة,34.60661,6.6503467
2507,FARFAR,فرفار,R4,07055,,HAY FARFAR TOLGA,0721,TOLGA,طولقة,07,BISKRA,بسكرة,34.7288158,5.4005007
1183,FELIACHE,فلياش,R4,07056,, HAY FELIACHE BISKRA,0701,BISKRA,بسكرة,07,BISKRA,بسكرة,34.8263913,5.7519279
2997,GHARTHA,قرطة,R4,07058,, RUE ECOLE SLATNIA ADBELKARIM GHARTHA,0711,SIDI OKBA,سيدي عقبة,07,BISKRA,بسكرة,34.7997433,5.95048
1359,GUEDILA,قديلة,R4,07059,,ROUTE DJEMOURAH GUEDILA,0720,DJEMORAH,جمورة,07,BISKRA,بسكرة,35.0621373,5.79882
2793,GUETTOUCHI LAKHDAR,قطوشي لخضر,R4,07060,,HAI EL BLIDA M'CHOUNECHE,0712,M'CHOUNECHE,مشونش,07,BISKRA,بسكرة,34.9535374,6.0106288
1010,FRERES HARZELLI,الاخوة حرزلي,R4,07065,,RUE APC LES-FRERES-HARZELLI,0716,EL FEIDH,الفيض,07,BISKRA,بسكرة,34.6262267,6.613955
1534,MEGLOUB,مقلوب,R4,07066,,RUE AKID EL HAOUAS MEGLOUB,0732,EL HADJAB,الحاجب,07,BISKRA,بسكرة,34.7911276,5.5984645
2108,M ZIRAA,مزيرعة,R4,07067,,RUE TASOURIT MESSAOUD MEZIRAA,0728,MEZIRAA,المزيرعة,07,BISKRA,بسكرة,34.7196283,6.2929883
1840,M LILI,مليلي,R4,07068,,VILLAGE AGRICOLE M'LLILI,0725,M'LILI,مليلي,07,BISKRA,بسكرة,34.6675594,5.5636243
405,NFIDHET RAGMA,نفيضة الرقمة,R4,07069,, RUE APC N'FIDHET-RAGMA,0715,ZERIBET EL OUED,زريبة الوادي,07,BISKRA,بسكرة,34.6408383,6.3783567
620,ROUIJEL,الروجل,R4,07073,,CITE ROUIDJEL,0716,EL FEIDH,الفيض,07,BISKRA,بسكرة,34.6220067,6.5344367
2937,SAADA,السعدة,R4,07074,,RUE EL HAOUCH SAADA,0713,EL HAOUCH,الحوش,07,BISKRA,بسكرة,34.6053297,5.9601119
622,SEHIRA,الصحيرة,R4,07075,,RUE REGAZ SADOK SEHIRA,0722,LIOUA,لواء,07,BISKRA,بسكرة,34.6413817,5.4133017
2358,BISKRA SERIANA,سريانة,R4,07076,,EL HAY EL DJADID SERIANA,0711,SIDI OKBA,سيدي عقبة,07,BISKRA,بسكرة,34.8335801,5.913338
2894,BISKRA SIDI KHELIL,سيدي خليل,R4,07077,,EL HAY EL DJADIDE SIDI-KHELLIL,0704,CHETMA,شتمة,07,BISKRA,بسكرة,34.8424017,5.8712934
2597,SIDI MASMOUDI,سيدي مصمودي,R4,07078,,RUE MESMADA BELKACEM SIDI-MASMOUDI,0728,MEZIRAA,المزيرعة,07,BISKRA,بسكرة,34.8533733,6.3152467
2745,SIDI MOHAMED MOUSS,سيدي محمد موسى,R4,07079,,EL HAY EL DJADIDE SIDI-MOHAMED-MOUSSA,0713,EL HAOUCH,الحوش,07,BISKRA,بسكرة,34.5526817,6.1271117
413,BENTIOUS,بنطيوس,R4,07080,,RUE REZIGAT AMOR  OURLAL,0730,MEKHADMA,مخادمة,07,BISKRA,بسكرة,34.6538846,5.4963919
1544,BISKRA TIZI,تيزي,R4,07081,,RUE DADA AMAR AIN ZAATOUT,0718,AIN ZAATOUT,عين زعطوط,07,BISKRA,بسكرة,35.1583317,5.845415
2746,TOLGA EMIR ABDELKA,طولقة الامير عبد القادر,R4,07082,,RUE EMIR AEK TOLGA,0721,TOLGA,طولقة,07,BISKRA,بسكرة,34.7200805,5.3839855
2250,ZAATCHA BEN BOULAID,الزعاطشة بن بولعيد,R4,07083,,ZAATCHA-BEN-BOULAID,0732,EL HADJAB,الحاجب,07,BISKRA,بسكرة,34.80199,5.64213
3021,ZRIBET EL OUED 1ER NOVEMBRE,زريبة الواد اول نوفمبر,R4,07084,,CITE COMMUNALE  ZERIBET EL OUED,0715,ZERIBET EL OUED,زريبة الوادي,07,BISKRA,بسكرة,34.6838062,6.5109701
2525,ZERIBET HAMED,زريبة حامد,R4,07085,,ZERIBET-HAMED,0715,ZERIBET EL OUED,زريبة الوادي,07,BISKRA,بسكرة,34.6521167,6.6964983
2747,ABDERRAHMANE GACEM,بسكرة قاسم عبد الرحمن,R2,07086,,CITE ADMINISTRATIVE EL ALIA,0701,BISKRA,بسكرة,07,BISKRA,بسكرة,34.855039,5.7489194
3732,BISKRA GARE ROUTIERE,بسكرة المحطة,R4,07088,,GARE ROUTIERE SOGRAL BISKRA,0732,EL HADJAB,الحاجب,07,BISKRA,بسكرة,34.827422,5.6813454
3870,BISKRA HAY EL MOUDJAHIDINE,بسكرة-حي-المجاهدين,R3,07092,,HAY EL MOUDJAHIDINE BISKRA,0701,BISKRA,بسكرة,07,BISKRA,بسكرة,34.860306,5.7175039
3858,OULED SEID,أولاد-الصيد,R4,07093,,HAY OULED SEID ,0703,BRANIS,البرانس,07,BISKRA,بسكرة,35.001965,5.7836754
3861,BENI SOUIK,بني-سويك,R4,07094,,20 AOUT BENI SOUIK,0720,DJEMORAH,جمورة,07,BISKRA,بسكرة,35.087605,5.8621317
4047,BISKRA ETABLISSEMENT POSTAL ITINERANT 1,بسكرة- المكتب -البريدي -المتنقل- 1,R4,07096,,DUPW BISKRA ,0701,BISKRA,بسكرة,07,BISKRA,بسكرة,34.8479556,5.6999633
8,BECHAR RP,بشار - م ر,CE,08000,,CENTRE VILLE,0801,BECHAR,بشار,08,BECHAR,بشار,31.6167551,-2.2148498
1219,BECHAR 1ER NOVEMBRE,بشار - أول - نوفمبر,R1,08001,,PLACE REPUBLIQUE,0801,BECHAR,بشار,08,BECHAR,بشار,31.619855,-2.2135079
120,ABADLA,العبادلة,R2,08003,,ABADLA ,0817,ABADLA,عبادلة,08,BECHAR,بشار,31.0255599,-2.7096007
2145,BECHAR DEBDABA,بشار- الدبدابة,R2,08004,, DEBDABA BECHAR  ,0801,BECHAR,بشار,08,BECHAR,بشار,31.6210798,-2.2047612
231,BECHAR DJEDID,بشار الجديد,R2,08005,,BECHAR DJEDID ,0801,BECHAR,بشار,08,BECHAR,بشار,31.5632551,-2.2341242
2619,HAI EL BADR,بشار - الحي - البدر,R2,08006,,HAI EL BADR  BECHAR ,0801,BECHAR,بشار,08,BECHAR,بشار,31.5949826,-2.2321342
2547,HAI EL INARA,بشار - الحي - الانارة,R1,08007,,HAI EL INARA BECHAR,0801,BECHAR,بشار,08,BECHAR,بشار,31.5849294,-2.2258265
2868,HAI MRAH,بشار - الحي - مراح,R2,08008,,HAI M'RAH BECHAR,0801,BECHAR,بشار,08,BECHAR,بشار,31.6075271,-2.2204533
2274,BARGA,بشار - البريقة,R2,08009,,CTE LA BARGA BECHAR,0801,BECHAR,بشار,08,BECHAR,بشار,31.6111005,-2.224196
187,BENI OUNIF,بني - ونيف,R2,08010,,BENI OUNIF ,0821,BENI OUNIF,بني ونيف,08,BECHAR,بشار,32.0473714,-1.2461709
472,KENADSA,القنادسة,R2,08011,,KENADSA ,0810,KENADSA,قنادسة,08,BECHAR,بشار,31.5550506,-2.4332163
1882,ABADLA 1 ER NOV,العبادلة  - أول - نوفمبر,R3,08012,,ABADLA ,0817,ABADLA,عبادلة,08,BECHAR,بشار,31.0305712,-2.7122641
2763,HAI EL DJORF,بشار - الحي - الجرف,R3,08013,,HAI EL DJORF BECHAR ,0801,BECHAR,بشار,08,BECHAR,بشار,31.5735359,-2.2301339
2702,HAI EL FETH,بشار - الحي - الفتح,R3,08014,,HAI EL FETH BECHAR ,0801,BECHAR,بشار,08,BECHAR,بشار,31.6326957,-2.1973677
2912,HAI ESSALEM,بشار - الحي - السلام,R2,08015,,HAI ESSALAM BECHAR ,0801,BECHAR,بشار,08,BECHAR,بشار,31.6241517,-2.2225228
2818,HAI HAMDANE,بشار - الحي - حمدان,R3,08016,,HAI HAMDANE BECHAR ,0801,BECHAR,بشار,08,BECHAR,بشار,31.6249229,-2.2043254
704,HAI RIADHI,بشار - الحي - الرياضي,R2,08017,,HAI RIADHI BECHAR,0801,BECHAR,بشار,08,BECHAR,بشار,31.5990017,-2.2223867
1435,BENI OUNIF SIDI BOUSMAHA,بني - ونيف- س-بوسماحة,R3,08019,,BENI OUNIF ,0821,BENI OUNIF,بني ونيف,08,BECHAR,بشار,32.0547933,-1.2451366
315,ERG FARRADJ,عرق - فراج,R4,08023,,ERG FERRADJ,0802,ERG FERRADJ,عرق فراج,08,BECHAR,بشار,31.0346126,-2.790086
1607,HAI ENNOUR,بشار - الحي - النور,R3,08024,,HAI ENNOUR BECHAR,0801,BECHAR,بشار,08,BECHAR,بشار,31.6096824,-2.2097905
742,LAHMAR,لحمر,R3,08026,,LAHMAR ,0806,LAHMAR,الأحمر,08,BECHAR,بشار,31.9325293,-2.2592756
1461,MACHRA HOUARI BOUMEDIEN,مشرع - بومدين,R4,08027,,MACHRAA H. B.,0809,MECHRAA H.BOUMEDIENE,مشروع هواري بومدين,08,BECHAR,بشار,30.9318744,-2.7379837
941,TAGHIT,تاغيت,R3,08030,,TAGHIT ,0813,TAGHIT,تاغيت,08,BECHAR,بشار,30.9197964,-2.0297612
1781,BARREBI,بربي,R4,08033,,BARREBI,0813,TAGHIT,تاغيت,08,BECHAR,بشار,30.8846698,-2.0157926
351,BOUKAIS,بوكايس,R4,08034,,BOUKAIS,0815,BOUKAIS,بوقايس,08,BECHAR,بشار,31.9243262,-2.4668811
1134,DJORF EL BARDA,جرف - الباردة,R4,08035,,DJORF EL BARDA,0809,MECHRAA H.BOUMEDIENE,مشروع هواري بومدين,08,BECHAR,بشار,30.9790802,-2.7145967
564,GUIR LOTFI,قير - لطفي,R4,08037,,GUIR LOTFI,0802,ERG FERRADJ,عرق فراج,08,BECHAR,بشار,30.9763982,-2.776634
1314,HASSI MENOUNAT,حاسي - منونات,R4,08038,,HASSI MENOUNET ,0802,ERG FERRADJ,عرق فراج,08,BECHAR,بشار,31.1321869,-2.7936328
968,MERIDJA,المريجة,R4,08041,,MERIDJA ,0804,MERIDJA,مريجة,08,BECHAR,بشار,31.5486363,-2.947258
1159,MOUGHEUL,موغل,R4,08042,,MOUGHEUL,0816,MOGHEUL,موغل,08,BECHAR,بشار,32.0219768,-2.2194061
1164,OUAKDA,واكدة,R4,08043,,OUAKDA BECHAR ,0801,BECHAR,بشار,08,BECHAR,بشار,31.652117,-2.184004
1333,ROSF TAIBA,رصف - الطيبة,R4,08045,,ROSF TAIBA ,0821,BENI OUNIF,بني ونيف,08,BECHAR,بشار,32.2421701,-1.2043949
1672,KENADSA SIDI MHAMED BENBOUZIA,القنادسة -سيدي - أمحمد,R3,08049,,KENADSA ,0810,KENADSA,قنادسة,08,BECHAR,بشار,31.5565838,-2.4226005
3037,BELKHIRI MOHAMED,بشا بلخيري,R3,08053,,ZONE BLEU BECHAR,0801,BECHAR,بشار,08,BECHAR,بشار,31.5827122,-2.2404316
3479,CENTRE UNIVERSITE,بشار م الجامعي,R4,08054,,CENTRE-UNIVERSITAIRE BECHAR ,0801,BECHAR,بشار,08,BECHAR,بشار,31.6047467,-2.2324138
3480,ZONE BLEU,بشار - المنطقة - الزرقاء,R4,08056,,ZONE BLEU BECHAR,0801,BECHAR,بشار,08,BECHAR,بشار,31.578685,-2.242099
3506,CENTRE UNIVERSITE 1500 LITS,بشار حي جامعي,R4,08057,,CITE UNIVERSITAIRE 1500 LITS BECHAR,0801,BECHAR,بشار,08,BECHAR,بشار,31.6531721,-2.2240972
3507,BENTALEB ALI,بشار بن طالب,R3,08058,,ZONE BLEU BECHAR,0801,BECHAR,بشار,08,BECHAR,بشار,31.5914727,-2.2439505
3508,GARE ROUTIERE,بشار - المحطة,R4,08059,,GARE ROUTIERE BECHAR ,0801,BECHAR,بشار,08,BECHAR,بشار,31.6379086,-2.1989882
3790,ROUTE LAHMAR,بشار-طريق-لحمر,R3,08061,,ROUTE-LAHMAR,0801,BECHAR,بشار,08,BECHAR,بشار,31.6386857,-2.2226781
3791,AADL,بشار-عدل,R4,08062,,CITE AADL BECHAR,0801,BECHAR,بشار,08,BECHAR,بشار,31.57654,-2.207935
4048,BECHAR EP ITINERANT 1,بشار- المكتب -البريدي -المتنقل- 1,R4,08063,,COMPLEX DE LA POSTE HAI GHARASA,0801,BECHAR,بشار,08,BECHAR,بشار,,
4064,BECHAR ETABLISSEMENT POSTAL ITINERANT 2,بشار- المكتب -البريدي -المتنقل-2,R4,08064,,COMPLEX DE LA POSTE HAI GHARASA,0801,BECHAR,بشار,08,BECHAR,بشار,,
4128,BECHAR HAI EL MONGAR,بشار حي المنقار,R3,08065,,HAI EL MONGAR DEBDABA BECHAR,0801,BECHAR,بشار,08,BECHAR,بشار,31.6259346,-2.198063
9,BLIDA RP,البليدة القباضة الرئيسية,CE,09000,,Ave MEKERKEB BEN YOUCEF  BLIDA,0901,BLIDA,البليدة,09,BLIDA,البليدة,36.4729104,2.8223169
54,BOUFARIK,بوفاريك,HC,09001,,BD MOKHTARI ALI ,0916,BOUFARIK,بوفاريك,09,BLIDA,البليدة,36.5718494,2.9116082
89,LARBA,الأربعاء,HC,09002,,RUE CHAALA OMAR ,0917,LARBAA,الأربعاء,09,BLIDA,البليدة,36.5631455,3.155444
121,BENI MERED,بني مراد,R2,09003,,RUE SAHRAOUI  MUSTAPHA,0921,BENI MERED,بني مراد,09,BLIDA,البليدة,36.5219246,2.8603533
641,BLIDA BAB DJAZAIR,البليدة باب الجزائر,R2,09004,,RUE TAKARLI ABDEREZAK,0901,BLIDA,البليدة,09,BLIDA,البليدة,36.4729898,2.8325553
2545,BENMOKADEM,البليدة بن مقدم,R1,09005,,LOTISSEMENT BEN MOKADEM,0901,BLIDA,البليدة,09,BLIDA,البليدة,36.4966999,2.8272396
2697,BOUFARIK PM,بوفاريك ساحة الشهداء,R2,09007,,RUE MENAD MOHAMED EX PLACE DES MARTYRS,0916,BOUFARIK,بوفاريك,09,BLIDA,البليدة,36.5706744,2.9081164
457,BOUGARA,بوقارة,R1,09008,,ROUTE NATIONAL 64 BOUGARA,0922,BOUGARA,بوقرة,09,BLIDA,البليدة,36.5398365,3.0823009
1238,CHEBLI,الشيلي,R2,09009,,RUE LAZERGUI,0902,CHEBLI,الشبلي,09,BLIDA,البليدة,36.5766181,3.0093001
1407,CHIFFA,شفة,R2,09010,,PLACE 1er NOVEMBRE,0908,CHIFFA,الشفة,09,BLIDA,البليدة,36.4622074,2.7411959
191,EL AFFROUN,العفرون,R1,09011,,RUE RECHACHE MOHAMED,0907,EL AFFROUN,العفرون,09,BLIDA,البليدة,36.4695207,2.6311893
679,MEFTAH,مفتاح,R1,09012,,RUE DES FRERES AYADI MEFTAH,0914,MEFTAH,مفتاح,09,BLIDA,البليدة,36.6197927,3.2235081
1583,MOUZAIA,موزاية,R2,09013,,RUE MABZOUT RABAH,0912,MOUZAIA,موزاية,09,BLIDA,البليدة,36.4662066,2.6897634
2283,OUED EL ALLEUG,واد العلايق,R1,09014,,RUE DES FRERES SAIDANI ,0904,OUED EL ALLEUG,وادي العلايق,09,BLIDA,البليدة,36.5561906,2.7883032
884,OULED YAICH,اولاد عيش,R1,09015,,RUE HADDEF MOHAMED,0905,OULED YAICH,أولاد يعيش,09,BLIDA,البليدة,36.4962884,2.8633707
497,BENBOULAID,البليدة بن بولعيد,R2,09016,,CITE BEN BOULAID BLIDA,0901,BLIDA,البليدة,09,BLIDA,البليدة,36.4848402,2.8373073
2028,BOUNAAMA DJILLALI,البليدة بونعامة الجلالي,R2,09017,,CITE BOUNAA MA DJILLALI,0901,BLIDA,البليدة,09,BLIDA,البليدة,36.4828935,2.8168625
897,ZABANA,البليدة زبانة,R2,09018,,CITE LE PLAN ZABANA ,0901,BLIDA,البليدة,09,BLIDA,البليدة,36.4783849,2.8038798
298,BOUARFA,بوعرفة,R2,09019,,ROUTE PRICIPALE BOUARFA,0920,BOUARFA,بوعرفة,09,BLIDA,البليدة,36.4665737,2.8163619
1086,BOUINAN,بوينان,R2,09020,,RUE BOUTABAL AHMED,0903,BOUINAN,بوعينان,09,BLIDA,البليدة,36.5318003,2.9918018
2475,MOUZAIA BENALI,موزاية احمد بن علي,R2,09021,,RUE BEN YEKHLEF ,0912,MOUZAIA,موزاية,09,BLIDA,البليدة,36.4620864,2.6905005
1910,SOUMAA,الصومعة,R2,09022,,RUE KHRITLI MOKHTAR,0911,SOUMAA,الصومعة,09,BLIDA,البليدة,36.5176801,2.9058758
2386,AIN ROUMANA,عين الرمانة,R4,09023,,CENTRE AIN-ROMANA,0925,AIN ROMANA,جبابرة,09,BLIDA,البليدة,36.4078314,2.6899589
922,BENI TAMOU,بني تامو,R3,09024,,RUE AMRANE AHMED BENI TAMOU,0919,BENI TAMOU,بني تامو,09,BLIDA,البليدة,36.5386667,2.8256866
2295,BEN KHELLIL,بن خليل,R4,09025,,CENTRE BEN-KHELLIL ,0910,BEN KHELIL,بن خليل,09,BLIDA,البليدة,36.5807085,2.8377761
1919,BENACHOUR,البليدة بن عاشور,R3,09026,,CITE DES FRERES MUSTAPHA,0901,BLIDA,البليدة,09,BLIDA,البليدة,36.487726,2.8533418
538,CHREA,الشريعة,R4,09027,,parc nationnal de chrea,0906,CHREA,الشريعة,09,BLIDA,البليدة,36.4269822,2.8774235
1768,DJEBABRA,جبابرة,R4,09028,,CENTRE DJEBABRA,0924,DJEBABRA,عين الرمانة,09,BLIDA,البليدة,36.5842632,3.2686661
1474,GUEROUAOU,قرواو,R3,09029,,RUE FRERES RAHMANI ,0923,GUERROUAOU,قرواو,09,BLIDA,البليدة,36.52999,2.8809817
1632,HAMMAM MELOUANE,حمام ملوان,R4,09030,,CENTRE HAMMAM-EL-OUANE,0909,HAMMAM MELOUANE,حمام ملوان,09,BLIDA,البليدة,36.4867142,3.044308
1119,KHAZROUNA,خزرونة,R3,09031,,CITE 500 LGTS KHAZROUNA BENI MERED,0921,BENI MERED,بني مراد,09,BLIDA,البليدة,36.5020079,2.8456745
1780,OUED DJER,واد جر,R3,09032,,CENTRE OUED-DJER,0918,OUED DJER,وادي جر,09,BLIDA,البليدة,36.4277471,2.5630632
1306,OULED SELAMA,اولاد سلامة,R3,09033,,Rue merhoub mohamed centre ouled slama Blida,0915,OULED SLAMA,أولاد سلامة,09,BLIDA,البليدة,36.5540946,3.1084571
950,SOHANE,صوحان,R4,09034,,CitÃ© sohane centre,0913,SOUHANE,سوحان,09,BLIDA,البليدة,36.50707,3.2382433
356,AH EL OUED ETHNIA,اهل الواد الثنية,R4,09035,,CENTRE AHL OUED,0908,CHIFFA,الشفة,09,BLIDA,البليدة,36.4881775,2.7322793
561,AMROUSSA,عمروسة,R4,09036,,Rue brahim rabah amroussa,0903,BOUINAN,بوعينان,09,BLIDA,البليدة,36.535743,2.9657993
2492,BEN CHAABANE,بن شعبان,R4,09037,,Rue iboud boualem benchabane ,0910,BEN KHELIL,بن خليل,09,BLIDA,البليدة,36.6203471,2.8751966
2404,BEN HAMDANI,بن حمداني,R4,09038,,CENTRE BEN HAMDANI,0910,BEN KHELIL,بن خليل,09,BLIDA,البليدة,36.5822883,2.8603367
1498,BENI CHOGRANE,بني شقران,R4,09039,,QARYA BENI CHOGRANE,0912,MOUZAIA,موزاية,09,BLIDA,البليدة,36.5582118,2.7154854
369,BENI MISRA,بني ميسرة,R4,09040,,CENTRE HAMMAM-EL-OUANE,0909,HAMMAM MELOUANE,حمام ملوان,09,BLIDA,البليدة,36.4669858,3.0130778
779,BEN MOUIMEN,بني مويمن,R3,09041,,CitÃ© chahid akarmi kouider NÂ°55 beni mouimene el affroun,0907,EL AFFROUN,العفرون,09,BLIDA,البليدة,36.4595925,2.6279599
1160,BEN SALAH,بن صالح,R4,09042,,"Route Principale, CitÃ© Bensalah",0904,OUED EL ALLEUG,وادي العلايق,09,BLIDA,البليدة,36.5664767,2.812385
2499,BLIDA RMEL,البليدة الرمل,R4,09043,,CITE R'MEL ,0920,BOUARFA,بوعرفة,09,BLIDA,البليدة,36.4622724,2.8348977
1329,BORDJ EMIR ABDELKADER,برج الأمير,R4,09044,,CitÃ© 251 logts BORDJ AMIR AEK ain romana mouzaia,0908,CHIFFA,الشفة,09,BLIDA,البليدة,36.4264094,2.7123537
2651,BAHLI,بهلي,R4,09045,,CENTRE BAHLI,0911,SOUMAA,الصومعة,09,BLIDA,البليدة,36.5347635,2.9200073
1169,CITE DRIOUECHE,حي دريوش,R4,09046,,centre hai drieouche,0920,BOUARFA,بوعرفة,09,BLIDA,البليدة,36.460192,2.7670527
795,HALLOUIA,حلوية,R4,09047,,Rue 14 septembre 1956 centre hallouya,0911,SOUMAA,الصومعة,09,BLIDA,البليدة,36.534879,2.9109891
1668,MELLAHA,ملاحة,R4,09048,,CitÃ© 5 juillet 1962 centre melaha bouinan,0903,BOUINAN,بوعينان,09,BLIDA,البليدة,36.5230255,2.9897311
2211,SIDI AID,سيدي عيد,R4,09049,,39 Rue medah ali Boufarik,0916,BOUFARIK,بوفاريك,09,BLIDA,البليدة,36.6002453,2.9505913
1347,BLIDA SIDI EL KEBIR,سيدي الكبير,R4,09050,,CitÃ© Sidi Kebir Blida,0901,BLIDA,البليدة,09,BLIDA,البليدة,36.4540305,2.8395884
2089,SIDI MADANI,سيدي المداني,R4,09051,,HAI SIDI MADANI,0908,CHIFFA,الشفة,09,BLIDA,البليدة,36.4381205,2.7496785
1963,SOUAKRIA,السواخرية,R4,09052,,HAI SOUAKHRIA,0914,MEFTAH,مفتاح,09,BLIDA,البليدة,36.6536746,3.2044772
2580,TABAINETTE,تاباينات,R4,09053,,CENTRE TABAINETTE,0902,CHEBLI,الشبلي,09,BLIDA,البليدة,36.5266898,3.041747
2222,ZAOUIA,الزاوية,R3,09054,,Rue dzanouni abdelkader zaouia beni tamou blida,0919,BENI TAMOU,بني تامو,09,BLIDA,البليدة,36.527541,2.8081539
2663,BAB ERRAHBA,البليدة باب الرحبة,R2,09055,,BAB ERRAHBA BLIDA,0901,BLIDA,البليدة,09,BLIDA,البليدة,36.4671933,2.8312035
2787,CITE DU STADE,بوفاريك حي الملعب,R2,09056,,ROUTE DE STADE,0916,BOUFARIK,بوفاريك,09,BLIDA,البليدة,36.5784737,2.9063432
1972,LARBAA FAHS,الأربعاء فحص,R2,09057,,RUE DES FRERES LAZAREF,0917,LARBAA,الأربعاء,09,BLIDA,البليدة,36.5679106,3.1617127
1681,OULED YAICH 1ER MAI,اولاد يعيش أول ماي,R1,09058,,CITE 1erMAI 1000 lgts,0905,OULED YAICH,أولاد يعيش,09,BLIDA,البليدة,36.4929927,2.8542529
3593,CITE ABOUDI,حي عبودي,R3,09059,,CITE ABBOUDI,0901,BLIDA,البليدة,09,BLIDA,البليدة,36.4848173,2.8071795
3588,LABAZIZ,لبازيز,R4,09060,,CENTRE LAABAZIZ,0922,BOUGARA,بوقرة,09,BLIDA,البليدة,36.5749917,3.083395
3590,SIDI HAMED,سيدي حامد,R4,09061,,Hai sidi hamed Meftah Blida,0914,MEFTAH,مفتاح,09,BLIDA,البليدة,36.5868098,3.187302
3591,RIHANE,الريحان,R4,09062,,CENTRE RIHANE,0912,MOUZAIA,موزاية,09,BLIDA,البليدة,36.4287999,2.6942922
3592,OUED KERROUCHE,واد الكروش,R4,09063,,CitÃ© hamdania oued kerrouche chiffa,0908,CHIFFA,الشفة,09,BLIDA,البليدة,36.4475222,2.7370239
3595,HASSAINIA,الحساينية,R4,09064,,CENTRE HASSAINIA,0903,BOUINAN,بوعينان,09,BLIDA,البليدة,36.5239149,3.0149412
3594,CINQ PALMIERS,خمس نخلات,R4,09066,,CENTRE CINQ PALMIERS,0904,OUED EL ALLEUG,وادي العلايق,09,BLIDA,البليدة,36.5190871,2.7435213
3589,MHADA,المهادة,R4,09067,,CENTRE M'HADA,0914,MEFTAH,مفتاح,09,BLIDA,البليدة,36.6424498,3.2440596
3586,BLIDA UNIVERSITE,البليدة جامعة 1,R4,09068,,UniversitÃ© Saad dahleb blida 1 ouled yaich blida,0905,OULED YAICH,أولاد يعيش,09,BLIDA,البليدة,36.5070532,2.8798033
3608,UNIVERSITE 2,البليدة جامعة 2,R4,09070,,EL-AFFROUN UNIVERSITE 2,0907,EL AFFROUN,العفرون,09,BLIDA,البليدة,36.4515922,2.6393114
3607,BOUGARA CITE NOUVELLE,بوقرة- مدينة-ج,R3,09075,,BOUGARA2/Â 630 LOGTS OPGI,0922,BOUGARA,بوقرة,09,BLIDA,البليدة,36.5380149,3.0962092
3610,EL AFROUN 2,العفرون 2,R3,09076,,80 LGTS OPGI,0907,EL AFFROUN,العفرون,09,BLIDA,البليدة,36.4685913,2.6193961
3613,BLIDA GARE ROUTIERE,البليدة-المحطة-البرية,R4,09077,,GARE ROUTIERE SOGRALE CITE BEN MOKADEM,0905,OULED YAICH,أولاد يعيش,09,BLIDA,البليدة,36.4975606,2.8301324
3757,H MELOUANE NLLE VILLE,حمام-ملوان-الحي-الجديد,R4,09078,,HAMMAM ELLOUENE 2 CITE NOUVELLE,0909,HAMMAM MELOUANE,حمام ملوان,09,BLIDA,البليدة,36.5196878,3.0771315
3832,BILIDA EP ITINERANT N1,البليدة-المكتب-البريدي-المتنقل-1,R4,09079,,BLIDA,0905,OULED YAICH,أولاد يعيش,09,BLIDA,البليدة,36.4929651,2.8540076
3831,LARBAA BELAOUADI,الأربعاء-بلعوادي,R4,09081,,CENTRE BELAOUADI,0917,LARBAA,الأربعاء,09,BLIDA,البليدة,36.5914911,3.1361982
4060,BLIDA ETABLISSEMENT POSTAL ITINERANT 2,البليدة-المكتب-البريدي-المتنقل-1,R4,09082,,BLIDA,0901,BLIDA,البليدة,09,BLIDA,البليدة,36.4929471,2.8540679
4093,CHEBLI KHODEM,الشبلي خدام,R4,09083,,CENTRE KHEDEM,0902,CHEBLI,الشبلي,09,BLIDA,البليدة,36.57617,2.9923083
4092,BENI MERED DIAR EL BAHRI,بني مراد ديار البحري,R3,09084,,242 LGT DIAR EL BAHRI,0921,BENI MERED,بني مراد,09,BLIDA,البليدة,36.5091148,2.8419387
4130,OULED SLAMA MERAKCHI,أولاد-سلامة-مراكشي,R4,09085,,RUE HAMOUDA ABDELKADER OULED SLAMA,0915,OULED SLAMA,أولاد سلامة,09,BLIDA,البليدة,36.5306458,3.1097516
4129,OULED YAICH BEN YOUCEF BEN KHADA,أولاد-يعيش-بن-يوسف-بن-خدة,R4,09086,,FERME EXPERIMENTALE CITE BEN YOUCEF BEN KHADA,0901,BLIDA,البليدة,09,BLIDA,البليدة,36.5067082,2.8645853
10,BOUIRA RP,البويرة-م-ر,CE,10000,,AXE FINANCIER CITE GOUIZI SAID BOUIRA nouveau siÃ©ge UPW,1001,BOUIRA,البويرة,10,BOUIRA,البويرة,36.3749967,3.8925933
638,HAI EL BADR BOUIRA,البويرة -حي- البدر,R1,10001,,CITE 98 LOGTS FARACHATI BOUIRA,1001,BOUIRA,البويرة,10,BOUIRA,البويرة,36.37621,3.8810511
90,LAKHDARIA,الاخضرية,R1,10002,,ROUTE KHELILI OMAR LAKHDARIA,1013,LAKHDARIA,الأخضرية,10,BOUIRA,البويرة,36.5635604,3.5947704
122,MCHEDALLAH,مشدالله,R1,10003,,M'CHEDALALH CENTRE,1037,M'CHEDALLAH,مشد الله,10,BOUIRA,البويرة,36.3677256,4.268792
140,SOUR EL GHOZLANE,سور-الغزلان,R1,10004,,AVENUE 1er NOVEMBRE SOUR EL GHOZLANE,1038,SOUR EL GHOZLANE,سور الغزلان,10,BOUIRA,البويرة,36.1475667,3.6892883
156,AIN BESSAM HACHIMI,ع-بسام-هاشمي-مداني,R1,10005,,ROUTE MIHOUBI BRAHIM AIN BESSAM,1035,AIN BESSEM,عين بسام,10,BOUIRA,البويرة,36.2921597,3.6706194
1402,KADIRIA,قادرية,R2,10006,,ROUTE NÂ° 5 KADIRIA,1005,KADIRIA,القادرية,10,BOUIRA,البويرة,36.5342216,3.6826782
2548,AGHBALOU,اغبالو,R3,10007,,AGHBALOU CENTRE,1027,AGHBALOU,أغبالو,10,BOUIRA,البويرة,36.4212225,4.3441972
2699,AHL EL KSAR,اهل-القصر,R3,10008,,AHL EL KSAR CENTRE,1022,AHL EL KSAR,أهل القصر,10,BOUIRA,البويرة,36.2520423,4.0412606
2465,AIN BESSAM YAHIAOUI,ع-ب-يحياوي-لعربي,R3,10009,,CITE ACHIR SAID 10403 AIN BESSEM,1035,AIN BESSEM,عين بسام,10,BOUIRA,البويرة,36.2891213,3.6749344
470,AOMAR,اعومر,R2,10010,,AOMAR CENTRE,1016,AOMAR,عمر,10,BOUIRA,البويرة,36.4917099,3.7696748
2623,ATH MANSOUR,اث -منصور,R3,10011,,ATH MANSOUR ,1043,ATH MANSOUR,تاوريرت,10,BOUIRA,البويرة,36.3317238,4.3049595
680,BECHLOUL,بشلول,R2,10012,,BECHLOUL CENTRE,1033,BECHLOUL,بشلول,10,BOUIRA,البويرة,36.312317,4.0730033
685,BIR GHBALOU,بئر-غبالو,R2,10013,,PLACE ZOUBIRI BOUAZA 10440,1036,BIR GHBALOU,بئر غبالو,10,BOUIRA,البويرة,36.2628105,3.5847983
277,BORDJ OKHRISS,برج-اخريس,R3,10014,,BORDJ OKHRISS RUE PRINCIPAL 10340,1018,BORDJ OKHRISS,برج أوخريص,10,BOUIRA,البويرة,36.0819933,3.9727433
3069,BOUAKLANE,بوعكلان,R3,10015,,BOUAKLANE CENTRE,1037,M'CHEDALLAH,مشد الله,10,BOUIRA,البويرة,36.3542187,4.2685577
701,BOUDERBALA,بودربالة,R3,10016,,BOUDERBALA ,1023,BOUDERBALA,بودربالة,10,BOUIRA,البويرة,36.5826295,3.5141309
1427,HADID SAID,البويرة-حديد- سعيد,R3,10017,,CITE 1100 LOGTS BOUIRA ,1001,BOUIRA,البويرة,10,BOUIRA,البويرة,36.3783194,3.8815927
898,DRAA EL BORDJ,NULL,R2,10018,,CITE DES 280 LOGTS BAT 03 DRAA EL BORDJ,1001,BOUIRA,البويرة,10,BOUIRA,البويرة,36.3719267,3.8895483
1269,CHORFA BAHLOUL MED CHERIF,الشرفة -بهلول- محمد- ش,R3,10019,,CHORFA CENTRE,1017,CHORFA,الشرفاء,10,BOUIRA,البويرة,36.3588292,4.3233302
713,DIRAH,ديرح,R3,10020,,DIRAH 10370,1007,DIRAH,ديرة,10,BOUIRA,البويرة,35.99926,3.7550033
1444,EL ADJIBA,العجيبة,R3,10021,,EL ADJIBA CENTRE,1019,EL ADJIBA,العجيبة,10,BOUIRA,البويرة,36.3290436,4.158744
1605,EL ASNAM,الاصنام,R3,10022,,EL ESNAM CENTRE,1002,EL ASNAM,الأسنام,10,BOUIRA,البويرة,36.3220874,4.0118415
912,EL HACHIMIA,الهاشمية,R2,10023,,RUE PRINCIPAL 10490,1015,EL HACHIMIA,الهاشمية,10,BOUIRA,البويرة,36.2189017,3.8153876
1915,HAIZER,حيزر,R2,10024,,HAIZER CENTRE,1012,HAIZER,الحيزر,10,BOUIRA,البويرة,36.3973355,3.9998218
2957,KADIRIA 1ER NOV,قديرية-1-نوفمبر,R3,10025,,KADIRIA 1ER NOV 215 LOGTS ,1005,KADIRIA,القادرية,10,BOUIRA,البويرة,36.5368369,3.6786729
2872,LAKHDARIA 5 JUILLET,الاخضرية-5-جويلية,R2,10026,,CITE OUALDACHE LAKHDARIA,1013,LAKHDARIA,الأخضرية,10,BOUIRA,البويرة,36.5731144,3.5965314
1620,OULED BOUCHIA,اولاد- بوشية,R3,10027,,OULED-BOUCHIA BOUIRA,1001,BOUIRA,البويرة,10,BOUIRA,البويرة,36.356965,3.9041856
2389,SEG AZOUZ,سور-الغزلان-عزوز,R2,10028,,SEG AZZOUZ ROUTE DE BORDJ OKHRIIS 10304,1038,SOUR EL GHOZLANE,سور الغزلان,10,BOUIRA,البويرة,36.1498933,3.7049233
2482,SEG MEBARKI TAYEB,صور-الغزلان-م-الطيب,R2,10029,,RUE MAZANI MOKHTAR 10029,1038,SOUR EL GHOZLANE,سور الغزلان,10,BOUIRA,البويرة,36.1482917,3.69052
2825,AHNIF,احنيف,R4,10030,,AHNIF 10130,1006,AHNIF,حنيف,10,BOUIRA,البويرة,36.3361747,4.2624538
338,BOUIRA AIN EL HADJAR,ع-الحجر-بلعمري-جلول,R4,10031,,AIN EL HADJAR 10480,1025,AIN EL HADJAR,عين الحجر,10,BOUIRA,البويرة,36.3391667,3.8084983
548,AIN LALOUI,عين- العلوي,R4,10032,,AIN LALOUI 10410,1041,AIN LALOUI,عين العلوي,10,BOUIRA,البويرة,36.3202083,3.74677
346,AIN TURCK,عين-الترك-اسايح,R4,10033,,AIN TURK 10120,1029,AIN TURK,عين الترك,10,BOUIRA,البويرة,36.3938417,3.8241583
1128,AIT LAAZIZ,ايت-لعزيز,R4,10034,,AIT LAAZIZ 10110,1008,AIT LAAZIZ,أيت لعزيز,10,BOUIRA,البويرة,36.4436733,3.911315
554,BAHALIL,بهاليل,R4,10035,,BAHALIL  10191,1027,AGHBALOU,أغبالو,10,BOUIRA,البويرة,36.4225386,4.3671455
954,DJEBAHIA ALIOUAT SAID,جباحية-عليوات-سعيد,R4,10036,,DJEBAHIA 10280,1026,DJEBAHIA,جباحية,10,BOUIRA,البويرة,36.4777058,3.7561835
1313,GUERROUMA,قرومة,R4,10037,,GUERROUMA 10230,1003,GUERROUMA,قرومة,10,BOUIRA,البويرة,36.4337494,3.4250904
1315,KHABOUZIA,خبوزية-مدروس-عمر,R4,10038,,KHABBOUZIA 10441,1021,EL KHABOUZIA,الخبوزية,10,BOUIRA,البويرة,36.3157283,3.5998783
1790,MAALA,معلى,R4,10039,,MAALA 10240,1014,MAALA,معلة,10,BOUIRA,البويرة,36.4934374,3.5723163
1501,MESDOUR,مسدور,R4,10040,,MESDOUR 10341,1011,MEZDOUR,مزدور,10,BOUIRA,البويرة,36.0798817,4.071945
3053,RAFFOUR M YAHIA,رافور- موساوي- يحي,R4,10041,,RAFFOUR 10102,1037,M'CHEDALLAH,مشد الله,10,BOUIRA,البويرة,36.3531916,4.2846422
1655,RAOURAOUA,روراوة-جديات-سعيد,R4,10042,,RAOURAOUA 10460,1010,RAOURAOUA,روراوة,10,BOUIRA,البويرة,36.2355167,3.6448067
2410,SAHARIDJ,سحاريج,R4,10043,,SAHARIDJ 10140,1030,SAHARIDJ,صحاريج,10,BOUIRA,البويرة,36.3972778,4.2468897
1797,BOUIRA SOUK EL KHEMIS,سوق الخميس,R3,10044,,SOUK EL KHEMIS 10420,1004,SOUK EL KHEMIS,سوق الخميس,10,BOUIRA,البويرة,36.3917517,3.6323333
1664,TAGUEDITE,تاقديت,R4,10045,,TAGUEDITE 10350,1028,TAGUEDITE,تاقديت,10,BOUIRA,البويرة,36.0194133,3.9900783
588,ZEBOUDJA,الزبوجة,R4,10046,,ZEBOUDJA 10221,1029,AIN TURK,عين الترك,10,BOUIRA,البويرة,36.4398248,3.8388408
2413,ZOUABRIA,الزوابرية,R4,10047,,ZOUABRIA 10241,1024,Z'BARBAR,زبربر,10,BOUIRA,البويرة,36.3785483,3.8820317
382,BOUIRA AIN BEIDA,عين-بيضة,R4,10048,,AIN-BEIDA 10231 ,1003,GUERROUMA,قرومة,10,BOUIRA,البويرة,36.4493907,3.4679571
1959,AIN TERZINE,عين-ترزين,R4,10049,,AIN TERZINE 10342,1018,BORDJ OKHRISS,برج أوخريص,10,BOUIRA,البويرة,36.0971933,3.9243217
3088,ATH BOUALI,اث-بوعلي,R4,10050,,ATH-BOUALI 10050,1043,ATH MANSOUR,تاوريرت,10,BOUIRA,البويرة,36.3390753,4.3327751
2785,BENI HAMAD,بني حماد س زرقاق,R4,10052,,BENI HAMAD 10141,1030,SAHARIDJ,صحاريج,10,BOUIRA,البويرة,36.4102056,4.2121827
993,BENI HAMDOUNE,بني حمدون,R4,10053,,BENI HAMDOUNE 10196,1027,AGHBALOU,أغبالو,10,BOUIRA,البويرة,36.4083502,4.3801209
2660,BOUKRAM GADIR,بوكرام-قدير,R4,10054,,BOUKRAM GADIR 10213,1034,BOUKRAM,بوكرم,10,BOUIRA,البويرة,36.5363016,3.3884008
602,CHABET BRAHEM,شعبة- براهم,R4,10055,,CHABET-BRAHEM 10055,1009,TAGHZOUT,تاغزوت,10,BOUIRA,البويرة,36.4084025,3.9337534
605,DECHMYA,الدشمية,R4,10057,,DECHMYA 10310,1031,DECHMIA,الدشمية,10,BOUIRA,البويرة,36.1308941,3.5754016
2100,EL HAKIMIA,الحاكمية-غ-بلقاسم,R4,10058,,EL HAKIMIA 10320,1020,EL HAKIMIA,الحاكمية,10,BOUIRA,البويرة,36.0918983,3.775745
1186,EL MADJENE LOTFI,الماجن-لطفي,R4,10059,,EL MADJEN LOTFI 10430,1016,AOMAR,عمر,10,BOUIRA,البويرة,36.4667021,3.7846791
2341,EL MOKRANI,المقراني,R4,10060,,EL MOKRANI 10402,1044,EL MOKRANI,المقراني,10,BOUIRA,البويرة,36.4250817,3.6114717
1193,ERRICH,الريش,R4,10061,,ERRICH 10111,1008,AIT LAAZIZ,أيت لعزيز,10,BOUIRA,البويرة,36.443955,3.8720983
1006,GUELT ZERGA,القلتة - الزرقاء,R4,10062,,GULTA ZERGA CENTRE 10062 ,1038,SOUR EL GHOZLANE,سور الغزلان,10,BOUIRA,البويرة,36.2189833,3.71285
1832,GUENTOUR,قنتور,R4,10063,,GUENTOUR CENTRE VILLE 10167,1012,HAIZER,الحيزر,10,BOUIRA,البويرة,36.4015056,4.0451679
2846,GUERGOUR,قرقور,R4,10064,,GUERGOUR 10202,1013,LAKHDARIA,الأخضرية,10,BOUIRA,البويرة,36.5860786,3.5681518
1199,HADJRA ZERGA,الحجرة-الزرقاء,R4,10065,,HADJER ZERGA 10380,1042,HADJERA ZERGA,الحجرة الزرقاء,10,BOUIRA,البويرة,35.95743,3.8488617
2435,HAMZA BOUGHERZOUNE,حمزة-بوغرزون,R4,10067,,HAMZA BOUGHERZOUNE VILLAGE AGRICOLE 10472,1015,EL HACHIMIA,الهاشمية,10,BOUIRA,البويرة,36.2026063,3.8094746
2891,IGHIL NAIT AMEUR,اغيل- نايت-عامر,R4,10068,,IGHIL NAIT AMEUR 10131,1006,AHNIF,حنيف,10,BOUIRA,البويرة,36.2617086,4.2323277
2936,LAHGUIA,لاحقية-مختارى-سعيد,R4,10070,,LAHGUIA 10281,1026,DJEBAHIA,جباحية,10,BOUIRA,البويرة,36.480805,3.69489
1369,MAAMORA,المعمورة,R4,10071,,MAAMORA 10390,1039,MAAMORA,المعمورة,10,BOUIRA,البويرة,36.0332367,3.5524633
1988,M CID ZBARBORA,مسيد- زبربورة,R4,10072,,M'CID-Z'BARBORA 10201,1013,LAKHDARIA,الأخضرية,10,BOUIRA,البويرة,36.556931,3.6429039
2117,MERKALLA,مركالة,R4,10073,,MERKALLA 10168,1009,TAGHZOUT,تاغزوت,10,BOUIRA,البويرة,36.4379419,3.9819849
2241,MIHOUBI,ميهوبي,R4,10074,,MIHOUBI 10442,1036,BIR GHBALOU,بئر غبالو,10,BOUIRA,البويرة,36.2298417,3.6038767
1540,OUED EL BERDI,وادي-البردي,R4,10075,,OUED BERDI 10490,1045,OUED EL BERDI,وادي البردي,10,BOUIRA,البويرة,36.2555533,3.937285
2243,OUED EL KHMIS,وادي-الخميس,R4,10076,,OUED-EL-KHEMIS 10182,1040,OULED RACHED,أولاد راشد,10,BOUIRA,البويرة,36.1662438,4.0696467
2743,OULED GACEM,أولاد - قاسم,R4,10078,,OULED-GACEM 10242,1024,Z'BARBAR,زبربر,10,BOUIRA,البويرة,36.4862473,3.5489714
1994,OULED GUEMRA,اولاد-قمرة,R4,10079,,OULED-GUEMRA 10491,1045,OUED EL BERDI,وادي البردي,10,BOUIRA,البويرة,36.29096,3.9196683
2126,OULED LALEM,أولاد لعلام,R4,10080,,OULED-LALEM 10261,1005,KADIRIA,القادرية,10,BOUIRA,البويرة,36.505465,3.65231
2362,BOUIRA OULED RACHED,اولاد- راشد,R4,10081,,OULED-RACHED 10185,1040,OULED RACHED,أولاد راشد,10,BOUIRA,البويرة,36.211993,4.1085099
2249,OULED TCHALABI,اولاد- شلبي,R4,10082,,OULED-TCHALABI 10211,1023,BOUDERBALA,بودربالة,10,BOUIRA,البويرة,36.5624957,3.497465
2251,RIDANE,ريدان,R4,10083,,RIDANE 10300,1032,RIDANE,ريدان,10,BOUIRA,البويرة,36.0739167,3.4615917
416,SAID ABID,سعيد-عبيد,R4,10084,,SAID-ABID 10002,1001,BOUIRA,البويرة,10,BOUIRA,البويرة,36.35043,3.8337067
2940,SELOUM,سلوم,R4,10086,,SELLOUM 10192,1027,AGHBALOU,أغبالو,10,BOUIRA,البويرة,36.4118498,4.3072015
2977,SEMMACHE,سماش,R4,10087,,SEMMACHE 10161,1019,EL ADJIBA,العجيبة,10,BOUIRA,البويرة,36.3527614,4.1513899
2528,BOUIRA TAGHZOUT,تاغزوت,R4,10089,,TAGHZOUT 10170,1009,TAGHZOUT,تاغزوت,10,BOUIRA,البويرة,36.4082003,3.9591383
2601,TALIOUINE,تلوين,R4,10090,,TAIOUINE CENTRE 10090,1013,LAKHDARIA,الأخضرية,10,BOUIRA,البويرة,36.5431245,3.664988
1380,THAMEUR,ثامر,R4,10091,,THAMER VILLAGE AGRICOLE 10003  ,1001,BOUIRA,البويرة,10,BOUIRA,البويرة,36.33349,3.9610532
423,TIKBOUCHET,تكبوشت,R4,10092,,TIKBOUCHT 10169,1012,HAIZER,الحيزر,10,BOUIRA,البويرة,36.3790057,3.9738217
3024,TIKSIRIDENE,تيكسيغدان- شيخ- محمد,R4,10093,,TIKSIRIDENE 10194,1017,CHORFA,الشرفاء,10,BOUIRA,البويرة,36.4032496,4.3056995
3045,TOGHZA,توغزة-اوكريد-محمد,R4,10095,,TOGHZA 10195 ,1017,CHORFA,الشرفاء,10,BOUIRA,البويرة,36.3623279,4.3685946
1856,ZEBARA,زبارة,R4,10096,,ZEBARA 10351,1028,TAGUEDITE,تاقديت,10,BOUIRA,البويرة,35.9754983,3.91038
3002,KRICHICHE,كريشيش,R3,10098,,KRICHICHE CITE CNEP LAKHDARIA,1013,LAKHDARIA,الأخضرية,10,BOUIRA,البويرة,36.5658411,3.5851377
3025,BEN HAROUNE,بن-هارون,R4,10099,,BEN HAROUNE EST 10099,1026,DJEBAHIA,جباحية,10,BOUIRA,البويرة,36.4575417,3.7686933
