{"type": "FeatureCollection", "features": [{"type": "Feature", "geometry": {"type": "Point", "coordinates": [-0.2658982, 27.7863798]}, "properties": {"name": "سبخة تمنطيط", "name_ar": "سبخة تمنطيط", "name_fr": "Sebkha Tamantit", "type": "artwork", "wilaya_code": "01", "source": "OpenStreetMap", "osm_id": 4798706021, "id": 1, "lat": 27.7863798, "lng": -0.2658982}}, {"type": "Feature", "geometry": {"type": "Point", "coordinates": [-0.0517135, 27.0207637]}, "properties": {"name": "مولاي الناجم", "name_ar": "مولاي الناجم", "name_fr": "Moulay EnNadjem", "type": "artwork", "wilaya_code": "01", "source": "OpenStreetMap", "osm_id": 4778180175, "id": 2, "lat": 27.0207637, "lng": -0.0517135}}, {"type": "Feature", "geometry": {"type": "Point", "coordinates": [1.3398005, 36.166391]}, "properties": {"name": "17 octobre 1961", "type": "artwork", "wilaya_code": "02", "source": "OpenStreetMap", "osm_id": 11832448223, "id": 3, "lat": 36.166391, "lng": 1.3398005}}, {"type": "Feature", "geometry": {"type": "Point", "coordinates": [2.8711499, 33.7820471]}, "properties": {"name": "Parc d'engins", "name_fr": "parc d'engin", "type": "artwork", "wilaya_code": "03", "source": "OpenStreetMap", "osm_id": 10776723305, "id": 4, "lat": 33.7820471, "lng": 2.8711499}}, {"type": "Feature", "geometry": {"type": "Point", "coordinates": [7.3763609, 35.7903186]}, "properties": {"name": "Lavage Auto", "name_fr": "Lavage Auto", "type": "artwork", "wilaya_code": "04", "source": "OpenStreetMap", "osm_id": 8401063117, "id": 5, "lat": 35.7903186, "lng": 7.3763609}}, {"type": "Feature", "geometry": {"type": "Point", "coordinates": [6.3257002, 35.7089735]}, "properties": {"name": "Basé vie - Pénétrante Batna PK 0", "name_fr": "Basé vie - Pénétrante Batna PK 0", "type": "artwork", "wilaya_code": "05", "source": "OpenStreetMap", "osm_id": 4739293624, "id": 6, "lat": 35.7089735, "lng": 6.3257002}}, {"type": "Feature", "geometry": {"type": "Point", "coordinates": [6.273121, 35.1907732]}, "properties": {"name": "Maison chir", "name_fr": "Maison chir", "type": "artwork", "wilaya_code": "05", "source": "OpenStreetMap", "osm_id": 4510590503, "id": 7, "lat": 35.1907732, "lng": 6.273121}}, {"type": "Feature", "geometry": {"type": "Point", "coordinates": [6.1654401, 35.5438244]}, "properties": {"name": "Statue Elwiam", "type": "artwork", "wilaya_code": "05", "source": "OpenStreetMap", "osm_id": 2978303746, "id": 8, "lat": 35.5438244, "lng": 6.1654401}}, {"type": "Feature", "geometry": {"type": "Point", "coordinates": [6.4687939, 35.488724]}, "properties": {"name": "المدينة الرومانية تيمقاد", "name_ar": "المدينة الرومانية تيمقاد", "type": "artwork", "wilaya_code": "05", "source": "OpenStreetMap", "osm_id": 4708077999, "id": 9, "lat": 35.488724, "lng": 6.4687939}}, {"type": "Feature", "geometry": {"type": "Point", "coordinates": [6.1502324, 35.5336563]}, "properties": {"name": "حداد", "type": "artwork", "wilaya_code": "05", "source": "OpenStreetMap", "osm_id": 5323749621, "id": 10, "lat": 35.5336563, "lng": 6.1502324}}, {"type": "Feature", "geometry": {"type": "Point", "coordinates": [6.5446427, 35.2163013]}, "properties": {"name": "مركز التكوين المهني و التمهين", "name_ar": "مركز التكوين المهني و التمهين", "type": "artwork", "wilaya_code": "05", "source": "OpenStreetMap", "osm_id": 6668793094, "id": 11, "lat": 35.2163013, "lng": 6.5446427}}, {"type": "Feature", "geometry": {"type": "Point", "coordinates": [6.2411462, 35.6145277]}, "properties": {"name": "ياكو", "type": "artwork", "wilaya_code": "05", "source": "OpenStreetMap", "osm_id": 7626029687, "id": 12, "lat": 35.6145277, "lng": 6.2411462}}, {"type": "Feature", "geometry": {"type": "Point", "coordinates": [4.5911598, 36.5188438]}, "properties": {"name": "Huilerie Younsi", "type": "artwork", "wilaya_code": "06", "source": "OpenStreetMap", "osm_id": 8178772017, "id": 13, "lat": 36.5188438, "lng": 4.5911598}}, {"type": "Feature", "geometry": {"type": "Point", "coordinates": [5.3977015, 34.7299218]}, "properties": {"name": "Bobinage Med Fardjallah", "name_ar": "Bobinage Med Fardjallah", "name_fr": "Bobinage Med Fardjallah", "type": "artwork", "wilaya_code": "07", "source": "OpenStreetMap", "osm_id": 4665226489, "id": 14, "lat": 34.7299218, "lng": 5.3977015}}, {"type": "Feature", "geometry": {"type": "Point", "coordinates": [2.9113066, 36.5775999]}, "properties": {"name": "Agence publicitaire", "name_fr": "Agence publicitaire", "type": "artwork", "wilaya_code": "09", "source": "OpenStreetMap", "osm_id": 5005908825, "id": 15, "lat": 36.5775999, "lng": 2.9113066}}, {"type": "Feature", "geometry": {"type": "Point", "coordinates": [2.8316209, 36.4729925]}, "properties": {"name": "Statue de Djilali Bounaâma", "name_ar": "تمثال الشهيد بونعامة جيلالي", "name_fr": "Statue de Bounâama Djilali", "type": "artwork", "wilaya_code": "09", "source": "OpenStreetMap", "osm_id": 4508126993, "id": 16, "lat": 36.4729925, "lng": 2.8316209}}, {"type": "Feature", "geometry": {"type": "Point", "coordinates": [2.8312842, 36.4924472]}, "properties": {"name": "Unitech Trèfle", "name_fr": "Unitech Trèfle", "type": "artwork", "wilaya_code": "09", "source": "OpenStreetMap", "osm_id": 4953816021, "id": 17, "lat": 36.4924472, "lng": 2.8312842}}, {"type": "Feature", "geometry": {"type": "Point", "coordinates": [2.740415, 36.4582617]}, "properties": {"name": "أثاث 222", "name_ar": "أثاث 222", "name_fr": "Meubles 222", "type": "artwork", "wilaya_code": "09", "source": "OpenStreetMap", "osm_id": 6297085185, "id": 18, "lat": 36.4582617, "lng": 2.740415}}, {"type": "Feature", "geometry": {"type": "Point", "coordinates": [2.906036, 36.548195]}, "properties": {"name": "عمل فني بارك", "type": "artwork", "wilaya_code": "09", "source": "OpenStreetMap", "osm_id": 11871304369, "id": 19, "lat": 36.548195, "lng": 2.906036}}, {"type": "Feature", "geometry": {"type": "Point", "coordinates": [3.8858182, 36.3847667]}, "properties": {"name": "rue Mohammed boudiaf", "name_fr": "rue Mohammed boudiaf", "type": "artwork", "wilaya_code": "10", "source": "OpenStreetMap", "osm_id": 4520108089, "id": 20, "lat": 36.3847667, "lng": 3.8858182}}, {"type": "Feature", "geometry": {"type": "Point", "coordinates": [8.118932, 35.4035193]}, "properties": {"name": "تمثال اللبؤة", "name_ar": "تمثال اللبؤة", "name_fr": "Statue de la Lionne", "type": "artwork", "wilaya_code": "12", "source": "OpenStreetMap", "osm_id": 4274580689, "id": 21, "lat": 35.4035193, "lng": 8.118932}}, {"type": "Feature", "geometry": {"type": "Point", "coordinates": [8.119105, 35.403709]}, "properties": {"name": "زربية النمامشة", "name_ar": "زربية النمامشة", "name_fr": "Tapis des Nememcha", "type": "artwork", "wilaya_code": "12", "source": "OpenStreetMap", "osm_id": 4274551890, "id": 22, "lat": 35.403709, "lng": 8.119105}}, {"type": "Feature", "geometry": {"type": "Point", "coordinates": [-1.3136682, 34.8830457]}, "properties": {"name": "Saint Michel", "type": "artwork", "wilaya_code": "13", "source": "OpenStreetMap", "osm_id": 10593045964, "id": 23, "lat": 34.8830457, "lng": -1.3136682}}, {"type": "Feature", "geometry": {"type": "Point", "coordinates": [-1.7248482, 35.1525055]}, "properties": {"name": "بربجاني", "name_ar": "بربجاني", "name_fr": "Barbadjani", "type": "artwork", "wilaya_code": "13", "source": "OpenStreetMap", "osm_id": 5618085321, "id": 24, "lat": 35.1525055, "lng": -1.7248482}}, {"type": "Feature", "geometry": {"type": "Point", "coordinates": [-1.7086408, 34.8403581]}, "properties": {"name": "تركيب سير غاز", "name_ar": "تركيب سير غاز", "type": "artwork", "wilaya_code": "13", "source": "OpenStreetMap", "osm_id": 6942527785, "id": 25, "lat": 34.8403581, "lng": -1.7086408}}, {"type": "Feature", "geometry": {"type": "Point", "coordinates": [-1.0368183, 34.9133115]}, "properties": {"name": "تركيب سير غاز السيارات", "name_ar": "تركيب سير غاز السيارات", "type": "artwork", "wilaya_code": "13", "source": "OpenStreetMap", "osm_id": 7562467385, "id": 26, "lat": 34.9133115, "lng": -1.0368183}}, {"type": "Feature", "geometry": {"type": "Point", "coordinates": [1.4911262, 35.1885763]}, "properties": {"name": "زاوية ال شعلال", "name_ar": "زاوية ال شعلال", "type": "artwork", "wilaya_code": "14", "source": "OpenStreetMap", "osm_id": 4537604495, "id": 27, "lat": 35.1885763, "lng": 1.4911262}}, {"type": "Feature", "geometry": {"type": "Point", "coordinates": [1.4906356, 35.1888635]}, "properties": {"name": "مسجد التوبة", "name_ar": "مسجد التوبة", "name_fr": "mosquée tawba", "type": "artwork", "wilaya_code": "14", "source": "OpenStreetMap", "osm_id": 4537604496, "id": 28, "lat": 35.1888635, "lng": 1.4906356}}, {"type": "Feature", "geometry": {"type": "Point", "coordinates": [4.2308133, 36.5520138]}, "properties": {"name": "Amiṛuc At Ḥemmuda", "name_fr": "Amirouche Aït Hamouda", "type": "artwork", "wilaya_code": "15", "source": "OpenStreetMap", "osm_id": 3832450889, "id": 29, "lat": 36.5520138, "lng": 4.2308133}}, {"type": "Feature", "geometry": {"type": "Point", "coordinates": [4.0140495, 36.5347248]}, "properties": {"name": "Belkessa", "type": "artwork", "wilaya_code": "15", "source": "OpenStreetMap", "osm_id": 6130845087, "id": 30, "lat": 36.5347248, "lng": 4.0140495}}, {"type": "Feature", "geometry": {"type": "Point", "coordinates": [4.1680518, 36.8430174]}, "properties": {"name": "Lvur inijel", "name_ar": "Lvur inijel", "type": "artwork", "wilaya_code": "15", "source": "OpenStreetMap", "osm_id": 4499016190, "id": 31, "lat": 36.8430174, "lng": 4.1680518}}, {"type": "Feature", "geometry": {"type": "Point", "coordinates": [4.2344171, 36.5489871]}, "properties": {"name": "Muḥya", "name_fr": "Mohia", "type": "artwork", "wilaya_code": "15", "source": "OpenStreetMap", "osm_id": 13920139097, "id": 32, "lat": 36.5489871, "lng": 4.2344171}}, {"type": "Feature", "geometry": {"type": "Point", "coordinates": [4.3452907, 36.5365244]}, "properties": {"name": "Park vente poutrelle", "name_fr": "Park vente poutrelle", "type": "artwork", "wilaya_code": "15", "source": "OpenStreetMap", "osm_id": 4507001189, "id": 33, "lat": 36.5365244, "lng": 4.3452907}}, {"type": "Feature", "geometry": {"type": "Point", "coordinates": [4.0058562, 36.507281]}, "properties": {"name": "Somma", "name_fr": "Somma", "type": "artwork", "wilaya_code": "15", "source": "OpenStreetMap", "osm_id": 6130844788, "id": 34, "lat": 36.507281, "lng": 4.0058562}}, {"type": "Feature", "geometry": {"type": "Point", "coordinates": [4.3569018, 36.5146099]}, "properties": {"name": "Statue de Fatma N'Soumer", "type": "artwork", "wilaya_code": "15", "source": "OpenStreetMap", "osm_id": 1196029027, "id": 35, "lat": 36.5146099, "lng": 4.3569018}}, {"type": "Feature", "geometry": {"type": "Point", "coordinates": [4.2048322, 36.5240949]}, "properties": {"name": "Unuɣ Lwennas Maɛtub d Tufiq Neɛman", "name_fr": "Portrait de Lounes Matoub et Toufik Namane", "type": "artwork", "wilaya_code": "15", "source": "OpenStreetMap", "osm_id": 8942027940, "id": 36, "lat": 36.5240949, "lng": 4.2048322}}, {"type": "Feature", "geometry": {"type": "Point", "coordinates": [4.2063932, 36.5264966]}, "properties": {"name": "Ɛmiṛuc At Ḥemmuda", "name_fr": "Amirouche Ait Hammouda", "type": "artwork", "wilaya_code": "15", "source": "OpenStreetMap", "osm_id": 8942027943, "id": 37, "lat": 36.5264966, "lng": 4.2063932}}, {"type": "Feature", "geometry": {"type": "Point", "coordinates": [4.2053318, 36.5250752]}, "properties": {"name": "Ḥusin At Ḥmed", "name_fr": "Hocine Ait Ahmed", "type": "artwork", "wilaya_code": "15", "source": "OpenStreetMap", "osm_id": 8942027941, "id": 38, "lat": 36.5250752, "lng": 4.2053318}}, {"type": "Feature", "geometry": {"type": "Point", "coordinates": [3.1920098, 36.7494751]}, "properties": {"name": "112PA123456,87,IN,INV", "type": "artwork", "wilaya_code": "16", "source": "OpenStreetMap", "osm_id": 6722818451, "id": 39, "lat": 36.7494751, "lng": 3.1920098}}, {"type": "Feature", "geometry": {"type": "Point", "coordinates": [3.2691765, 36.732642]}, "properties": {"name": "116pa466551", "name_ar": "116pa466551", "type": "artwork", "wilaya_code": "16", "source": "OpenStreetMap", "osm_id": 5024894921, "id": 40, "lat": 36.732642, "lng": 3.2691765}}, {"type": "Feature", "geometry": {"type": "Point", "coordinates": [3.1941958, 36.7450875]}, "properties": {"name": "118PA611425", "type": "artwork", "wilaya_code": "16", "source": "OpenStreetMap", "osm_id": 7215855485, "id": 41, "lat": 36.7450875, "lng": 3.1941958}}, {"type": "Feature", "geometry": {"type": "Point", "coordinates": [3.2810327, 36.7361313]}, "properties": {"name": "213406", "type": "artwork", "wilaya_code": "16", "source": "OpenStreetMap", "osm_id": 5162614231, "id": 42, "lat": 36.7361313, "lng": 3.2810327}}, {"type": "Feature", "geometry": {"type": "Point", "coordinates": [3.2828165, 36.7377179]}, "properties": {"name": "214145", "type": "artwork", "wilaya_code": "16", "source": "OpenStreetMap", "osm_id": 5162577040, "id": 43, "lat": 36.7377179, "lng": 3.2828165}}, {"type": "Feature", "geometry": {"type": "Point", "coordinates": [3.2844147, 36.7201946]}, "properties": {"name": "216484", "type": "artwork", "wilaya_code": "16", "source": "OpenStreetMap", "osm_id": 5162577042, "id": 44, "lat": 36.7201946, "lng": 3.2844147}}, {"type": "Feature", "geometry": {"type": "Point", "coordinates": [3.3453712, 36.7450313]}, "properties": {"name": "225618", "type": "artwork", "wilaya_code": "16", "source": "OpenStreetMap", "osm_id": 6241211788, "id": 45, "lat": 36.7450313, "lng": 3.3453712}}, {"type": "Feature", "geometry": {"type": "Point", "coordinates": [3.3363597, 36.7228212]}, "properties": {"name": "231660", "type": "artwork", "wilaya_code": "16", "source": "OpenStreetMap", "osm_id": 6241211785, "id": 46, "lat": 36.7228212, "lng": 3.3363597}}, {"type": "Feature", "geometry": {"type": "Point", "coordinates": [3.1124141, 36.6105979]}, "properties": {"name": "3", "name_ar": "3", "type": "artwork", "wilaya_code": "16", "source": "OpenStreetMap", "osm_id": 5493747021, "id": 47, "lat": 36.6105979, "lng": 3.1124141}}, {"type": "Feature", "geometry": {"type": "Point", "coordinates": [3.3289103, 36.7678592]}, "properties": {"name": "435 logts", "type": "artwork", "wilaya_code": "16", "source": "OpenStreetMap", "osm_id": 6069128686, "id": 48, "lat": 36.7678592, "lng": 3.3289103}}, {"type": "Feature", "geometry": {"type": "Point", "coordinates": [3.3502666, 36.7354996]}, "properties": {"name": "619553", "type": "artwork", "wilaya_code": "16", "source": "OpenStreetMap", "osm_id": 6241211787, "id": 49, "lat": 36.7354996, "lng": 3.3502666}}, {"type": "Feature", "geometry": {"type": "Point", "coordinates": [3.3080122, 36.7871433]}, "properties": {"name": "666666", "type": "artwork", "wilaya_code": "16", "source": "OpenStreetMap", "osm_id": 5537786922, "id": 50, "lat": 36.7871433, "lng": 3.3080122}}, {"type": "Feature", "geometry": {"type": "Point", "coordinates": [3.3448988, 36.7299898]}, "properties": {"name": "772864", "type": "artwork", "wilaya_code": "16", "source": "OpenStreetMap", "osm_id": 6241211789, "id": 51, "lat": 36.7299898, "lng": 3.3448988}}, {"type": "Feature", "geometry": {"type": "Point", "coordinates": [3.3529427, 36.7573431]}, "properties": {"name": "854469", "type": "artwork", "wilaya_code": "16", "source": "OpenStreetMap", "osm_id": 6241211786, "id": 52, "lat": 36.7573431, "lng": 3.3529427}}, {"type": "Feature", "geometry": {"type": "Point", "coordinates": [3.3390814, 36.7460635]}, "properties": {"name": "861710", "type": "artwork", "wilaya_code": "16", "source": "OpenStreetMap", "osm_id": 6241182286, "id": 53, "lat": 36.7460635, "lng": 3.3390814}}, {"type": "Feature", "geometry": {"type": "Point", "coordinates": [3.2807953, 36.736377]}, "properties": {"name": "922383", "type": "artwork", "wilaya_code": "16", "source": "OpenStreetMap", "osm_id": 5162577039, "id": 54, "lat": 36.736377, "lng": 3.2807953}}, {"type": "Feature", "geometry": {"type": "Point", "coordinates": [3.2854469, 36.7117036]}, "properties": {"name": "934532", "name_ar": "934532", "type": "artwork", "wilaya_code": "16", "source": "OpenStreetMap", "osm_id": 5024236723, "id": 55, "lat": 36.7117036, "lng": 3.2854469}}, {"type": "Feature", "geometry": {"type": "Point", "coordinates": [3.2689424, 36.7324526]}, "properties": {"name": "937605", "name_ar": "937605", "type": "artwork", "wilaya_code": "16", "source": "OpenStreetMap", "osm_id": 5024147321, "id": 56, "lat": 36.7324526, "lng": 3.2689424}}, {"type": "Feature", "geometry": {"type": "Point", "coordinates": [3.2693212, 36.7326742]}, "properties": {"name": "937606", "name_ar": "937606", "type": "artwork", "wilaya_code": "16", "source": "OpenStreetMap", "osm_id": 5024236722, "id": 57, "lat": 36.7326742, "lng": 3.2693212}}, {"type": "Feature", "geometry": {"type": "Point", "coordinates": [3.3336895, 36.7252076]}, "properties": {"name": "971310", "type": "artwork", "wilaya_code": "16", "source": "OpenStreetMap", "osm_id": 6241211685, "id": 58, "lat": 36.7252076, "lng": 3.3336895}}, {"type": "Feature", "geometry": {"type": "Point", "coordinates": [3.3229885, 36.7820165]}, "properties": {"name": "Aintaya diffus", "name_fr": "Bodhar eac 2", "type": "artwork", "wilaya_code": "16", "source": "OpenStreetMap", "osm_id": 4853375222, "id": 59, "lat": 36.7820165, "lng": 3.3229885}}, {"type": "Feature", "geometry": {"type": "Point", "coordinates": [3.1388627, 36.7373099]}, "properties": {"name": "Al Zubara Fort / The State of Qatar", "type": "artwork", "wilaya_code": "16", "source": "OpenStreetMap", "osm_id": 11793752732, "id": 60, "lat": 36.7373099, "lng": 3.1388627}}, {"type": "Feature", "geometry": {"type": "Point", "coordinates": [3.1401575, 36.737613]}, "properties": {"name": "Al-Saraya al-Hamra Fortress / State of Libya", "type": "artwork", "wilaya_code": "16", "source": "OpenStreetMap", "osm_id": 11793728269, "id": 61, "lat": 36.737613, "lng": 3.1401575}}, {"type": "Feature", "geometry": {"type": "Point", "coordinates": [3.1398741, 36.7372466]}, "properties": {"name": "Almnara tower / The Federal Republic of Somalia", "type": "artwork", "wilaya_code": "16", "source": "OpenStreetMap", "osm_id": 11793728274, "id": 62, "lat": 36.7372466, "lng": 3.1398741}}, {"type": "Feature", "geometry": {"type": "Point", "coordinates": [3.1400717, 36.7373959]}, "properties": {"name": "Ancient Ksour of Ouadane, Chinguetti, Tichitt and Oualata / The Islamic Republic of Mauritania", "type": "artwork", "wilaya_code": "16", "source": "OpenStreetMap", "osm_id": 11793728270, "id": 63, "lat": 36.7373959, "lng": 3.1400717}}, {"type": "Feature", "geometry": {"type": "Point", "coordinates": [3.1403864, 36.7377248]}, "properties": {"name": "Azem Palace / The Syrian Arab Republic", "type": "artwork", "wilaya_code": "16", "source": "OpenStreetMap", "osm_id": 11793745968, "id": 64, "lat": 36.7377248, "lng": 3.1403864}}, {"type": "Feature", "geometry": {"type": "Point", "coordinates": [3.1389139, 36.7380537]}, "properties": {"name": "Bahla Fort / Sultunate of Oman", "type": "artwork", "wilaya_code": "16", "source": "OpenStreetMap", "osm_id": 11793752730, "id": 65, "lat": 36.7380537, "lng": 3.1389139}}, {"type": "Feature", "geometry": {"type": "Point", "coordinates": [3.1391687, 36.7374465]}, "properties": {"name": "Bahrain World Trade Center / The Kingdom of Bahrain", "type": "artwork", "wilaya_code": "16", "source": "OpenStreetMap", "osm_id": 11793728277, "id": 66, "lat": 36.7374465, "lng": 3.1391687}}, {"type": "Feature", "geometry": {"type": "Point", "coordinates": [3.2357597, 36.7665025]}, "properties": {"name": "Bensallam", "type": "artwork", "wilaya_code": "16", "source": "OpenStreetMap", "osm_id": 6062752592, "id": 67, "lat": 36.7665025, "lng": 3.2357597}}, {"type": "Feature", "geometry": {"type": "Point", "coordinates": [3.3599286, 36.7588837]}, "properties": {"name": "Bidonvilles", "name_fr": "Bidonvilles", "type": "artwork", "wilaya_code": "16", "source": "OpenStreetMap", "osm_id": 4665272310, "id": 68, "lat": 36.7588837, "lng": 3.3599286}}, {"type": "Feature", "geometry": {"type": "Point", "coordinates": [3.3433069, 36.7612344]}, "properties": {"name": "Bidonvilles", "type": "artwork", "wilaya_code": "16", "source": "OpenStreetMap", "osm_id": 4691000591, "id": 69, "lat": 36.7612344, "lng": 3.3433069}}, {"type": "Feature", "geometry": {"type": "Point", "coordinates": [3.1397762, 36.7373916]}, "properties": {"name": "Burj Al Arab / United Arab Emirates", "type": "artwork", "wilaya_code": "16", "source": "OpenStreetMap", "osm_id": 11793728275, "id": 70, "lat": 36.7373916, "lng": 3.1397762}}, {"type": "Feature", "geometry": {"type": "Point", "coordinates": [3.2064226, 36.7214145]}, "properties": {"name": "COOP/ISSAT IDIR DEB", "type": "artwork", "wilaya_code": "16", "source": "OpenStreetMap", "osm_id": 4687209893, "id": 71, "lat": 36.7214145, "lng": 3.2064226}}, {"type": "Feature", "geometry": {"type": "Point", "coordinates": [3.2408845, 36.805375]}, "properties": {"name": "Cité 96 logts", "type": "artwork", "wilaya_code": "16", "source": "OpenStreetMap", "osm_id": 6062724103, "id": 72, "lat": 36.805375, "lng": 3.2408845}}, {"type": "Feature", "geometry": {"type": "Point", "coordinates": [3.3131352, 36.7280612]}, "properties": {"name": "DRH SNVI-CIR", "name_fr": "DRH SNVI-CIR", "type": "artwork", "wilaya_code": "16", "source": "OpenStreetMap", "osm_id": 4588670997, "id": 73, "lat": 36.7280612, "lng": 3.3131352}}, {"type": "Feature", "geometry": {"type": "Point", "coordinates": [3.1396613, 36.7376603]}, "properties": {"name": "Dar al-Hadjar / the Republic of Yemen", "type": "artwork", "wilaya_code": "16", "source": "OpenStreetMap", "osm_id": 11793344539, "id": 74, "lat": 36.7376603, "lng": 3.1396613}}, {"type": "Feature", "geometry": {"type": "Point", "coordinates": [3.3277683, 36.7826183]}, "properties": {"name": "Domaine boudhar eac 1", "type": "artwork", "wilaya_code": "16", "source": "OpenStreetMap", "osm_id": 4853375221, "id": 75, "lat": 36.7826183, "lng": 3.3277683}}, {"type": "Feature", "geometry": {"type": "Point", "coordinates": [3.0348916, 36.7848968]}, "properties": {"name": "Entrée Cité Moulinesse ou mézahem mohamed", "name_fr": "Entrée Cité Moulinesse ou mézahem mohamed", "type": "artwork", "wilaya_code": "16", "source": "OpenStreetMap", "osm_id": 4420998389, "id": 76, "lat": 36.7848968, "lng": 3.0348916}}, {"type": "Feature", "geometry": {"type": "Point", "coordinates": [3.2855658, 36.7761321]}, "properties": {"name": "Goura foudil", "type": "artwork", "wilaya_code": "16", "source": "OpenStreetMap", "osm_id": 5356391622, "id": 77, "lat": 36.7761321, "lng": 3.2855658}}, {"type": "Feature", "geometry": {"type": "Point", "coordinates": [3.1389398, 36.7376023]}, "properties": {"name": "Hamidiya Clock Tower in Najmah Square / the Lebanese Republic", "type": "artwork", "wilaya_code": "16", "source": "OpenStreetMap", "osm_id": 11793728278, "id": 78, "lat": 36.7376023, "lng": 3.1389398}}, {"type": "Feature", "geometry": {"type": "Point", "coordinates": [3.138715, 36.7381063]}, "properties": {"name": "Hamoudi Mosque / The Republic of Djibouti", "type": "artwork", "wilaya_code": "16", "source": "OpenStreetMap", "osm_id": 11793752733, "id": 79, "lat": 36.7381063, "lng": 3.138715}}, {"type": "Feature", "geometry": {"type": "Point", "coordinates": [3.3165719, 36.7441453]}, "properties": {"name": "Haouch Mohamed khemisti", "type": "artwork", "wilaya_code": "16", "source": "OpenStreetMap", "osm_id": 6229525686, "id": 80, "lat": 36.7441453, "lng": 3.3165719}}, {"type": "Feature", "geometry": {"type": "Point", "coordinates": [3.1402228, 36.7369854]}, "properties": {"name": "Ishtar Gate / The Republic of Iraq", "type": "artwork", "wilaya_code": "16", "source": "OpenStreetMap", "osm_id": 11793752731, "id": 81, "lat": 36.7369854, "lng": 3.1402228}}, {"type": "Feature", "geometry": {"type": "Point", "coordinates": [3.1396273, 36.7380795]}, "properties": {"name": "Kingdom Center / Kingdom of Saudi Arabia", "type": "artwork", "wilaya_code": "16", "source": "OpenStreetMap", "osm_id": 11793745967, "id": 82, "lat": 36.7380795, "lng": 3.1396273}}, {"type": "Feature", "geometry": {"type": "Point", "coordinates": [3.1391124, 36.7380451]}, "properties": {"name": "Koutoubia Mosque / Kingdom of Morocco", "type": "artwork", "wilaya_code": "16", "source": "OpenStreetMap", "osm_id": 11793752729, "id": 83, "lat": 36.7380451, "lng": 3.1391124}}, {"type": "Feature", "geometry": {"type": "Point", "coordinates": [3.1399812, 36.7371983]}, "properties": {"name": "Kuwait Towers / The State of Kuwait", "type": "artwork", "wilaya_code": "16", "source": "OpenStreetMap", "osm_id": 11793728273, "id": 84, "lat": 36.7371983, "lng": 3.1399812}}, {"type": "Feature", "geometry": {"type": "Point", "coordinates": [2.9756224, 36.751741]}, "properties": {"name": "LOTUS FOR ENGENERING SERVICE", "type": "artwork", "wilaya_code": "16", "source": "OpenStreetMap", "osm_id": 4143032990, "id": 85, "lat": 36.751741, "lng": 2.9756224}}, {"type": "Feature", "geometry": {"type": "Point", "coordinates": [3.139959, 36.7369295]}, "properties": {"name": "Martyr's Memorial (Maqam Echahid) / The People's Democratic Republic of Algeria", "type": "artwork", "wilaya_code": "16", "source": "OpenStreetMap", "osm_id": 11793728271, "id": 86, "lat": 36.7369295, "lng": 3.139959}}, {"type": "Feature", "geometry": {"type": "Point", "coordinates": [3.1391396, 36.7371015]}, "properties": {"name": "Masjid Al Aqsa / The State of Palestine", "type": "artwork", "wilaya_code": "16", "source": "OpenStreetMap", "osm_id": 11793714067, "id": 87, "lat": 36.7371015, "lng": 3.1391396}}, {"type": "Feature", "geometry": {"type": "Point", "coordinates": [3.3247157, 36.7422857]}, "properties": {"name": "Mohamed khemisti", "type": "artwork", "wilaya_code": "16", "source": "OpenStreetMap", "osm_id": 6228982485, "id": 88, "lat": 36.7422857, "lng": 3.3247157}}, {"type": "Feature", "geometry": {"type": "Point", "coordinates": [3.0464306, 36.7653726]}, "properties": {"name": "Nihel", "type": "artwork", "wilaya_code": "16", "source": "OpenStreetMap", "osm_id": 5141761434, "id": 89, "lat": 36.7653726, "lng": 3.0464306}}, {"type": "Feature", "geometry": {"type": "Point", "coordinates": [3.1386738, 36.7373379]}, "properties": {"name": "Old Friday Mosque / The Union of the Comoros", "type": "artwork", "wilaya_code": "16", "source": "OpenStreetMap", "osm_id": 11793728272, "id": 90, "lat": 36.7373379, "lng": 3.1386738}}, {"type": "Feature", "geometry": {"type": "Point", "coordinates": [3.1387145, 36.7375109]}, "properties": {"name": "Petra / The Hashemite Kingdom of Jordan", "type": "artwork", "wilaya_code": "16", "source": "OpenStreetMap", "osm_id": 11793728279, "id": 91, "lat": 36.7375109, "lng": 3.1387145}}, {"type": "Feature", "geometry": {"type": "Point", "coordinates": [3.0923407, 36.6631885]}, "properties": {"name": "Salle de Musculation hocine", "name_ar": "Salle de Musculation hocine", "type": "artwork", "wilaya_code": "16", "source": "OpenStreetMap", "osm_id": 4810466322, "id": 92, "lat": 36.6631885, "lng": 3.0923407}}, {"type": "Feature", "geometry": {"type": "Point", "coordinates": [3.056997, 36.7893437]}, "properties": {"name": "Statue Simon Bolivar", "name_ar": "تمثال سيمون بوليفار", "type": "artwork", "wilaya_code": "16", "source": "OpenStreetMap", "osm_id": 8621264455, "id": 93, "lat": 36.7893437, "lng": 3.056997}}, {"type": "Feature", "geometry": {"type": "Point", "coordinates": [3.0561928, 36.7856656]}, "properties": {"name": "Statue de Bologhine Ibn Ziri", "name_ar": "ثمثال بربروس", "type": "artwork", "wilaya_code": "16", "source": "OpenStreetMap", "osm_id": 287515524, "id": 94, "lat": 36.7856656, "lng": 3.0561928}}, {"type": "Feature", "geometry": {"type": "Point", "coordinates": [3.1391647, 36.7376345]}, "properties": {"name": "The Nubian pyramids / The Republic of the Sudan", "type": "artwork", "wilaya_code": "16", "source": "OpenStreetMap", "osm_id": 11793728276, "id": 95, "lat": 36.7376345, "lng": 3.1391647}}, {"type": "Feature", "geometry": {"type": "Point", "coordinates": [3.1399396, 36.7376587]}, "properties": {"name": "The Pyramids of Giza / Egyptian Arab Republic", "type": "artwork", "wilaya_code": "16", "source": "OpenStreetMap", "osm_id": 11793714068, "id": 96, "lat": 36.7376587, "lng": 3.1399396}}, {"type": "Feature", "geometry": {"type": "Point", "coordinates": [3.1390895, 36.7372478]}, "properties": {"name": "Tunis Clocktower / The Republic of Tunisia", "type": "artwork", "wilaya_code": "16", "source": "OpenStreetMap", "osm_id": 11793344540, "id": 97, "lat": 36.7372478, "lng": 3.1390895}}, {"type": "Feature", "geometry": {"type": "Point", "coordinates": [3.1857434, 36.7415784]}, "properties": {"name": "clair matin bordj el kiffan", "name_fr": "clair matin bordj el kiffan", "type": "artwork", "wilaya_code": "16", "source": "OpenStreetMap", "osm_id": 5615460721, "id": 98, "lat": 36.7415784, "lng": 3.1857434}}, {"type": "Feature", "geometry": {"type": "Point", "coordinates": [3.2310762, 36.7303096]}, "properties": {"name": "ilot 661", "type": "artwork", "wilaya_code": "16", "source": "OpenStreetMap", "osm_id": 6127222785, "id": 99, "lat": 36.7303096, "lng": 3.2310762}}, {"type": "Feature", "geometry": {"type": "Point", "coordinates": [3.2311592, 36.7303076]}, "properties": {"name": "ÎLOT 661", "type": "artwork", "wilaya_code": "16", "source": "OpenStreetMap", "osm_id": 6062724102, "id": 100, "lat": 36.7303076, "lng": 3.2311592}}, {"type": "Feature", "geometry": {"type": "Point", "coordinates": [3.2331888, 36.7380075]}, "properties": {"name": "Îlot 616", "type": "artwork", "wilaya_code": "16", "source": "OpenStreetMap", "osm_id": 6874188286, "id": 101, "lat": 36.7380075, "lng": 3.2331888}}, {"type": "Feature", "geometry": {"type": "Point", "coordinates": [3.0518859, 36.736408]}, "properties": {"name": "البستان", "name_ar": "البستان", "name_fr": "Le jardin", "type": "artwork", "wilaya_code": "16", "source": "OpenStreetMap", "osm_id": 6028141685, "id": 102, "lat": 36.736408, "lng": 3.0518859}}, {"type": "Feature", "geometry": {"type": "Point", "coordinates": [3.186481, 36.7211717]}, "properties": {"name": "الوكالة الوطنية للتشغيل باب الزوار", "name_ar": "الوكالة الوطنية للتشغيل باب الزوار", "name_fr": "Agence nationale de l'emploi", "type": "artwork", "wilaya_code": "16", "source": "OpenStreetMap", "osm_id": 4540491390, "id": 103, "lat": 36.7211717, "lng": 3.186481}}, {"type": "Feature", "geometry": {"type": "Point", "coordinates": [2.9807048, 36.6881581]}, "properties": {"name": "بيتى", "name_ar": "بيتى", "name_fr": "ma maison", "type": "artwork", "wilaya_code": "16", "source": "OpenStreetMap", "osm_id": 5875279686, "id": 104, "lat": 36.6881581, "lng": 2.9807048}}, {"type": "Feature", "geometry": {"type": "Point", "coordinates": [3.3326713, 36.758536]}, "properties": {"name": "عبد الصمد", "name_ar": "عبد الصمد", "name_fr": "Abd Samad", "type": "artwork", "wilaya_code": "16", "source": "OpenStreetMap", "osm_id": 4882219221, "id": 105, "lat": 36.758536, "lng": 3.3326713}}, {"type": "Feature", "geometry": {"type": "Point", "coordinates": [2.8963797, 36.7463583]}, "properties": {"name": "قاعة الأفراح كلّو", "name_ar": "قاعة الأفراح كلّو", "name_fr": "Salle des fêtes kellou", "type": "artwork", "wilaya_code": "16", "source": "OpenStreetMap", "osm_id": 5514920822, "id": 106, "lat": 36.7463583, "lng": 2.8963797}}, {"type": "Feature", "geometry": {"type": "Point", "coordinates": [2.8880442, 36.7531682]}, "properties": {"name": "كشك", "name_ar": "كشك", "name_fr": "Kiosk", "type": "artwork", "wilaya_code": "16", "source": "OpenStreetMap", "osm_id": 4412467991, "id": 107, "lat": 36.7531682, "lng": 2.8880442}}, {"type": "Feature", "geometry": {"type": "Point", "coordinates": [3.1082083, 36.619381]}, "properties": {"name": "لونيس يحيى", "name_ar": "لونيس يحيى", "name_fr": "Lounis yahia", "type": "artwork", "wilaya_code": "16", "source": "OpenStreetMap", "osm_id": 6722813088, "id": 108, "lat": 36.619381, "lng": 3.1082083}}, {"type": "Feature", "geometry": {"type": "Point", "coordinates": [3.0896584, 36.6037172]}, "properties": {"name": "مسجد الشيخ ياسين شوشار", "name_ar": "مسجد الشيخ ياسين شوشار", "name_fr": "Masdjid", "type": "artwork", "wilaya_code": "16", "source": "OpenStreetMap", "osm_id": 5312288924, "id": 109, "lat": 36.6037172, "lng": 3.0896584}}, {"type": "Feature", "geometry": {"type": "Point", "coordinates": [3.0412599, 36.7326324]}, "properties": {"name": "نينو جرافيك", "name_ar": "نينو جرافيك", "type": "artwork", "wilaya_code": "16", "source": "OpenStreetMap", "osm_id": 4965465721, "id": 110, "lat": 36.7326324, "lng": 3.0412599}}, {"type": "Feature", "geometry": {"type": "Point", "coordinates": [3.2779886, 34.6614551]}, "properties": {"name": "Metalart", "name_fr": "Metalart", "type": "artwork", "wilaya_code": "17", "source": "OpenStreetMap", "osm_id": 4618070090, "id": 111, "lat": 34.6614551, "lng": 3.2779886}}, {"type": "Feature", "geometry": {"type": "Point", "coordinates": [3.2371586, 34.6666326]}, "properties": {"name": "مسجد سي عامر محفوظي", "name_ar": "مسجد سي عامر محفوظي", "name_fr": "Mosquée Si Ameur Mahfoudhi", "type": "artwork", "wilaya_code": "17", "source": "OpenStreetMap", "osm_id": 5532310021, "id": 112, "lat": 34.6666326, "lng": 3.2371586}}, {"type": "Feature", "geometry": {"type": "Point", "coordinates": [5.8393816, 36.8050773]}, "properties": {"name": "Statue d'Ibn Khaldoun", "type": "artwork", "wilaya_code": "18", "source": "OpenStreetMap", "osm_id": 3892373966, "id": 113, "lat": 36.8050773, "lng": 5.8393816}}, {"type": "Feature", "geometry": {"type": "Point", "coordinates": [5.905712, 36.560963]}, "properties": {"name": "بوعفرون", "name_ar": "بوعفرون", "name_fr": "Bouafroun", "type": "artwork", "wilaya_code": "18", "source": "OpenStreetMap", "osm_id": 4166097289, "id": 114, "lat": 36.560963, "lng": 5.905712}}, {"type": "Feature", "geometry": {"type": "Point", "coordinates": [5.4048867, 36.1893325]}, "properties": {"name": "Aïn El Fouara; عين الفوارة", "name_ar": "عين الفوارة", "name_fr": "Fontaine d'Aïn El Fouara", "type": "artwork", "description": "Statue de marbre blanc surmontant la fontaine d'Aïn El Fouara.", "wikipedia": "ar:نافورة عين الفوارة", "wikidata": "Q3076109", "wilaya_code": "19", "source": "OpenStreetMap", "osm_id": 4637947041, "id": 115, "lat": 36.1893325, "lng": 5.4048867}}, {"type": "Feature", "geometry": {"type": "Point", "coordinates": [5.4107536, 36.1775654]}, "properties": {"name": "Cité Sonatrach", "name_ar": "حي سوناطراك", "name_fr": "Cité Sonatrach", "type": "artwork", "wilaya_code": "19", "source": "OpenStreetMap", "osm_id": 4723831491, "id": 116, "lat": 36.1775654, "lng": 5.4107536}}, {"type": "Feature", "geometry": {"type": "Point", "coordinates": [5.4104662, 36.1750053]}, "properties": {"name": "Promotion Langar", "name_fr": "Promotion Langar", "type": "artwork", "wilaya_code": "19", "source": "OpenStreetMap", "osm_id": 4723832389, "id": 117, "lat": 36.1750053, "lng": 5.4104662}}, {"type": "Feature", "geometry": {"type": "Point", "coordinates": [5.410483, 36.1742685]}, "properties": {"name": "Promotion Tebbani", "name_fr": "Promotion Tebbani", "type": "artwork", "wilaya_code": "19", "source": "OpenStreetMap", "osm_id": 4723793094, "id": 118, "lat": 36.1742685, "lng": 5.410483}}, {"type": "Feature", "geometry": {"type": "Point", "coordinates": [5.3914526, 36.1876703]}, "properties": {"name": "Promotion zitouni", "type": "artwork", "wilaya_code": "19", "source": "OpenStreetMap", "osm_id": 4649996418, "id": 119, "lat": 36.1876703, "lng": 5.3914526}}, {"type": "Feature", "geometry": {"type": "Point", "coordinates": [5.7200378, 36.0048694]}, "properties": {"name": "Stade", "name_ar": "Stade", "type": "artwork", "wilaya_code": "19", "source": "OpenStreetMap", "osm_id": 5081302122, "id": 120, "lat": 36.0048694, "lng": 5.7200378}}, {"type": "Feature", "geometry": {"type": "Point", "coordinates": [5.6860705, 36.1408268]}, "properties": {"name": "Usine Trefissoud", "name_fr": "Usine Trefissoud", "type": "artwork", "wilaya_code": "19", "source": "OpenStreetMap", "osm_id": 5493379132, "id": 121, "lat": 36.1408268, "lng": 5.6860705}}, {"type": "Feature", "geometry": {"type": "Point", "coordinates": [5.330285, 36.0201343]}, "properties": {"name": "support", "type": "artwork", "wilaya_code": "19", "source": "OpenStreetMap", "osm_id": 5885522085, "id": 122, "lat": 36.0201343, "lng": 5.330285}}, {"type": "Feature", "geometry": {"type": "Point", "coordinates": [5.4060195, 36.2082708]}, "properties": {"name": "مسجد الفرقان", "name_ar": "مسجد الفرقان", "name_fr": "Mosquée Al-Furqan", "type": "artwork", "wilaya_code": "19", "source": "OpenStreetMap", "osm_id": 4949016325, "id": 123, "lat": 36.2082708, "lng": 5.4060195}}, {"type": "Feature", "geometry": {"type": "Point", "coordinates": [6.4214048, 36.7402596]}, "properties": {"name": "Bmpj", "type": "artwork", "wilaya_code": "21", "source": "OpenStreetMap", "osm_id": 13943030202, "id": 124, "lat": 36.7402596, "lng": 6.4214048}}, {"type": "Feature", "geometry": {"type": "Point", "coordinates": [6.5742702, 36.9298526]}, "properties": {"name": "بيع الحديد و مواد البناء", "type": "artwork", "wilaya_code": "21", "source": "OpenStreetMap", "osm_id": 9410222517, "id": 125, "lat": 36.9298526, "lng": 6.5742702}}, {"type": "Feature", "geometry": {"type": "Point", "coordinates": [-0.6293063, 35.1883034]}, "properties": {"name": "La Chapelle", "name_fr": "La Chapelle", "type": "artwork", "wilaya_code": "22", "source": "OpenStreetMap", "osm_id": 5161318823, "id": 126, "lat": 35.1883034, "lng": -0.6293063}}, {"type": "Feature", "geometry": {"type": "Point", "coordinates": [-0.6247826, 35.2224468]}, "properties": {"name": "العمل", "type": "artwork", "wilaya_code": "22", "source": "OpenStreetMap", "osm_id": 11471041369, "id": 127, "lat": 35.2224468, "lng": -0.6247826}}, {"type": "Feature", "geometry": {"type": "Point", "coordinates": [7.738451, 36.8595492]}, "properties": {"name": "A1", "name_fr": "A1", "type": "artwork", "wilaya_code": "23", "source": "OpenStreetMap", "osm_id": 9716395717, "id": 128, "lat": 36.8595492, "lng": 7.738451}}, {"type": "Feature", "geometry": {"type": "Point", "coordinates": [7.7383812, 36.8599495]}, "properties": {"name": "A1", "name_fr": "A1", "type": "artwork", "wilaya_code": "23", "source": "OpenStreetMap", "osm_id": 9716607717, "id": 129, "lat": 36.8599495, "lng": 7.7383812}}, {"type": "Feature", "geometry": {"type": "Point", "coordinates": [7.7387633, 36.8601135]}, "properties": {"name": "A2", "name_fr": "A2", "type": "artwork", "wilaya_code": "23", "source": "OpenStreetMap", "osm_id": 9716607917, "id": 130, "lat": 36.8601135, "lng": 7.7387633}}, {"type": "Feature", "geometry": {"type": "Point", "coordinates": [7.7391595, 36.8602742]}, "properties": {"name": "A3", "name_fr": "A3", "type": "artwork", "wilaya_code": "23", "source": "OpenStreetMap", "osm_id": 9716608017, "id": 131, "lat": 36.8602742, "lng": 7.7391595}}, {"type": "Feature", "geometry": {"type": "Point", "coordinates": [7.7395324, 36.8604204]}, "properties": {"name": "A4", "name_fr": "A4", "type": "artwork", "wilaya_code": "23", "source": "OpenStreetMap", "osm_id": 9716608117, "id": 132, "lat": 36.8604204, "lng": 7.7395324}}, {"type": "Feature", "geometry": {"type": "Point", "coordinates": [7.7398468, 36.8605058]}, "properties": {"name": "B1", "name_fr": "B1", "type": "artwork", "wilaya_code": "23", "source": "OpenStreetMap", "osm_id": 9716608317, "id": 133, "lat": 36.8605058, "lng": 7.7398468}}, {"type": "Feature", "geometry": {"type": "Point", "coordinates": [7.7403401, 36.8605416]}, "properties": {"name": "B2", "name_fr": "B2", "type": "artwork", "wilaya_code": "23", "source": "OpenStreetMap", "osm_id": 9716608417, "id": 134, "lat": 36.8605416, "lng": 7.7403401}}, {"type": "Feature", "geometry": {"type": "Point", "coordinates": [7.6735795, 36.9128252]}, "properties": {"name": "placette de seraidi", "name_fr": "placette de seraidi", "type": "artwork", "wilaya_code": "23", "source": "OpenStreetMap", "osm_id": 4744540029, "id": 135, "lat": 36.9128252, "lng": 7.6735795}}, {"type": "Feature", "geometry": {"type": "Point", "coordinates": [7.7433872, 36.86177]}, "properties": {"name": "المجموعة الاقليمية للدرك الوطني الجديدة", "name_ar": "المجموعة الاقليمية للدرك الوطني الجديدة", "name_fr": "La nouvelle groupement gendarmerie nationale Annaba", "type": "artwork", "wilaya_code": "23", "source": "OpenStreetMap", "osm_id": 5321704521, "id": 136, "lat": 36.86177, "lng": 7.7433872}}, {"type": "Feature", "geometry": {"type": "Point", "coordinates": [7.4252766, 36.4634575]}, "properties": {"name": "Beb soug", "type": "artwork", "wilaya_code": "24", "source": "OpenStreetMap", "osm_id": 4727301792, "id": 137, "lat": 36.4634575, "lng": 7.4252766}}, {"type": "Feature", "geometry": {"type": "Point", "coordinates": [7.4332402, 36.4625096]}, "properties": {"name": "Trois Horloges", "type": "artwork", "wilaya_code": "24", "source": "OpenStreetMap", "osm_id": 4727282591, "id": 138, "lat": 36.4625096, "lng": 7.4332402}}, {"type": "Feature", "geometry": {"type": "Point", "coordinates": [7.4236966, 36.4620257]}, "properties": {"name": "le mur des Martyres", "type": "artwork", "wilaya_code": "24", "source": "OpenStreetMap", "osm_id": 4727289498, "id": 139, "lat": 36.4620257, "lng": 7.4236966}}, {"type": "Feature", "geometry": {"type": "Point", "coordinates": [6.5638789, 36.2307861]}, "properties": {"name": "Atelier Aluminium", "name_fr": "Atelier Aluminium", "type": "artwork", "wilaya_code": "25", "source": "OpenStreetMap", "osm_id": 6733533387, "id": 140, "lat": 36.2307861, "lng": 6.5638789}}, {"type": "Feature", "geometry": {"type": "Point", "coordinates": [6.6213475, 36.3525528]}, "properties": {"name": "aqueduc romain", "name_fr": "aqueduc romain", "type": "artwork", "wilaya_code": "25", "source": "OpenStreetMap", "osm_id": 4594517195, "id": 141, "lat": 36.3525528, "lng": 6.6213475}}, {"type": "Feature", "geometry": {"type": "Point", "coordinates": [6.6115152, 36.4202184]}, "properties": {"name": "solution soudage", "type": "artwork", "wilaya_code": "25", "source": "OpenStreetMap", "osm_id": 8625504817, "id": 142, "lat": 36.4202184, "lng": 6.6115152}}, {"type": "Feature", "geometry": {"type": "Point", "coordinates": [6.6184901, 36.3804774]}, "properties": {"name": "تمثال سيدة السلام", "name_ar": "تمثال سيدة السلام", "name_fr": "Notre dame de paix", "type": "artwork", "wilaya_code": "25", "source": "OpenStreetMap", "osm_id": 5524203823, "id": 143, "lat": 36.3804774, "lng": 6.6184901}}, {"type": "Feature", "geometry": {"type": "Point", "coordinates": [2.8266918, 36.1351282]}, "properties": {"name": "محجرة الحصى", "name_ar": "محجرة الحصى", "name_fr": "station concasage", "type": "artwork", "wilaya_code": "26", "source": "OpenStreetMap", "osm_id": 4541802089, "id": 144, "lat": 36.1351282, "lng": 2.8266918}}, {"type": "Feature", "geometry": {"type": "Point", "coordinates": [0.0766804, 35.9189616]}, "properties": {"name": "Adornas Design", "name_fr": "adornas design", "type": "artwork", "wilaya_code": "27", "source": "OpenStreetMap", "osm_id": 4461530890, "id": 145, "lat": 35.9189616, "lng": 0.0766804}}, {"type": "Feature", "geometry": {"type": "Point", "coordinates": [5.0881189, 35.6462815]}, "properties": {"name": "المتجر لبيرة", "name_ar": "المتجر لبيرة", "type": "artwork", "wilaya_code": "28", "source": "OpenStreetMap", "osm_id": 7923114485, "id": 146, "lat": 35.6462815, "lng": 5.0881189}}, {"type": "Feature", "geometry": {"type": "Point", "coordinates": [-0.3183523, 35.5757021]}, "properties": {"name": "douar famille dahou", "type": "artwork", "wilaya_code": "29", "source": "OpenStreetMap", "osm_id": 4447618589, "id": 147, "lat": 35.5757021, "lng": -0.3183523}}, {"type": "Feature", "geometry": {"type": "Point", "coordinates": [0.1350521, 35.4030248]}, "properties": {"name": "مسجد السيدة خديجة", "name_ar": "مسجد السيدة خديجة", "name_fr": "Mosquée Sayda Khadidja", "type": "artwork", "wilaya_code": "29", "source": "OpenStreetMap", "osm_id": 5035777028, "id": 148, "lat": 35.4030248, "lng": 0.1350521}}, {"type": "Feature", "geometry": {"type": "Point", "coordinates": [6.068075, 31.6864767]}, "properties": {"name": "Boutique de l'artisanat", "type": "artwork", "wilaya_code": "30", "source": "OpenStreetMap", "osm_id": 5885389340, "id": 149, "lat": 31.6864767, "lng": 6.068075}}, {"type": "Feature", "geometry": {"type": "Point", "coordinates": [5.3258468, 31.9473533]}, "properties": {"name": "Rond-point Ali Mellah", "name_ar": "دوار علي ملاح", "type": "artwork", "wilaya_code": "30", "source": "OpenStreetMap", "osm_id": 6419458887, "id": 150, "lat": 31.9473533, "lng": 5.3258468}}, {"type": "Feature", "geometry": {"type": "Point", "coordinates": [4.7497345, 32.170913]}, "properties": {"name": "Trans. canalisations Haoud El-Hamra SP2", "type": "artwork", "wilaya_code": "30", "source": "OpenStreetMap", "osm_id": 9612506817, "id": 151, "lat": 32.170913, "lng": 4.7497345}}, {"type": "Feature", "geometry": {"type": "Point", "coordinates": [5.2965839, 31.9256325]}, "properties": {"name": "logement lpp -chantier-", "name_fr": "logement lpp -chantier-", "type": "artwork", "wilaya_code": "30", "source": "OpenStreetMap", "osm_id": 5619253722, "id": 152, "lat": 31.9256325, "lng": 5.2965839}}, {"type": "Feature", "geometry": {"type": "Point", "coordinates": [5.3376012, 31.9483628]}, "properties": {"name": "rond-point Boulefred", "name_ar": "دوار بولفراد", "type": "artwork", "wilaya_code": "30", "source": "OpenStreetMap", "osm_id": 6419455091, "id": 153, "lat": 31.9483628, "lng": 5.3376012}}, {"type": "Feature", "geometry": {"type": "Point", "coordinates": [5.3916365, 31.9626069]}, "properties": {"name": "الفرع البلدي بالشط", "name_ar": "الفرع البلدي بالشط", "name_fr": "Antenne municipale", "type": "artwork", "wilaya_code": "30", "source": "OpenStreetMap", "osm_id": 5293835222, "id": 154, "lat": 31.9626069, "lng": 5.3916365}}, {"type": "Feature", "geometry": {"type": "Point", "coordinates": [5.4182028, 31.9792472]}, "properties": {"name": "جمعية ايادي الاحسان الخيرية سيدي خويلد", "name_ar": "جمعية ايادي الاحسان الخيرية سيدي خويلد", "name_fr": "Jamait ayadi el ihsane el khairya", "type": "artwork", "wilaya_code": "30", "source": "OpenStreetMap", "osm_id": 5730059139, "id": 155, "lat": 31.9792472, "lng": 5.4182028}}, {"type": "Feature", "geometry": {"type": "Point", "coordinates": [5.3388472, 31.9547687]}, "properties": {"name": "دوار الامن الولائي", "name_ar": "دوار الامن الولائي", "name_fr": "rond-point sûreté de la wilaya", "type": "artwork", "wilaya_code": "30", "source": "OpenStreetMap", "osm_id": 6419455093, "id": 156, "lat": 31.9547687, "lng": 5.3388472}}, {"type": "Feature", "geometry": {"type": "Point", "coordinates": [5.3217687, 31.9444818]}, "properties": {"name": "دوار السوناكون", "name_ar": "دوار السوناكون", "name_fr": "rond-point sonacom", "type": "artwork", "wilaya_code": "30", "source": "OpenStreetMap", "osm_id": 6418688585, "id": 157, "lat": 31.9444818, "lng": 5.3217687}}, {"type": "Feature", "geometry": {"type": "Point", "coordinates": [5.3837, 31.9615149]}, "properties": {"name": "مسجد سيدي بلخير الشطي", "name_ar": "مسجد سيدي بلخير الشطي", "name_fr": "Masdjid", "type": "artwork", "wilaya_code": "30", "source": "OpenStreetMap", "osm_id": 5293835221, "id": 158, "lat": 31.9615149, "lng": 5.3837}}, {"type": "Feature", "geometry": {"type": "Point", "coordinates": [-0.5737765, 35.6942047]}, "properties": {"name": "Bateau", "type": "artwork", "wilaya_code": "31", "source": "OpenStreetMap", "osm_id": 9692180712, "id": 159, "lat": 35.6942047, "lng": -0.5737765}}, {"type": "Feature", "geometry": {"type": "Point", "coordinates": [-0.5750539, 35.6116342]}, "properties": {"name": "Chaib plombier", "type": "artwork", "wilaya_code": "31", "source": "OpenStreetMap", "osm_id": 4269018889, "id": 160, "lat": 35.6116342, "lng": -0.5750539}}, {"type": "Feature", "geometry": {"type": "Point", "coordinates": [-0.3141964, 35.8103857]}, "properties": {"name": "Domicile", "name_fr": "Domicile", "type": "artwork", "wilaya_code": "31", "source": "OpenStreetMap", "osm_id": 6942932385, "id": 161, "lat": 35.8103857, "lng": -0.3141964}}, {"type": "Feature", "geometry": {"type": "Point", "coordinates": [-0.6632041, 35.7099481]}, "properties": {"name": "Notre Dame de Santa Cruz", "name_fr": "Notre Dame de Santa Cruz", "type": "artwork", "wilaya_code": "31", "source": "OpenStreetMap", "osm_id": 9248384080, "id": 162, "lat": 35.7099481, "lng": -0.6632041}}, {"type": "Feature", "geometry": {"type": "Point", "coordinates": [9.8094966, 28.1373354]}, "properties": {"name": "CPIE", "name_fr": "CPIE", "type": "artwork", "wilaya_code": "33", "source": "OpenStreetMap", "osm_id": 6313089586, "id": 163, "lat": 28.1373354, "lng": 9.8094966}}, {"type": "Feature", "geometry": {"type": "Point", "coordinates": [9.8141219, 28.0530861]}, "properties": {"name": "CS2", "name_fr": "CS2", "type": "artwork", "wilaya_code": "33", "source": "OpenStreetMap", "osm_id": 6313089585, "id": 164, "lat": 28.0530861, "lng": 9.8141219}}, {"type": "Feature", "geometry": {"type": "Point", "coordinates": [9.7785183, 28.1123453]}, "properties": {"name": "CS5", "name_fr": "CS5", "type": "artwork", "wilaya_code": "33", "source": "OpenStreetMap", "osm_id": 6313089587, "id": 165, "lat": 28.1123453, "lng": 9.7785183}}, {"type": "Feature", "geometry": {"type": "Point", "coordinates": [9.6999242, 28.1519523]}, "properties": {"name": "CS7", "name_fr": "CS7", "type": "artwork", "wilaya_code": "33", "source": "OpenStreetMap", "osm_id": 6313089288, "id": 166, "lat": 28.1519523, "lng": 9.6999242}}, {"type": "Feature", "geometry": {"type": "Point", "coordinates": [9.7620501, 28.0936322]}, "properties": {"name": "Cs8", "name_fr": "Cs8", "type": "artwork", "wilaya_code": "33", "source": "OpenStreetMap", "osm_id": 6313089686, "id": 167, "lat": 28.0936322, "lng": 9.7620501}}, {"type": "Feature", "geometry": {"type": "Point", "coordinates": [9.792146, 28.0809782]}, "properties": {"name": "cte-ncpie", "name_fr": "cte-ncpie", "type": "artwork", "wilaya_code": "33", "source": "OpenStreetMap", "osm_id": 6313089286, "id": 168, "lat": 28.0809782, "lng": 9.792146}}, {"type": "Feature", "geometry": {"type": "Point", "coordinates": [4.7381418, 36.1783326]}, "properties": {"name": "صمود", "name_ar": "صمود", "name_fr": "Samoud", "type": "artwork", "wilaya_code": "34", "source": "OpenStreetMap", "osm_id": 4581675995, "id": 169, "lat": 36.1783326, "lng": 4.7381418}}, {"type": "Feature", "geometry": {"type": "Point", "coordinates": [3.4646944, 36.644485]}, "properties": {"name": "112pa341234,654", "type": "artwork", "wilaya_code": "35", "source": "OpenStreetMap", "osm_id": 5146032721, "id": 170, "lat": 36.644485, "lng": 3.4646944}}, {"type": "Feature", "geometry": {"type": "Point", "coordinates": [3.4658237, 36.6459813]}, "properties": {"name": "114pa876544,7777", "type": "artwork", "wilaya_code": "35", "source": "OpenStreetMap", "osm_id": 5146032821, "id": 171, "lat": 36.6459813, "lng": 3.4658237}}, {"type": "Feature", "geometry": {"type": "Point", "coordinates": [3.4647046, 36.643403]}, "properties": {"name": "Hffvh", "type": "artwork", "wilaya_code": "35", "source": "OpenStreetMap", "osm_id": 5146032621, "id": 172, "lat": 36.643403, "lng": 3.4647046}}, {"type": "Feature", "geometry": {"type": "Point", "coordinates": [8.0799442, 36.8827315]}, "properties": {"name": "centrale Électrique Kouidet Draouch", "type": "artwork", "wilaya_code": "36", "source": "OpenStreetMap", "osm_id": 7995960585, "id": 173, "lat": 36.8827315, "lng": 8.0799442}}, {"type": "Feature", "geometry": {"type": "Point", "coordinates": [6.801603, 33.3460467]}, "properties": {"name": "قصر الضاوية", "name_ar": "قصر الضاوية", "name_fr": "Palais eddaouia", "type": "artwork", "wilaya_code": "39", "source": "OpenStreetMap", "osm_id": 3861550566, "id": 174, "lat": 33.3460467, "lng": 6.801603}}, {"type": "Feature", "geometry": {"type": "Point", "coordinates": [7.136824, 35.4228809]}, "properties": {"name": "Bouchareb noureddine", "name_fr": "Bouchareb Noureddine", "type": "artwork", "wilaya_code": "40", "source": "OpenStreetMap", "osm_id": 5565962224, "id": 175, "lat": 35.4228809, "lng": 7.136824}}, {"type": "Feature", "geometry": {"type": "Point", "coordinates": [7.938249, 36.2798074]}, "properties": {"name": "Badji Mokhtar", "type": "artwork", "wilaya_code": "41", "source": "OpenStreetMap", "osm_id": 3016002170, "id": 176, "lat": 36.2798074, "lng": 7.938249}}, {"type": "Feature", "geometry": {"type": "Point", "coordinates": [2.6934826, 36.6415723]}, "properties": {"name": "EPSP Bouismail", "name_fr": "EPSP Bouismail", "type": "artwork", "wilaya_code": "42", "source": "OpenStreetMap", "osm_id": 4581259696, "id": 177, "lat": 36.6415723, "lng": 2.6934826}}, {"type": "Feature", "geometry": {"type": "Point", "coordinates": [2.6872834, 36.643345]}, "properties": {"name": "La glacière", "name_fr": "La glacière", "type": "artwork", "wilaya_code": "42", "source": "OpenStreetMap", "osm_id": 4582621791, "id": 178, "lat": 36.643345, "lng": 2.6872834}}, {"type": "Feature", "geometry": {"type": "Point", "coordinates": [2.7895009, 36.6406885]}, "properties": {"name": "Statue Pôle Universitaire Kolea", "type": "artwork", "wilaya_code": "42", "source": "OpenStreetMap", "osm_id": 3709237974, "id": 179, "lat": 36.6406885, "lng": 2.7895009}}, {"type": "Feature", "geometry": {"type": "Point", "coordinates": [2.7416515, 36.6621378]}, "properties": {"name": "موثق", "name_ar": "موثق", "name_fr": "Notaire", "type": "artwork", "wilaya_code": "42", "source": "OpenStreetMap", "osm_id": 4715824101, "id": 180, "lat": 36.6621378, "lng": 2.7416515}}, {"type": "Feature", "geometry": {"type": "Point", "coordinates": [6.1076866, 36.3960015]}, "properties": {"name": "مسجد أسامة بن زيد صابر", "name_ar": "مسجد أسامة بن زيد صابر", "name_fr": "Mosquée Oussama ibn zaïd Sabeur", "type": "artwork", "wilaya_code": "43", "source": "OpenStreetMap", "osm_id": 6990418385, "id": 181, "lat": 36.3960015, "lng": 6.1076866}}, {"type": "Feature", "geometry": {"type": "Point", "coordinates": [1.9614027, 36.2613308]}, "properties": {"name": "Statue Chahid Si Baghdadi", "name_ar": "تمثال الشهيد سي البغدادي", "type": "artwork", "wilaya_code": "44", "source": "OpenStreetMap", "osm_id": 2166324300, "id": 182, "lat": 36.2613308, "lng": 1.9614027}}, {"type": "Feature", "geometry": {"type": "Point", "coordinates": [1.9291018, 36.2470711]}, "properties": {"name": "Statue de Si Zendari", "type": "artwork", "wilaya_code": "44", "source": "OpenStreetMap", "osm_id": 2165486296, "id": 183, "lat": 36.2470711, "lng": 1.9291018}}, {"type": "Feature", "geometry": {"type": "Point", "coordinates": [-1.1237491, 35.3263578]}, "properties": {"name": "Baba Aroudj (Barberousse)", "type": "artwork", "description": "Le Raïs Baba Arroudj (بابا عرّوج) dit Barberousse est né en 1474 à Lesbos. Proclamé sultan d'Alger après ses faits d'arme contre les Castillans. Fondateur de Al Jazâ'ir, il est mort en défendant Tlemcen contre les Espagnols en 1518 à Chaabat El Leham.", "wilaya_code": "46", "source": "OpenStreetMap", "osm_id": 6892930724, "id": 184, "lat": 35.3263578, "lng": -1.1237491}}, {"type": "Feature", "geometry": {"type": "Point", "coordinates": [-0.8778839, 35.4025321]}, "properties": {"name": "مسجد عمر بن الخطاب عين الأربعاء", "name_ar": "مسجد عمر بن الخطاب عين الأربعاء", "name_fr": "mosquée omar ibn al khattab", "type": "artwork", "wilaya_code": "46", "source": "OpenStreetMap", "osm_id": 6313484085, "id": 185, "lat": 35.4025321, "lng": -0.8778839}}, {"type": "Feature", "geometry": {"type": "Point", "coordinates": [3.7608825, 32.3871589]}, "properties": {"name": "Central a béton COSIDER", "name_fr": "Central a béton COSIDER", "type": "artwork", "wilaya_code": "47", "source": "OpenStreetMap", "osm_id": 5139077422, "id": 186, "lat": 32.3871589, "lng": 3.7608825}}, {"type": "Feature", "geometry": {"type": "Point", "coordinates": [4.4919683, 32.7908771]}, "properties": {"name": "الدار", "name_ar": "الدار", "name_fr": "Dar", "type": "artwork", "wilaya_code": "47", "source": "OpenStreetMap", "osm_id": 5466932622, "id": 187, "lat": 32.7908771, "lng": 4.4919683}}, {"type": "Feature", "geometry": {"type": "Point", "coordinates": [4.4919469, 32.7907872]}, "properties": {"name": "الدار", "name_ar": "الدار", "name_fr": "Dar", "type": "artwork", "wilaya_code": "47", "source": "OpenStreetMap", "osm_id": 5643717322, "id": 188, "lat": 32.7907872, "lng": 4.4919469}}, {"type": "Feature", "geometry": {"type": "Point", "coordinates": [3.6773468, 32.5061325]}, "properties": {"name": "مخبر الأعمال البيطونية", "name_ar": "مخبر الأعمال البيطونية", "name_fr": "LGB laboratoire de béton", "type": "artwork", "wilaya_code": "47", "source": "OpenStreetMap", "osm_id": 5749096641, "id": 189, "lat": 32.5061325, "lng": 3.6773468}}, {"type": "Feature", "geometry": {"type": "Point", "coordinates": [0.5747518, 35.7547365]}, "properties": {"name": "Soudeur", "name_fr": "Soudeur", "type": "artwork", "wilaya_code": "48", "source": "OpenStreetMap", "osm_id": 4540881092, "id": 190, "lat": 35.7547365, "lng": 0.5747518}}, {"type": "Feature", "geometry": {"type": "Point", "coordinates": [0.2305242, 29.2631322]}, "properties": {"name": "ضريح", "name_ar": "ضريح", "name_fr": "Mausolée", "type": "artwork", "wilaya_code": "49", "source": "OpenStreetMap", "osm_id": 6875991187, "id": 191, "lat": 29.2631322, "lng": 0.2305242}}, {"type": "Feature", "geometry": {"type": "Point", "coordinates": [5.0052339, 34.3970134]}, "properties": {"name": "منزل قميدة عبد الجبار", "name_ar": "منزل قميدة عبد الجبار", "type": "artwork", "wilaya_code": "51", "source": "OpenStreetMap", "osm_id": 4759415721, "id": 192, "lat": 34.3970134, "lng": 5.0052339}}, {"type": "Feature", "geometry": {"type": "Point", "coordinates": [2.4410939, 27.1824084]}, "properties": {"name": "البركة", "name_ar": "البركة", "name_fr": "Baraka", "type": "artwork", "wilaya_code": "53", "source": "OpenStreetMap", "osm_id": 4566450400, "id": 193, "lat": 27.1824084, "lng": 2.4410939}}, {"type": "Feature", "geometry": {"type": "Point", "coordinates": [1.8655572, 27.1077253]}, "properties": {"name": "الغابة المتحجرة", "name_ar": "الغابة المتحجرة", "name_fr": "Forêt pétrifiée", "type": "artwork", "wilaya_code": "53", "source": "OpenStreetMap", "osm_id": 4663402795, "id": 194, "lat": 27.1077253, "lng": 1.8655572}}, {"type": "Feature", "geometry": {"type": "Point", "coordinates": [1.9285134, 27.0416611]}, "properties": {"name": "جبل القارة الزرقة", "name_ar": "جبل القارة الزرقة", "name_fr": "Montagne Bleue", "type": "artwork", "wilaya_code": "53", "source": "OpenStreetMap", "osm_id": 4663254423, "id": 195, "lat": 27.0416611, "lng": 1.9285134}}, {"type": "Feature", "geometry": {"type": "Point", "coordinates": [1.9100773, 27.1072633]}, "properties": {"name": "رنبوة الغابة المتحجرة", "name_ar": "رنبوة الغابة المتحجرة", "name_fr": "Ranboua Forêt pétrifiée", "type": "artwork", "wilaya_code": "53", "source": "OpenStreetMap", "osm_id": 4534001090, "id": 196, "lat": 27.1072633, "lng": 1.9100773}}, {"type": "Feature", "geometry": {"type": "Point", "coordinates": [2.4804518, 27.1980904]}, "properties": {"name": "ساحة تيدكلت", "name_ar": "ساحة تيدكلت", "name_fr": "Place Tidikelt", "type": "artwork", "wilaya_code": "53", "source": "OpenStreetMap", "osm_id": 5048223822, "id": 197, "lat": 27.1980904, "lng": 2.4804518}}, {"type": "Feature", "geometry": {"type": "Point", "coordinates": [1.92894, 27.043327]}, "properties": {"name": "ضريح الولي الصالح ذو البرهان الواضح الهمّال محمد الأمين", "name_ar": "ضريح الولي الصالح ذو البرهان الواضح الهمّال محمد الأمين", "name_fr": "Mausolée", "type": "artwork", "wilaya_code": "53", "source": "OpenStreetMap", "osm_id": 4663370920, "id": 198, "lat": 27.043327, "lng": 1.92894}}, {"type": "Feature", "geometry": {"type": "Point", "coordinates": [1.9112971, 27.1116568]}, "properties": {"name": "قصبة المرابطين", "name_ar": "قصبة المرابطين", "name_fr": "Kasbah almoravide", "type": "artwork", "wilaya_code": "53", "source": "OpenStreetMap", "osm_id": 4534055389, "id": 199, "lat": 27.1116568, "lng": 1.9112971}}, {"type": "Feature", "geometry": {"type": "Point", "coordinates": [1.9148436, 27.1220334]}, "properties": {"name": "مقبرة لبات", "name_ar": "مقبرة لبات", "name_fr": "Cimetière Bat", "type": "artwork", "wilaya_code": "53", "source": "OpenStreetMap", "osm_id": 4663391304, "id": 200, "lat": 27.1220334, "lng": 1.9148436}}, {"type": "Feature", "geometry": {"type": "Point", "coordinates": [6.0699854, 33.1070689]}, "properties": {"name": "العالمية للعطور الفاخرة", "name_ar": "العالمية للعطور الفاخرة", "name_fr": "Parfums de luxe internationaux", "type": "artwork", "wilaya_code": "55", "source": "OpenStreetMap", "osm_id": 6950679885, "id": 201, "lat": 33.1070689, "lng": 6.0699854}}, {"type": "Feature", "geometry": {"type": "Point", "coordinates": [6.4494521, 33.1648321]}, "properties": {"name": "الفلاحة", "name_ar": "الفلاحة", "name_fr": "Ferme Gasmi", "type": "artwork", "wilaya_code": "55", "source": "OpenStreetMap", "osm_id": 4185694292, "id": 202, "lat": 33.1648321, "lng": 6.4494521}}, {"type": "Feature", "geometry": {"type": "Point", "coordinates": [2.8749511, 30.6296742]}, "properties": {"name": "البساتين", "name_ar": "البساتين", "name_fr": "Vergers", "type": "artwork", "wilaya_code": "58", "source": "OpenStreetMap", "osm_id": 6226778886, "id": 203, "lat": 30.6296742, "lng": 2.8749511}}, {"type": "Feature", "geometry": {"type": "Point", "coordinates": [2.8802527, 30.6482714]}, "properties": {"name": "البساتين", "name_ar": "البساتين", "name_fr": "Vergers", "type": "artwork", "wilaya_code": "58", "source": "OpenStreetMap", "osm_id": 6226778887, "id": 204, "lat": 30.6482714, "lng": 2.8802527}}, {"type": "Feature", "geometry": {"type": "Point", "coordinates": [2.8923983, 30.6146298]}, "properties": {"name": "التجزئة الجديدة 568 مسكن", "name_ar": "التجزئة الجديدة 568 مسكن", "name_fr": "Le nouveau quartier commerçant 568 lojmants", "type": "artwork", "wilaya_code": "58", "source": "OpenStreetMap", "osm_id": 6226166185, "id": 205, "lat": 30.6146298, "lng": 2.8923983}}, {"type": "Feature", "geometry": {"type": "Point", "coordinates": [2.9568849, 30.5139524]}, "properties": {"name": "القطب الجديد حاسي القارة المنيعة", "name_ar": "القطب الجديد حاسي القارة المنيعة", "name_fr": "Le nouveau pôle, EL-Menia et Hassi Gara", "type": "artwork", "description": "قيد الإنشاء", "wilaya_code": "58", "source": "OpenStreetMap", "osm_id": 4212483306, "id": 206, "lat": 30.5139524, "lng": 2.9568849}}, {"type": "Feature", "geometry": {"type": "Point", "coordinates": [2.904177, 30.5587087]}, "properties": {"name": "النخيل", "name_ar": "النخيل", "name_fr": "palmiers", "type": "artwork", "wilaya_code": "58", "source": "OpenStreetMap", "osm_id": 6226921886, "id": 207, "lat": 30.5587087, "lng": 2.904177}}, {"type": "Feature", "geometry": {"type": "Point", "coordinates": [2.9042991, 30.5597936]}, "properties": {"name": "النخيل", "name_ar": "النخيل", "name_fr": "palmiers", "type": "artwork", "wilaya_code": "58", "source": "OpenStreetMap", "osm_id": 6226931186, "id": 208, "lat": 30.5597936, "lng": 2.9042991}}, {"type": "Feature", "geometry": {"type": "Point", "coordinates": [2.9038137, 30.5571182]}, "properties": {"name": "النخيل", "name_ar": "النخيل", "name_fr": "palmiers", "type": "artwork", "wilaya_code": "58", "source": "OpenStreetMap", "osm_id": 6226931187, "id": 209, "lat": 30.5571182, "lng": 2.9038137}}, {"type": "Feature", "geometry": {"type": "Point", "coordinates": [2.9058176, 30.5588644]}, "properties": {"name": "النخيل", "name_ar": "النخيل", "name_fr": "palmiers", "type": "artwork", "wilaya_code": "58", "source": "OpenStreetMap", "osm_id": 6226931188, "id": 210, "lat": 30.5588644, "lng": 2.9058176}}, {"type": "Feature", "geometry": {"type": "Point", "coordinates": [2.9265033, 30.4791277]}, "properties": {"name": "بحيرة سبخة المالح", "name_ar": "بحيرة سبخة المالح", "name_fr": "Lac Hassi Gara", "type": "artwork", "wilaya_code": "58", "source": "OpenStreetMap", "osm_id": 6226801090, "id": 211, "lat": 30.4791277, "lng": 2.9265033}}, {"type": "Feature", "geometry": {"type": "Point", "coordinates": [2.9264684, 30.4617377]}, "properties": {"name": "بحيرة سبخة المالح", "name_ar": "بحيرة سبخة المالح", "name_fr": "Lac Hassi Gara", "type": "artwork", "wilaya_code": "58", "source": "OpenStreetMap", "osm_id": 6226801297, "id": 212, "lat": 30.4617377, "lng": 2.9264684}}, {"type": "Feature", "geometry": {"type": "Point", "coordinates": [3.0089354, 30.2903197]}, "properties": {"name": "بحيرة مائية مالحة طبيعية", "name_ar": "بحيرة مائية مالحة طبيعية", "name_fr": "Lac naturel d'eau salée", "type": "artwork", "wilaya_code": "58", "source": "OpenStreetMap", "osm_id": 6226835185, "id": 213, "lat": 30.2903197, "lng": 3.0089354}}, {"type": "Feature", "geometry": {"type": "Point", "coordinates": [2.9051597, 30.5633139]}, "properties": {"name": "بساتين الأشجار و النخيل", "name_ar": "بساتين الأشجار و النخيل", "name_fr": "Vergers d'arbres et de palmiers", "type": "artwork", "wilaya_code": "58", "source": "OpenStreetMap", "osm_id": 6226921685, "id": 214, "lat": 30.5633139, "lng": 2.9051597}}, {"type": "Feature", "geometry": {"type": "Point", "coordinates": [2.9073611, 30.5609882]}, "properties": {"name": "بساتين الأشجار و النخيل", "name_ar": "بساتين الأشجار و النخيل", "name_fr": "Vergers d'arbres et de palmiers", "type": "artwork", "wilaya_code": "58", "source": "OpenStreetMap", "osm_id": 6226921785, "id": 215, "lat": 30.5609882, "lng": 2.9073611}}, {"type": "Feature", "geometry": {"type": "Point", "coordinates": [2.9094218, 30.5585865]}, "properties": {"name": "بساتين الأشجار و النخيل", "name_ar": "بساتين الأشجار و النخيل", "name_fr": "Vergers d'arbres et de palmiers", "type": "artwork", "wilaya_code": "58", "source": "OpenStreetMap", "osm_id": 6226921885, "id": 216, "lat": 30.5585865, "lng": 2.9094218}}, {"type": "Feature", "geometry": {"type": "Point", "coordinates": [2.9024917, 30.5621522]}, "properties": {"name": "بساتين النخيل", "name_ar": "بساتين النخيل", "name_fr": "Palmeraies", "type": "artwork", "wilaya_code": "58", "source": "OpenStreetMap", "osm_id": 6226760988, "id": 217, "lat": 30.5621522, "lng": 2.9024917}}, {"type": "Feature", "geometry": {"type": "Point", "coordinates": [2.9009509, 30.5609239]}, "properties": {"name": "بساتين النخيل", "name_ar": "بساتين النخيل", "name_fr": "Palmeraies", "type": "artwork", "wilaya_code": "58", "source": "OpenStreetMap", "osm_id": 6226760989, "id": 218, "lat": 30.5609239, "lng": 2.9009509}}, {"type": "Feature", "geometry": {"type": "Point", "coordinates": [2.9023226, 30.5607844]}, "properties": {"name": "بساتين النخيل", "name_ar": "بساتين النخيل", "name_fr": "Palmeraies", "type": "artwork", "wilaya_code": "58", "source": "OpenStreetMap", "osm_id": 6226760990, "id": 219, "lat": 30.5607844, "lng": 2.9023226}}, {"type": "Feature", "geometry": {"type": "Point", "coordinates": [2.9036843, 30.5607864]}, "properties": {"name": "بساتين النخيل", "name_ar": "بساتين النخيل", "name_fr": "Palmeraies", "type": "artwork", "wilaya_code": "58", "source": "OpenStreetMap", "osm_id": 6226764487, "id": 220, "lat": 30.5607864, "lng": 2.9036843}}, {"type": "Feature", "geometry": {"type": "Point", "coordinates": [2.9018552, 30.5597479]}, "properties": {"name": "بساتين النخيل", "name_ar": "بساتين النخيل", "name_fr": "Palmeraies", "type": "artwork", "wilaya_code": "58", "source": "OpenStreetMap", "osm_id": 6226766686, "id": 221, "lat": 30.5597479, "lng": 2.9018552}}, {"type": "Feature", "geometry": {"type": "Point", "coordinates": [2.902838, 30.5588464]}, "properties": {"name": "بساتين النخيل", "name_ar": "بساتين النخيل", "name_fr": "palmiers", "type": "artwork", "wilaya_code": "58", "source": "OpenStreetMap", "osm_id": 6226931185, "id": 222, "lat": 30.5588464, "lng": 2.902838}}, {"type": "Feature", "geometry": {"type": "Point", "coordinates": [3.3687982, 30.7426589]}, "properties": {"name": "حاسي غانم", "name_ar": "حاسي غانم", "name_fr": "Hassi Ghanem", "type": "artwork", "wilaya_code": "58", "source": "OpenStreetMap", "osm_id": 6226835186, "id": 223, "lat": 30.7426589, "lng": 3.3687982}}, {"type": "Feature", "geometry": {"type": "Point", "coordinates": [2.8704832, 30.5815087]}, "properties": {"name": "حي 100 مسكن", "name_ar": "حي 100 مسكن", "name_fr": "Cité 100 lojmants", "type": "artwork", "wilaya_code": "58", "source": "OpenStreetMap", "osm_id": 6227601186, "id": 224, "lat": 30.5815087, "lng": 2.8704832}}, {"type": "Feature", "geometry": {"type": "Point", "coordinates": [2.8684455, 30.5908182]}, "properties": {"name": "حي أولاد بن الشيخ", "name_ar": "حي أولاد بن الشيخ", "name_fr": "Cité Ouled Ben Chiekh", "type": "artwork", "wilaya_code": "58", "source": "OpenStreetMap", "osm_id": 6227601086, "id": 225, "lat": 30.5908182, "lng": 2.8684455}}, {"type": "Feature", "geometry": {"type": "Point", "coordinates": [2.8793871, 30.5730307]}, "properties": {"name": "حي أولاد زيد", "name_ar": "حي أولاد زيد", "name_fr": "Cité Ouled Zaid", "type": "artwork", "wilaya_code": "58", "source": "OpenStreetMap", "osm_id": 6226761086, "id": 226, "lat": 30.5730307, "lng": 2.8793871}}, {"type": "Feature", "geometry": {"type": "Point", "coordinates": [2.8881353, 30.5844551]}, "properties": {"name": "حي أولاد عائشة", "name_ar": "حي أولاد عائشة", "name_fr": "Cité Ouled Aicha", "type": "artwork", "wilaya_code": "58", "source": "OpenStreetMap", "osm_id": 6226761187, "id": 227, "lat": 30.5844551, "lng": 2.8881353}}, {"type": "Feature", "geometry": {"type": "Point", "coordinates": [2.8822071, 30.5689676]}, "properties": {"name": "حي أولاد فرج", "name_ar": "حي أولاد فرج", "name_fr": "Cité Ouled Fradj", "type": "artwork", "wilaya_code": "58", "source": "OpenStreetMap", "osm_id": 6226761185, "id": 228, "lat": 30.5689676, "lng": 2.8822071}}, {"type": "Feature", "geometry": {"type": "Point", "coordinates": [2.867655, 30.6132057]}, "properties": {"name": "حي الريف", "name_ar": "حي الريف", "name_fr": "Cité EL-Rif", "type": "artwork", "wilaya_code": "58", "source": "OpenStreetMap", "osm_id": 6226760986, "id": 229, "lat": 30.6132057, "lng": 2.867655}}, {"type": "Feature", "geometry": {"type": "Point", "coordinates": [2.8838517, 30.5794039]}, "properties": {"name": "حي القدس", "name_ar": "حي القدس", "name_fr": "Hay El-Qods", "type": "artwork", "wilaya_code": "58", "source": "OpenStreetMap", "osm_id": 6227636485, "id": 230, "lat": 30.5794039, "lng": 2.8838517}}, {"type": "Feature", "geometry": {"type": "Point", "coordinates": [2.8736968, 30.5843294]}, "properties": {"name": "حي بادريان", "name_ar": "حي بادريان", "name_fr": "Cité Badraian", "type": "artwork", "wilaya_code": "58", "source": "OpenStreetMap", "osm_id": 6227601385, "id": 231, "lat": 30.5843294, "lng": 2.8736968}}, {"type": "Feature", "geometry": {"type": "Point", "coordinates": [2.8786664, 30.6099059]}, "properties": {"name": "حي بلباشير", "name_ar": "حي بلباشير", "name_fr": "Cité Belbachir", "type": "artwork", "wilaya_code": "58", "source": "OpenStreetMap", "osm_id": 6226761188, "id": 232, "lat": 30.6099059, "lng": 2.8786664}}, {"type": "Feature", "geometry": {"type": "Point", "coordinates": [2.8723407, 30.5873039]}, "properties": {"name": "حي بلعيد", "name_ar": "حي بلعيد", "name_fr": "Cité Belaid", "type": "artwork", "wilaya_code": "58", "source": "OpenStreetMap", "osm_id": 6227601087, "id": 233, "lat": 30.5873039, "lng": 2.8723407}}, {"type": "Feature", "geometry": {"type": "Point", "coordinates": [2.8895367, 30.5917164]}, "properties": {"name": "حي حدب بن عرفة", "name_ar": "حي حدب بن عرفة", "name_fr": "Cité Hedab Ben Arfa", "type": "artwork", "wilaya_code": "58", "source": "OpenStreetMap", "osm_id": 6227601085, "id": 234, "lat": 30.5917164, "lng": 2.8895367}}, {"type": "Feature", "geometry": {"type": "Point", "coordinates": [2.8720283, 30.5967899]}, "properties": {"name": "حي حفرة العباس", "name_ar": "حي حفرة العباس", "name_fr": "Cité Hofrat AL-Abasse", "type": "artwork", "wilaya_code": "58", "source": "OpenStreetMap", "osm_id": 6227601185, "id": 235, "lat": 30.5967899, "lng": 2.8720283}}, {"type": "Feature", "geometry": {"type": "Point", "coordinates": [2.8840715, 30.5914454]}, "properties": {"name": "حي زويتل", "name_ar": "حي زويتل", "name_fr": "Cité Zouitel", "type": "artwork", "wilaya_code": "58", "source": "OpenStreetMap", "osm_id": 6227017687, "id": 236, "lat": 30.5914454, "lng": 2.8840715}}, {"type": "Feature", "geometry": {"type": "Point", "coordinates": [2.8717758, 30.5746699]}, "properties": {"name": "حي قصر قواسم", "name_ar": "حي قصر قواسم", "name_fr": "Cité KASER KOUASEM", "type": "artwork", "wilaya_code": "58", "source": "OpenStreetMap", "osm_id": 6226761085, "id": 237, "lat": 30.5746699, "lng": 2.8717758}}, {"type": "Feature", "geometry": {"type": "Point", "coordinates": [2.8843157, 30.6025766]}, "properties": {"name": "سوق الأغنام", "name_ar": "سوق الأغنام", "name_fr": "Marché aux moutons", "type": "artwork", "wilaya_code": "58", "source": "OpenStreetMap", "osm_id": 6236773885, "id": 238, "lat": 30.6025766, "lng": 2.8843157}}, {"type": "Feature", "geometry": {"type": "Point", "coordinates": [2.9134169, 30.565969]}, "properties": {"name": "محافظة الغابات", "name_ar": "محافظة الغابات", "name_fr": "Gouvernorat Forestier", "type": "artwork", "wilaya_code": "58", "source": "OpenStreetMap", "osm_id": 6226183585, "id": 239, "lat": 30.565969, "lng": 2.9134169}}, {"type": "Feature", "geometry": {"type": "Point", "coordinates": [2.9141368, 30.6056868]}, "properties": {"name": "مركز إعادة التربية بالمنيعة", "name_ar": "السجن الكبير بالمنيعة", "name_fr": "Centre d'éducation reproductive EL-Menia", "type": "artwork", "wilaya_code": "58", "source": "OpenStreetMap", "osm_id": 4212479396, "id": 240, "lat": 30.6056868, "lng": 2.9141368}}, {"type": "Feature", "geometry": {"type": "Point", "coordinates": [2.9028231, 30.5744318]}, "properties": {"name": "مقبرة بوركبة", "name_ar": "مقبرة بوركبة", "name_fr": "Cimetière Bourokba", "type": "artwork", "wilaya_code": "58", "source": "OpenStreetMap", "osm_id": 6227017688, "id": 241, "lat": 30.5744318, "lng": 2.9028231}}, {"type": "Feature", "geometry": {"type": "Point", "coordinates": [2.8809312, 30.5949049]}, "properties": {"name": "ملبنة القصر القديم", "name_ar": "ملبنة القصر القديم", "name_fr": "Produits laitiers veu ksar", "type": "artwork", "wilaya_code": "58", "source": "OpenStreetMap", "osm_id": 6227815986, "id": 242, "lat": 30.5949049, "lng": 2.8809312}}, {"type": "Feature", "geometry": {"type": "Point", "coordinates": [2.8815715, 30.5821549]}, "properties": {"name": "وسط المدينة", "name_ar": "وسط المدينة", "name_fr": "Centre Ville", "type": "artwork", "wilaya_code": "58", "source": "OpenStreetMap", "osm_id": 6226761186, "id": 243, "lat": 30.5821549, "lng": 2.8815715}}, {"type": "Feature", "geometry": {"type": "Point", "coordinates": [0.5861996, 33.1763928]}, "properties": {"name": "RUPESTRE", "type": "artwork", "wilaya_code": "69", "source": "OpenStreetMap", "osm_id": 8861433032, "id": 244, "lat": 33.1763928, "lng": 0.5861996}}, {"type": "Feature", "geometry": {"type": "Point", "coordinates": [1.0268421, 27.0144296]}, "properties": {"name": "Ruine Sidi Issa", "type": "attraction", "wilaya_code": "01", "source": "OpenStreetMap", "osm_id": 3018195239, "id": 245, "lat": 27.0144296, "lng": 1.0268421}}, {"type": "Feature", "geometry": {"type": "Point", "coordinates": [-0.3006989, 27.8766113]}, "properties": {"name": "Station Thermale", "type": "attraction", "wilaya_code": "01", "source": "OpenStreetMap", "osm_id": 432831111, "id": 246, "lat": 27.8766113, "lng": -0.3006989}}, {"type": "Feature", "geometry": {"type": "Point", "coordinates": [-0.2318596, 27.747206]}, "properties": {"name": "اوﻻد حاج المامون", "name_ar": "اوﻻد حاج المامون", "name_fr": "Ouled Hadj Mamoun", "type": "attraction", "wilaya_code": "01", "source": "OpenStreetMap", "osm_id": 4798706521, "id": 247, "lat": 27.747206, "lng": -0.2318596}}, {"type": "Feature", "geometry": {"type": "Point", "coordinates": [-0.2707913, 27.7397929]}, "properties": {"name": "توكي", "name_ar": "توكي", "name_fr": "Toukki", "type": "attraction", "wilaya_code": "01", "source": "OpenStreetMap", "osm_id": 4798706322, "id": 248, "lat": 27.7397929, "lng": -0.2707913}}, {"type": "Feature", "geometry": {"type": "Point", "coordinates": [-0.2884088, 27.958778]}, "properties": {"name": "حديقة العائلات مراقن ، ادرار.", "name_ar": "حديقة العائلات مراقن ، ادرار.", "name_fr": "Parc des familles Maraguen", "type": "attraction", "wilaya_code": "01", "source": "OpenStreetMap", "osm_id": 6765250985, "id": 249, "lat": 27.958778, "lng": -0.2884088}}, {"type": "Feature", "geometry": {"type": "Point", "coordinates": [-0.2533873, 27.8022988]}, "properties": {"name": "زاوية سيد البكري", "name_ar": "زاوية سيد البكري", "name_fr": "Zaouia sid bekri", "type": "attraction", "wilaya_code": "01", "source": "OpenStreetMap", "osm_id": 4798706323, "id": 250, "lat": 27.8022988, "lng": -0.2533873}}, {"type": "Feature", "geometry": {"type": "Point", "coordinates": [1.4982298, 26.9151265]}, "properties": {"name": "سبخة تيط", "name_ar": "سبخة تيط", "name_fr": "Sebkha de Tit", "type": "attraction", "wilaya_code": "01", "source": "OpenStreetMap", "osm_id": 4778180542, "id": 251, "lat": 26.9151265, "lng": 1.4982298}}, {"type": "Feature", "geometry": {"type": "Point", "coordinates": [-0.333108, 27.8751146]}, "properties": {"name": "سوق المواشي", "name_ar": "سوق المواشي", "name_fr": "Marché de bétails", "type": "attraction", "wilaya_code": "01", "source": "OpenStreetMap", "osm_id": 6090217886, "id": 252, "lat": 27.8751146, "lng": -0.333108}}, {"type": "Feature", "geometry": {"type": "Point", "coordinates": [-0.2344457, 27.7810954]}, "properties": {"name": "غزي", "name_ar": "غزي", "name_fr": "Gouzi", "type": "attraction", "wilaya_code": "01", "source": "OpenStreetMap", "osm_id": 4798706022, "id": 253, "lat": 27.7810954, "lng": -0.2344457}}, {"type": "Feature", "geometry": {"type": "Point", "coordinates": [-0.3129781, 27.6205984]}, "properties": {"name": "قصبة لحرار", "name_ar": "قصبة لحرار", "name_fr": "Kasbat Al Ahrar", "type": "attraction", "wilaya_code": "01", "source": "OpenStreetMap", "osm_id": 4797439624, "id": 254, "lat": 27.6205984, "lng": -0.3129781}}, {"type": "Feature", "geometry": {"type": "Point", "coordinates": [-0.314744, 27.6216463]}, "properties": {"name": "قصبة لحرار", "name_ar": "قصبة لحرار", "name_fr": "Kasbat Al Ahrar", "type": "attraction", "wilaya_code": "01", "source": "OpenStreetMap", "osm_id": 4797439625, "id": 255, "lat": 27.6216463, "lng": -0.314744}}, {"type": "Feature", "geometry": {"type": "Point", "coordinates": [-0.0275492, 26.9699703]}, "properties": {"name": "قصر المنصور", "name_ar": "قصر المنصور", "name_fr": "Ksar Mansour", "type": "attraction", "wilaya_code": "01", "source": "OpenStreetMap", "osm_id": 7472771585, "id": 256, "lat": 26.9699703, "lng": -0.0275492}}, {"type": "Feature", "geometry": {"type": "Point", "coordinates": [-0.2341655, 27.3372139]}, "properties": {"name": "مكيد", "name_ar": "مكيد", "name_fr": "Makid", "type": "attraction", "wilaya_code": "01", "source": "OpenStreetMap", "osm_id": 5672922528, "id": 257, "lat": 27.3372139, "lng": -0.2341655}}, {"type": "Feature", "geometry": {"type": "Point", "coordinates": [1.4001228, 36.5331848]}, "properties": {"name": "Traghnia Cascades شلال تراغنية بالتنس", "name_ar": "Traghnia Cascades شلال تراغنية بالتنس", "name_fr": "Traghnia Cascades", "type": "attraction", "wilaya_code": "02", "source": "OpenStreetMap", "osm_id": 7904722617, "id": 258, "lat": 36.5331848, "lng": 1.4001228}}, {"type": "Feature", "geometry": {"type": "Point", "coordinates": [1.3656316, 36.5540656]}, "properties": {"name": "Île", "name_ar": "Île", "type": "attraction", "wilaya_code": "02", "source": "OpenStreetMap", "osm_id": 4740392622, "id": 259, "lat": 36.5540656, "lng": 1.3656316}}, {"type": "Feature", "geometry": {"type": "Point", "coordinates": [1.3601226, 36.5540067]}, "properties": {"name": "Île", "name_ar": "Île", "type": "attraction", "wilaya_code": "02", "source": "OpenStreetMap", "osm_id": 4740392822, "id": 260, "lat": 36.5540067, "lng": 1.3601226}}, {"type": "Feature", "geometry": {"type": "Point", "coordinates": [0.9180793, 36.4363985]}, "properties": {"name": "Île", "name_ar": "Île", "type": "attraction", "wilaya_code": "02", "source": "OpenStreetMap", "osm_id": 4740392823, "id": 261, "lat": 36.4363985, "lng": 0.9180793}}, {"type": "Feature", "geometry": {"type": "Point", "coordinates": [2.8655067, 33.8550748]}, "properties": {"name": "Merikka", "type": "attraction", "wilaya_code": "03", "source": "OpenStreetMap", "osm_id": 4329760590, "id": 262, "lat": 33.8550748, "lng": 2.8655067}}, {"type": "Feature", "geometry": {"type": "Point", "coordinates": [6.644526, 36.0513492]}, "properties": {"name": "حديقة الحيوانات أولاد قاسم", "type": "attraction", "wilaya_code": "04", "source": "OpenStreetMap", "osm_id": 11401163469, "id": 263, "lat": 36.0513492, "lng": 6.644526}}, {"type": "Feature", "geometry": {"type": "Point", "coordinates": [7.5890767, 35.8305958]}, "properties": {"name": "عمار زهروري", "type": "attraction", "wilaya_code": "04", "source": "OpenStreetMap", "osm_id": 12786167901, "id": 264, "lat": 35.8305958, "lng": 7.5890767}}, {"type": "Feature", "geometry": {"type": "Point", "coordinates": [6.1040785, 35.2658897]}, "properties": {"name": "Aguelzim", "name_fr": "Aguelzim", "type": "attraction", "wilaya_code": "05", "source": "OpenStreetMap", "osm_id": 5011313721, "id": 265, "lat": 35.2658897, "lng": 6.1040785}}, {"type": "Feature", "geometry": {"type": "Point", "coordinates": [6.0759668, 35.2531311]}, "properties": {"name": "Aloud yaha", "name_fr": "Aloud yaha", "type": "attraction", "wilaya_code": "05", "source": "OpenStreetMap", "osm_id": 5011313624, "id": 266, "lat": 35.2531311, "lng": 6.0759668}}, {"type": "Feature", "geometry": {"type": "Point", "coordinates": [6.1146043, 35.2677766]}, "properties": {"name": "Alouss", "name_fr": "Alouss", "type": "attraction", "wilaya_code": "05", "source": "OpenStreetMap", "osm_id": 5011313627, "id": 267, "lat": 35.2677766, "lng": 6.1146043}}, {"type": "Feature", "geometry": {"type": "Point", "coordinates": [6.4265375, 35.1407597]}, "properties": {"name": "Arafraf أرفراف", "name_ar": "Arafraf أرفراف", "name_fr": "Vallée Arafraf", "type": "attraction", "wilaya_code": "05", "source": "OpenStreetMap", "osm_id": 6710739886, "id": 268, "lat": 35.1407597, "lng": 6.4265375}}, {"type": "Feature", "geometry": {"type": "Point", "coordinates": [6.061203, 35.2722137]}, "properties": {"name": "Azilal", "name_fr": "Azilal", "type": "attraction", "wilaya_code": "05", "source": "OpenStreetMap", "osm_id": 5011333725, "id": 269, "lat": 35.2722137, "lng": 6.061203}}, {"type": "Feature", "geometry": {"type": "Point", "coordinates": [5.590769, 35.7429296]}, "properties": {"name": "Khalel nssib", "type": "attraction", "wilaya_code": "05", "source": "OpenStreetMap", "osm_id": 6400784090, "id": 270, "lat": 35.7429296, "lng": 5.590769}}, {"type": "Feature", "geometry": {"type": "Point", "coordinates": [6.1015334, 35.2693179]}, "properties": {"name": "Khebraz", "name_fr": "Khebraz", "type": "attraction", "wilaya_code": "05", "source": "OpenStreetMap", "osm_id": 5011313522, "id": 271, "lat": 35.2693179, "lng": 6.1015334}}, {"type": "Feature", "geometry": {"type": "Point", "coordinates": [6.0746127, 35.7797772]}, "properties": {"name": "Ruines romaines de Diana Veteranorum", "type": "attraction", "wikipedia": "en:Diana Veteranorum", "wikidata": "Q1573776", "wilaya_code": "05", "source": "OpenStreetMap", "osm_id": 188544755, "id": 272, "lat": 35.7797772, "lng": 6.0746127}}, {"type": "Feature", "geometry": {"type": "Point", "coordinates": [6.099398, 35.2706113]}, "properties": {"name": "Timmaouine", "name_fr": "Timmaouine", "type": "attraction", "wilaya_code": "05", "source": "OpenStreetMap", "osm_id": 5011313622, "id": 273, "lat": 35.2706113, "lng": 6.099398}}, {"type": "Feature", "geometry": {"type": "Point", "coordinates": [6.0949201, 35.2850824]}, "properties": {"name": "Tnazeft", "name_fr": "Tnazeft", "type": "attraction", "wilaya_code": "05", "source": "OpenStreetMap", "osm_id": 5011334522, "id": 274, "lat": 35.2850824, "lng": 6.0949201}}, {"type": "Feature", "geometry": {"type": "Point", "coordinates": [6.0414112, 35.2612429]}, "properties": {"name": "Tnoughist", "name_fr": "Tnoughist", "type": "attraction", "wilaya_code": "05", "source": "OpenStreetMap", "osm_id": 5011334523, "id": 275, "lat": 35.2612429, "lng": 6.0414112}}, {"type": "Feature", "geometry": {"type": "Point", "coordinates": [6.1339291, 35.2775042]}, "properties": {"name": "Vers Nirdhi", "name_fr": "Vers Nirdhi", "type": "attraction", "wilaya_code": "05", "source": "OpenStreetMap", "osm_id": 5011313421, "id": 276, "lat": 35.2775042, "lng": 6.1339291}}, {"type": "Feature", "geometry": {"type": "Point", "coordinates": [6.3237579, 35.7109118]}, "properties": {"name": "مركز الفروسية", "type": "attraction", "wilaya_code": "05", "source": "OpenStreetMap", "osm_id": 8836703817, "id": 277, "lat": 35.7109118, "lng": 6.3237579}}, {"type": "Feature", "geometry": {"type": "Point", "coordinates": [6.4247, 35.6690885]}, "properties": {"name": "مسبح نصف أولمبي", "name_fr": "Picine semi olympique", "type": "attraction", "wilaya_code": "05", "source": "OpenStreetMap", "osm_id": 8911139217, "id": 278, "lat": 35.6690885, "lng": 6.4247}}, {"type": "Feature", "geometry": {"type": "Point", "coordinates": [4.9976884, 36.8255028]}, "properties": {"name": "Boulimat archipel", "name_ar": "أرخبيل بوليماط", "name_fr": "Boulimat archipel", "type": "attraction", "wilaya_code": "06", "source": "OpenStreetMap", "osm_id": 4756743122, "id": 279, "lat": 36.8255028, "lng": 4.9976884}}, {"type": "Feature", "geometry": {"type": "Point", "coordinates": [5.0936968, 36.7570685]}, "properties": {"name": "Brise de Mer", "name_ar": "نسيم البحر", "name_fr": "Brise de Mer", "type": "attraction", "wilaya_code": "06", "source": "OpenStreetMap", "osm_id": 7567370677, "id": 280, "lat": 36.7570685, "lng": 5.0936968}}, {"type": "Feature", "geometry": {"type": "Point", "coordinates": [5.1061589, 36.7601449]}, "properties": {"name": "Cap Bouak", "name_fr": "Cap Bouak", "type": "attraction", "wikipedia": "ar:رأس بواك", "wikidata": "Q15166115", "wilaya_code": "06", "source": "OpenStreetMap", "osm_id": 7566897776, "id": 281, "lat": 36.7601449, "lng": 5.1061589}}, {"type": "Feature", "geometry": {"type": "Point", "coordinates": [5.0838949, 36.7513238]}, "properties": {"name": "Casbah de Béjaïa", "name_ar": "قصبة بجاية", "name_fr": "Casbah de Béjaïa", "type": "attraction", "description": "Citadelle médiévale construite par les Almohades sur des bases hammadides, remaniée par les Espagnols et les Ottomans", "wikipedia": "fr:Casbah de Béjaïa", "wikidata": "Q21511925", "wilaya_code": "06", "source": "OpenStreetMap", "osm_id": 327666118, "id": 282, "lat": 36.7513238, "lng": 5.0838949}}, {"type": "Feature", "geometry": {"type": "Point", "coordinates": [5.2899922, 36.5706105]}, "properties": {"name": "Cascade de Kefrida", "name_ar": "شلال كفريدة", "type": "attraction", "wilaya_code": "06", "source": "OpenStreetMap", "osm_id": 3265284801, "id": 283, "lat": 36.5706105, "lng": 5.2899922}}, {"type": "Feature", "geometry": {"type": "Point", "coordinates": [5.2903756, 36.5698675]}, "properties": {"name": "Cascade de Kefrida", "name_ar": "شلال كفريدة", "type": "attraction", "wilaya_code": "06", "source": "OpenStreetMap", "osm_id": 6592071155, "id": 284, "lat": 36.5698675, "lng": 5.2903756}}, {"type": "Feature", "geometry": {"type": "Point", "coordinates": [5.0834379, 36.7570052]}, "properties": {"name": "Citernes Romaines", "name_ar": "الصهاريج الرومانية", "name_fr": "Citernes Romaines", "type": "attraction", "wilaya_code": "06", "source": "OpenStreetMap", "osm_id": 4085381690, "id": 285, "lat": 36.7570052, "lng": 5.0834379}}, {"type": "Feature", "geometry": {"type": "Point", "coordinates": [4.976998, 36.8160132]}, "properties": {"name": "Djerba 2", "name_ar": "جربة 2", "name_fr": "Djerba 2", "type": "attraction", "wilaya_code": "06", "source": "OpenStreetMap", "osm_id": 4756738423, "id": 286, "lat": 36.8160132, "lng": 4.976998}}, {"type": "Feature", "geometry": {"type": "Point", "coordinates": [4.9782676, 36.8155277]}, "properties": {"name": "Djerba1", "name_fr": "Djerba1", "type": "attraction", "wilaya_code": "06", "source": "OpenStreetMap", "osm_id": 4756688928, "id": 287, "lat": 36.8155277, "lng": 4.9782676}}, {"type": "Feature", "geometry": {"type": "Point", "coordinates": [4.9759781, 36.8156631]}, "properties": {"name": "Djerba3", "name_fr": "Djerba3", "type": "attraction", "wilaya_code": "06", "source": "OpenStreetMap", "osm_id": 4756688929, "id": 288, "lat": 36.8156631, "lng": 4.9759781}}, {"type": "Feature", "geometry": {"type": "Point", "coordinates": [4.530179, 36.4402323]}, "properties": {"name": "Guerrouahene Omar", "type": "attraction", "wilaya_code": "06", "source": "OpenStreetMap", "osm_id": 4236730789, "id": 289, "lat": 36.4402323, "lng": 4.530179}}, {"type": "Feature", "geometry": {"type": "Point", "coordinates": [5.4414228, 36.5862666]}, "properties": {"name": "Maison de jeunes", "name_ar": "Maison de jeunes", "type": "attraction", "wilaya_code": "06", "source": "OpenStreetMap", "osm_id": 4523153897, "id": 290, "lat": 36.5862666, "lng": 5.4414228}}, {"type": "Feature", "geometry": {"type": "Point", "coordinates": [5.0839331, 36.7514588]}, "properties": {"name": "Mosquée Ibn Khaldoun", "type": "attraction", "description": "Lieu où Ibn Khaldoun a enseigné au XIVe siècle", "wilaya_code": "06", "source": "OpenStreetMap", "osm_id": 523266318, "id": 291, "lat": 36.7514588, "lng": 5.0839331}}, {"type": "Feature", "geometry": {"type": "Point", "coordinates": [5.0853835, 36.7524983]}, "properties": {"name": "Place du 1er Novembre 1954", "name_ar": "ساحة 1 نوفمبر 1954", "name_fr": "Place du 1er Novembre 1954", "type": "attraction", "wilaya_code": "06", "source": "OpenStreetMap", "osm_id": 403333669, "id": 292, "lat": 36.7524983, "lng": 5.0853835}}, {"type": "Feature", "geometry": {"type": "Point", "coordinates": [4.9884502, 36.8183088]}, "properties": {"name": "Pointe Boulimat", "name_fr": "Pointe Boulimat", "type": "attraction", "wilaya_code": "06", "source": "OpenStreetMap", "osm_id": 7684059883, "id": 293, "lat": 36.8183088, "lng": 4.9884502}}, {"type": "Feature", "geometry": {"type": "Point", "coordinates": [5.0149141, 36.8069192]}, "properties": {"name": "Pointe Mezaïa", "name_fr": "Pointe Mezaïa", "type": "attraction", "wikidata": "Q23802554", "wilaya_code": "06", "source": "OpenStreetMap", "osm_id": 7684045096, "id": 294, "lat": 36.8069192, "lng": 5.0149141}}, {"type": "Feature", "geometry": {"type": "Point", "coordinates": [5.1072214, 36.7689743]}, "properties": {"name": "Pointe Noir", "name_ar": "النقطة السوداء", "name_fr": "Pointe Noir", "type": "attraction", "wikidata": "Q23800008", "wilaya_code": "06", "source": "OpenStreetMap", "osm_id": 7567028961, "id": 295, "lat": 36.7689743, "lng": 5.1072214}}, {"type": "Feature", "geometry": {"type": "Point", "coordinates": [5.0812591, 36.7549671]}, "properties": {"name": "Porte Fouka", "name_ar": "باب الفوقا", "name_fr": "Porte Fouka", "type": "attraction", "wilaya_code": "06", "source": "OpenStreetMap", "osm_id": 4105146508, "id": 296, "lat": 36.7549671, "lng": 5.0812591}}, {"type": "Feature", "geometry": {"type": "Point", "coordinates": [5.0874479, 36.7533417]}, "properties": {"name": "Porte dorée", "name_ar": "باب البحر", "name_fr": "Porte Sarasine", "type": "attraction", "wikipedia": "fr:Porte dorée (Béjaïa)", "wikidata": "Q16670750", "wilaya_code": "06", "source": "OpenStreetMap", "osm_id": 327665926, "id": 297, "lat": 36.7533417, "lng": 5.0874479}}, {"type": "Feature", "geometry": {"type": "Point", "coordinates": [4.7690837, 36.8944854]}, "properties": {"name": "Sigli", "name_fr": "Sigli", "type": "attraction", "wilaya_code": "06", "source": "OpenStreetMap", "osm_id": 4750740627, "id": 298, "lat": 36.8944854, "lng": 4.7690837}}, {"type": "Feature", "geometry": {"type": "Point", "coordinates": [4.7892563, 36.8930757]}, "properties": {"name": "Sigli 1", "name_fr": "Sigli 1", "type": "attraction", "wilaya_code": "06", "source": "OpenStreetMap", "osm_id": 4756688925, "id": 299, "lat": 36.8930757, "lng": 4.7892563}}, {"type": "Feature", "geometry": {"type": "Point", "coordinates": [4.7903261, 36.8939192]}, "properties": {"name": "Sigli 2", "name_fr": "Sigli 2", "type": "attraction", "wilaya_code": "06", "source": "OpenStreetMap", "osm_id": 4756688926, "id": 300, "lat": 36.8939192, "lng": 4.7903261}}, {"type": "Feature", "geometry": {"type": "Point", "coordinates": [4.7882158, 36.8938314]}, "properties": {"name": "Sigli3", "name_fr": "Sigli3", "type": "attraction", "wilaya_code": "06", "source": "OpenStreetMap", "osm_id": 4756743121, "id": 301, "lat": 36.8938314, "lng": 4.7882158}}, {"type": "Feature", "geometry": {"type": "Point", "coordinates": [4.7898238, 36.8939922]}, "properties": {"name": "Sigli4", "name_fr": "Sigli4", "type": "attraction", "wilaya_code": "06", "source": "OpenStreetMap", "osm_id": 4756688927, "id": 302, "lat": 36.8939922, "lng": 4.7898238}}, {"type": "Feature", "geometry": {"type": "Point", "coordinates": [4.7744472, 36.6079516]}, "properties": {"name": "Tala Iɣalimen", "type": "attraction", "wilaya_code": "06", "source": "OpenStreetMap", "osm_id": 12299600526, "id": 303, "lat": 36.6079516, "lng": 4.7744472}}, {"type": "Feature", "geometry": {"type": "Point", "coordinates": [5.0812886, 36.7707745]}, "properties": {"name": "Yemma Gouraya", "name_ar": "يما قورايا", "name_fr": "Yemma Gouraya", "type": "attraction", "wikipedia": "fr:Yemma Gouraya", "wikidata": "Q3572154", "wilaya_code": "06", "source": "OpenStreetMap", "osm_id": 309222600, "id": 304, "lat": 36.7707745, "lng": 5.0812886}}, {"type": "Feature", "geometry": {"type": "Point", "coordinates": [5.3874749, 34.7260698]}, "properties": {"name": "Embalage", "name_fr": "Embalage", "type": "attraction", "wilaya_code": "07", "source": "OpenStreetMap", "osm_id": 5472611822, "id": 305, "lat": 34.7260698, "lng": 5.3874749}}, {"type": "Feature", "geometry": {"type": "Point", "coordinates": [5.3810062, 34.7274331]}, "properties": {"name": "Place publique", "name_ar": "Place publique", "type": "attraction", "wilaya_code": "07", "source": "OpenStreetMap", "osm_id": 4767094222, "id": 306, "lat": 34.7274331, "lng": 5.3810062}}, {"type": "Feature", "geometry": {"type": "Point", "coordinates": [5.3952778, 34.7309262]}, "properties": {"name": "الحديقة الصغيرة", "name_ar": "الحديقة الصغيرة", "name_fr": "Petit jardin", "type": "attraction", "wilaya_code": "07", "source": "OpenStreetMap", "osm_id": 5951567485, "id": 307, "lat": 34.7309262, "lng": 5.3952778}}, {"type": "Feature", "geometry": {"type": "Point", "coordinates": [5.385284, 34.7298401]}, "properties": {"name": "ساحة عمومية", "name_ar": "ساحة عمومية", "name_fr": "Place publique", "type": "attraction", "wilaya_code": "07", "source": "OpenStreetMap", "osm_id": 4589843190, "id": 308, "lat": 34.7298401, "lng": 5.385284}}, {"type": "Feature", "geometry": {"type": "Point", "coordinates": [-2.0279653, 30.9209413]}, "properties": {"name": "Dunes de Taghit", "type": "attraction", "wilaya_code": "08", "source": "OpenStreetMap", "osm_id": 6875992089, "id": 309, "lat": 30.9209413, "lng": -2.0279653}}, {"type": "Feature", "geometry": {"type": "Point", "coordinates": [-5.0020334, 29.8519331]}, "properties": {"name": "برشمة بوست الجرف", "name_ar": "برشمة بوست الجرف", "name_fr": "Poste El Djorf", "type": "attraction", "wilaya_code": "08", "source": "OpenStreetMap", "osm_id": 5813095553, "id": 310, "lat": 29.8519331, "lng": -5.0020334}}, {"type": "Feature", "geometry": {"type": "Point", "coordinates": [-2.0294754, 30.9170611]}, "properties": {"name": "تاغيت ⵜⴰⵖⵉⵜ", "name_ar": "تاغيت", "name_fr": "Taghit", "type": "attraction", "wikipedia": "fr:Taghit", "wikidata": "Q3052604", "wilaya_code": "08", "source": "OpenStreetMap", "osm_id": 490536991, "id": 311, "lat": 30.9170611, "lng": -2.0294754}}, {"type": "Feature", "geometry": {"type": "Point", "coordinates": [-4.8991921, 29.829096]}, "properties": {"name": "روضا", "name_ar": "روضا", "name_fr": "Roda", "type": "attraction", "wilaya_code": "08", "source": "OpenStreetMap", "osm_id": 6956038885, "id": 312, "lat": 29.829096, "lng": -4.8991921}}, {"type": "Feature", "geometry": {"type": "Point", "coordinates": [-2.5658305, 31.1488447]}, "properties": {"name": "وار صفاية", "name_ar": "وار صفاية", "name_fr": "War Sfaya", "type": "attraction", "wilaya_code": "08", "source": "OpenStreetMap", "osm_id": 4577563491, "id": 313, "lat": 31.1488447, "lng": -2.5658305}}, {"type": "Feature", "geometry": {"type": "Point", "coordinates": [3.0449645, 36.4863006]}, "properties": {"name": "Acqua Park Zaim", "name_fr": "Acqua Park Zaim", "type": "attraction", "wilaya_code": "09", "source": "OpenStreetMap", "osm_id": 6217229985, "id": 314, "lat": 36.4863006, "lng": 3.0449645}}, {"type": "Feature", "geometry": {"type": "Point", "coordinates": [2.7564277, 36.4233804]}, "properties": {"name": "La Citadelle", "type": "attraction", "wilaya_code": "09", "source": "OpenStreetMap", "osm_id": 322690495, "id": 315, "lat": 36.4233804, "lng": 2.7564277}}, {"type": "Feature", "geometry": {"type": "Point", "coordinates": [2.8397784, 36.4466521]}, "properties": {"name": "Tombeau de Sidi Ahmed El Kebir", "name_ar": "ضريح سيدي أحمد الكبير", "name_fr": "Tombeau de Sidi Ahmed El Kebir", "type": "attraction", "wilaya_code": "09", "source": "OpenStreetMap", "osm_id": 3811530464, "id": 316, "lat": 36.4466521, "lng": 2.8397784}}, {"type": "Feature", "geometry": {"type": "Point", "coordinates": [3.3726118, 36.5553582]}, "properties": {"name": "Zima", "name_fr": "Zima", "type": "attraction", "wilaya_code": "10", "source": "OpenStreetMap", "osm_id": 7232525788, "id": 317, "lat": 36.5553582, "lng": 3.3726118}}, {"type": "Feature", "geometry": {"type": "Point", "coordinates": [3.9407316, 36.0314396]}, "properties": {"name": "الڨناطر", "name_ar": "الڨناطر", "name_fr": "Gnater", "type": "attraction", "wilaya_code": "10", "source": "OpenStreetMap", "osm_id": 4500810404, "id": 318, "lat": 36.0314396, "lng": 3.9407316}}, {"type": "Feature", "geometry": {"type": "Point", "coordinates": [5.7351206, 23.1509626]}, "properties": {"name": "Afilal", "name_ar": "افيلال", "type": "attraction", "wilaya_code": "11", "source": "OpenStreetMap", "osm_id": 8329606618, "id": 319, "lat": 23.1509626, "lng": 5.7351206}}, {"type": "Feature", "geometry": {"type": "Point", "coordinates": [5.5370121, 23.238191]}, "properties": {"name": "Cave", "name_fr": "Cave", "type": "attraction", "wilaya_code": "11", "source": "OpenStreetMap", "osm_id": 5190844923, "id": 320, "lat": 23.238191, "lng": 5.5370121}}, {"type": "Feature", "geometry": {"type": "Point", "coordinates": [6.4933813, 21.8245727]}, "properties": {"name": "El Ghessour", "type": "attraction", "wilaya_code": "11", "source": "OpenStreetMap", "osm_id": 316488456, "id": 321, "lat": 21.8245727, "lng": 6.4933813}}, {"type": "Feature", "geometry": {"type": "Point", "coordinates": [6.8695366, 21.8636074]}, "properties": {"name": "Felsgravuren im Wadi Tin Tarabine", "type": "attraction", "wilaya_code": "11", "source": "OpenStreetMap", "osm_id": 316491234, "id": 322, "lat": 21.8636074, "lng": 6.8695366}}, {"type": "Feature", "geometry": {"type": "Point", "coordinates": [5.5817299, 23.2518511]}, "properties": {"name": "Jonction avec le mont Tahat", "name_fr": "Jonction avec le mont Tahat", "type": "attraction", "wilaya_code": "11", "source": "OpenStreetMap", "osm_id": 5190869721, "id": 323, "lat": 23.2518511, "lng": 5.5817299}}, {"type": "Feature", "geometry": {"type": "Point", "coordinates": [5.7236439, 23.1581796]}, "properties": {"name": "Porte de jonction", "name_fr": "Porte de jonction", "type": "attraction", "wilaya_code": "11", "source": "OpenStreetMap", "osm_id": 5190844922, "id": 324, "lat": 23.1581796, "lng": 5.7236439}}, {"type": "Feature", "geometry": {"type": "Point", "coordinates": [6.4591712, 21.5804644]}, "properties": {"name": "Tagrera", "type": "attraction", "wilaya_code": "11", "source": "OpenStreetMap", "osm_id": 316488458, "id": 325, "lat": 21.5804644, "lng": 6.4591712}},