{"type": "FeatureCollection", "features": [{"type": "Feature", "geometry": {"type": "Point", "coordinates": [0.0192765, 26.4062703]}, "properties": {"name": "Ancienne piste d'aviation", "type": "aircraft", "wilaya_code": "01", "source": "OpenStreetMap", "osm_id": 4318916905, "id": 1}}, {"type": "Feature", "geometry": {"type": "Point", "coordinates": [-0.189249, 27.218676]}, "properties": {"name": "قصر كتاب", "name_ar": "قصر كتاب", "name_fr": "Ksar Kteb", "type": "archaeological_site", "wilaya_code": "01", "source": "OpenStreetMap", "osm_id": 332254300, "id": 2}}, {"type": "Feature", "geometry": {"type": "Point", "coordinates": [0.8528333, 36.3310278]}, "properties": {"name": "Arsenaria", "name_fr": "Arsenaria", "type": "archaeological_site", "wikidata": "Q125375915", "wilaya_code": "02", "source": "Wikidata", "id": 3}}, {"type": "Feature", "geometry": {"type": "Point", "coordinates": [1.2494142, 36.4713574]}, "properties": {"name": "Former French Army military camp المعسكر العسكري السابق للجيش الفرنسي", "name_ar": "المعسكر العسكري السابق للجيش الفرنسي", "type": "archaeological_site", "wilaya_code": "02", "source": "OpenStreetMap", "osm_id": 339657931, "id": 4}}, {"type": "Feature", "geometry": {"type": "Point", "coordinates": [1.2838242, 36.4853829]}, "properties": {"name": "French Army observation post مركز مراقبة للجيش الفرنسي", "name_ar": "مركز مراقبة للجيش الفرنسي", "type": "archaeological_site", "wilaya_code": "02", "source": "OpenStreetMap", "osm_id": 1495651530, "id": 5}}, {"type": "Feature", "geometry": {"type": "Point", "coordinates": [1.2778745, 36.4852148]}, "properties": {"name": "French Army observation post مركز مراقبة للجيش الفرنسي", "name_ar": "مركز مراقبة للجيش الفرنسي", "type": "archaeological_site", "wilaya_code": "02", "source": "OpenStreetMap", "osm_id": 1495651534, "id": 6}}, {"type": "Feature", "geometry": {"type": "Point", "coordinates": [1.2761913, 36.4863444]}, "properties": {"name": "The Dome el goba القبة", "name_ar": "القبة", "type": "archaeological_site", "wilaya_code": "02", "source": "OpenStreetMap", "osm_id": 1495651535, "id": 7}}, {"type": "Feature", "geometry": {"type": "Point", "coordinates": [6.2598365, 35.4892143]}, "properties": {"name": "Amphithéâtre المدرج", "name_ar": "المدرج", "name_fr": "Amphithéâtre", "type": "archaeological_site", "wikidata": "Q28969516", "wilaya_code": "05", "source": "OpenStreetMap", "osm_id": 266444698, "id": 8}}, {"type": "Feature", "geometry": {"type": "Point", "coordinates": [6.4671671, 35.4850379]}, "properties": {"name": "Arc de Trajan", "type": "archaeological_site", "wilaya_code": "05", "source": "OpenStreetMap", "osm_id": 5434161242, "id": 9}}, {"type": "Feature", "geometry": {"type": "Point", "coordinates": [6.46852, 35.479736]}, "properties": {"name": "Byzantine Fort in Timgad", "name_ar": "القلعة البيزنطية في تيمقاد", "name_fr": "Fort byzantin de Timgad", "type": "archaeological_site", "heritage_status": "part of UNESCO World Heritage Site", "wikidata": "Q87745203", "wilaya_code": "05", "source": "Wikidata", "id": 10}}, {"type": "Feature", "geometry": {"type": "Point", "coordinates": [6.4666444, 35.4834949]}, "properties": {"name": "Capitolium", "name_fr": "Capitole", "type": "archaeological_site", "wikidata": "Q108449034", "wilaya_code": "05", "source": "OpenStreetMap", "osm_id": 5434295573, "id": 11}}, {"type": "Feature", "geometry": {"type": "Point", "coordinates": [6.2700657, 35.4798512]}, "properties": {"name": "Chasseurs baths", "type": "archaeological_site", "wilaya_code": "05", "source": "OpenStreetMap", "osm_id": 1261252372, "id": 12}}, {"type": "Feature", "geometry": {"type": "Point", "coordinates": [6.4696197, 35.485103]}, "properties": {"name": "Eastern Market of Timgad", "name_ar": "سوق تيمقاد الشرقي", "name_fr": "Marché de l'Est", "type": "archaeological_site", "heritage_status": "part of UNESCO World Heritage Site", "wikidata": "Q108449547", "wilaya_code": "05", "source": "Wikidata", "id": 13}}, {"type": "Feature", "geometry": {"type": "Point", "coordinates": [6.4680411, 35.4794837]}, "properties": {"name": "Fort Byzantin", "type": "archaeological_site", "wilaya_code": "05", "source": "OpenStreetMap", "osm_id": 11680106, "id": 14}}, {"type": "Feature", "geometry": {"type": "Point", "coordinates": [6.4688325, 35.4848096]}, "properties": {"name": "Forum", "type": "archaeological_site", "wilaya_code": "05", "source": "OpenStreetMap", "osm_id": 7948650860, "id": 15}}, {"type": "Feature", "geometry": {"type": "Point", "coordinates": [6.2694314, 35.4785866]}, "properties": {"name": "Forum", "type": "archaeological_site", "wilaya_code": "05", "source": "OpenStreetMap", "osm_id": 1261252370, "id": 16}}, {"type": "Feature", "geometry": {"type": "Point", "coordinates": [6.468737, 35.485052]}, "properties": {"name": "Forum of Timgad", "name_ar": "فوروم تيمقاد", "name_fr": "Forum de Timgad", "type": "archaeological_site", "heritage_status": "part of UNESCO World Heritage Site", "wikidata": "Q87745332", "wilaya_code": "05", "source": "Wikidata", "id": 17}}, {"type": "Feature", "geometry": {"type": "Point", "coordinates": [6.16725, 35.049153]}, "properties": {"name": "Ghoufi", "name_ar": "غوفي", "name_fr": "Canyon du Ghoufi", "type": "archaeological_site", "wikidata": "Q960102", "wilaya_code": "05", "source": "Wikidata", "id": 18}}, {"type": "Feature", "geometry": {"type": "Point", "coordinates": [6.468364, 35.4830416]}, "properties": {"name": "Grand Thermes du sud", "type": "archaeological_site", "wilaya_code": "05", "source": "OpenStreetMap", "osm_id": 1104422614, "id": 19}}, {"type": "Feature", "geometry": {"type": "Point", "coordinates": [6.46773, 35.48744]}, "properties": {"name": "Grand north baths of Timgad", "type": "archaeological_site", "wikidata": "Q94995286", "wilaya_code": "05", "source": "Wikidata", "id": 20}}, {"type": "Feature", "geometry": {"type": "Point", "coordinates": [6.4677386, 35.4873892]}, "properties": {"name": "Great North Baths", "name_fr": "Grands Thermes du Nord", "type": "archaeological_site", "wilaya_code": "05", "source": "OpenStreetMap", "osm_id": 911542227, "id": 21}}, {"type": "Feature", "geometry": {"type": "Point", "coordinates": [6.25987, 35.48928]}, "properties": {"name": "Lambaesis", "type": "archaeological_site", "wikidata": "Q23846130", "wilaya_code": "05", "source": "Wikidata", "id": 22}}, {"type": "Feature", "geometry": {"type": "Point", "coordinates": [6.2544112, 35.4893542]}, "properties": {"name": "Lambaesis آثار رومانية تازولت", "name_ar": "آثار رومانية تازولت", "type": "archaeological_site", "wikipedia": "ar:لامبايزيس", "wikidata": "Q1309744", "wilaya_code": "05", "source": "OpenStreetMap", "osm_id": 266446235, "id": 23}}, {"type": "Feature", "geometry": {"type": "Point", "coordinates": [6.4667722, 35.4846177]}, "properties": {"name": "Market of Sertius", "name_fr": "Marchè de Sertius", "type": "archaeological_site", "wilaya_code": "05", "source": "OpenStreetMap", "osm_id": 5433752626, "id": 24}}, {"type": "Feature", "geometry": {"type": "Point", "coordinates": [6.4666667, 35.4847222]}, "properties": {"name": "Market of Sertius", "name_ar": "سوق سيرتيوس", "name_fr": "Marché de Sertius", "type": "archaeological_site", "heritage_status": "part of UNESCO World Heritage Site", "wikidata": "Q140070128", "wilaya_code": "05", "source": "Wikidata", "id": 25}}, {"type": "Feature", "geometry": {"type": "Point", "coordinates": [6.4346439, 35.7070701]}, "properties": {"name": "Medracen", "name_ar": "إيمدغاسن", "type": "archaeological_site", "wikipedia": "fr:Medracen", "wikidata": "Q1538575", "wilaya_code": "05", "source": "OpenStreetMap", "osm_id": 266446803, "id": 26}}, {"type": "Feature", "geometry": {"type": "Point", "coordinates": [6.4348192, 35.707267]}, "properties": {"name": "Medracen", "type": "archaeological_site", "wilaya_code": "05", "source": "OpenStreetMap", "osm_id": 266446815, "id": 27}}, {"type": "Feature", "geometry": {"type": "Point", "coordinates": [6.468836, 35.4865595]}, "properties": {"name": "Pequeña Terma norte", "type": "archaeological_site", "wilaya_code": "05", "source": "OpenStreetMap", "osm_id": 1104422262, "id": 28}}, {"type": "Feature", "geometry": {"type": "Point", "coordinates": [6.2718491, 35.4795662]}, "properties": {"name": "Roman arch", "type": "archaeological_site", "wilaya_code": "05", "source": "OpenStreetMap", "osm_id": 1261247163, "id": 29}}, {"type": "Feature", "geometry": {"type": "Point", "coordinates": [6.4670134, 35.4837052]}, "properties": {"name": "Ruines Romaines de Timgad", "name_ar": "الآثار الرومانية تيمقاد", "name_fr": "Ruines Romaines de Timgad", "type": "archaeological_site", "heritage": "1", "wikipedia": "fr:Timgad", "wikidata": "Q459629", "wilaya_code": "05", "source": "OpenStreetMap", "osm_id": 331768105, "id": 30}}, {"type": "Feature", "geometry": {"type": "Point", "coordinates": [6.0746127, 35.7797772]}, "properties": {"name": "Ruines romaines de Diana Veteranorum", "type": "archaeological_site", "wikipedia": "en:Diana Veteranorum", "wikidata": "Q1573776", "wilaya_code": "05", "source": "OpenStreetMap", "osm_id": 188544755, "id": 31}}, {"type": "Feature", "geometry": {"type": "Point", "coordinates": [6.1715447, 35.0553308]}, "properties": {"name": "Ruins of an ancient village", "type": "archaeological_site", "wilaya_code": "05", "source": "OpenStreetMap", "osm_id": 13760817401, "id": 32}}, {"type": "Feature", "geometry": {"type": "Point", "coordinates": [6.4703077, 35.4855246]}, "properties": {"name": "Terma este", "type": "archaeological_site", "wilaya_code": "05", "source": "OpenStreetMap", "osm_id": 1104422391, "id": 33}}, {"type": "Feature", "geometry": {"type": "Point", "coordinates": [6.4688551, 35.4841709]}, "properties": {"name": "Theatre", "name_fr": "Téâtre", "type": "archaeological_site", "wikidata": "Q19717113", "wilaya_code": "05", "source": "OpenStreetMap", "osm_id": 7948637499, "id": 34}}, {"type": "Feature", "geometry": {"type": "Point", "coordinates": [6.2586398, 35.4912551]}, "properties": {"name": "Triumphal Arch of Lambaesis", "type": "archaeological_site", "wilaya_code": "05", "source": "OpenStreetMap", "osm_id": 1261226926, "id": 35}}, {"type": "Feature", "geometry": {"type": "Point", "coordinates": [6.4639555, 35.4864562]}, "properties": {"name": "Triumphal arch", "name_fr": "Porte du Faubourg Ouest", "type": "archaeological_site", "wilaya_code": "05", "source": "OpenStreetMap", "osm_id": 5434165275, "id": 36}}, {"type": "Feature", "geometry": {"type": "Point", "coordinates": [6.2700386, 35.4787194]}, "properties": {"name": "temple", "type": "archaeological_site", "wilaya_code": "05", "source": "OpenStreetMap", "osm_id": 1261252371, "id": 37}}, {"type": "Feature", "geometry": {"type": "Point", "coordinates": [5.246097, 36.636739]}, "properties": {"name": "Muslubium", "name_fr": "Muslubium", "type": "archaeological_site", "wikidata": "Q134438303", "wilaya_code": "06", "source": "Wikidata", "id": 38}}, {"type": "Feature", "geometry": {"type": "Point", "coordinates": [5.066667, 36.75]}, "properties": {"name": "Saldae", "name_ar": "صالداي", "name_fr": "Saldae", "type": "archaeological_site", "wikidata": "Q1557873", "wilaya_code": "06", "source": "Wikidata", "id": 39}}, {"type": "Feature", "geometry": {"type": "Point", "coordinates": [4.8384377, 36.6557824]}, "properties": {"name": "Tiklat", "name_ar": "تخلاث", "type": "archaeological_site", "wikipedia": "fr:Tubusuptu", "wikidata": "Q3541821", "wilaya_code": "06", "source": "OpenStreetMap", "osm_id": 4592906446, "id": 40}}, {"type": "Feature", "geometry": {"type": "Point", "coordinates": [5.5228759, 34.6365778]}, "properties": {"name": "Gemellae", "type": "archaeological_site", "wikipedia": "en:Gemellae", "wikidata": "Q3759336", "wilaya_code": "07", "source": "OpenStreetMap", "osm_id": 265150071, "id": 41}}, {"type": "Feature", "geometry": {"type": "Point", "coordinates": [5.4720345, 34.6524]}, "properties": {"name": "سيدي قاسم", "type": "archaeological_site", "wilaya_code": "07", "source": "OpenStreetMap", "osm_id": 950160742, "id": 42}}, {"type": "Feature", "geometry": {"type": "Point", "coordinates": [-2.0569638, 30.8033876]}, "properties": {"name": "Gravures rupestre", "type": "archaeological_site", "wilaya_code": "08", "source": "OpenStreetMap", "osm_id": 393869213, "id": 43}}, {"type": "Feature", "geometry": {"type": "Point", "coordinates": [6.7393974, 24.6662077]}, "properties": {"name": "Important Archeological Site", "type": "archaeological_site", "wilaya_code": "11", "source": "OpenStreetMap", "osm_id": 827672870, "id": 44}}, {"type": "Feature", "geometry": {"type": "Point", "coordinates": [8.1269163, 35.4091033]}, "properties": {"name": "Tebessa Basilica", "name_fr": "basilique Sainte-Crispine", "type": "archaeological_site", "wikidata": "Q60746446", "wilaya_code": "12", "source": "Wikidata", "id": 45}}, {"type": "Feature", "geometry": {"type": "Point", "coordinates": [8.1166667, 35.4]}, "properties": {"name": "Theveste", "name_ar": "تيفست", "name_fr": "Theveste", "type": "archaeological_site", "wikidata": "Q12220954", "wilaya_code": "12", "source": "Wikidata", "id": 46}}, {"type": "Feature", "geometry": {"type": "Point", "coordinates": [8.1269042, 35.4091898]}, "properties": {"name": "كاتدرائية تبسة", "name_ar": "كاتدرائية تبسة", "name_fr": "Basilique de Theveste", "type": "archaeological_site", "wilaya_code": "12", "source": "OpenStreetMap", "osm_id": 209282323, "id": 47}}, {"type": "Feature", "geometry": {"type": "Point", "coordinates": [8.1224865, 35.4046516]}, "properties": {"name": "معبد منيرفا", "name_ar": "معبد منيرفا", "name_fr": "Temple de Minerve", "type": "archaeological_site", "wilaya_code": "12", "source": "OpenStreetMap", "osm_id": 262617548, "id": 48}}, {"type": "Feature", "geometry": {"type": "Point", "coordinates": [-1.0247778, 34.8863889]}, "properties": {"name": "Altava", "name_ar": "ألطافا", "name_fr": "Altava", "type": "archaeological_site", "wikidata": "Q434703", "wilaya_code": "13", "source": "Wikidata", "id": 49}}, {"type": "Feature", "geometry": {"type": "Point", "coordinates": [-1.3024715, 34.8902299]}, "properties": {"name": "Bab Rouah باب الرواح ⴱⴰⴱ ⵔⵡⴰⵃ", "name_ar": "باب الرواح", "name_fr": "Bab Rouah", "type": "archaeological_site", "wilaya_code": "13", "source": "OpenStreetMap", "osm_id": 5054964414, "id": 50}}, {"type": "Feature", "geometry": {"type": "Point", "coordinates": [-1.2830427, 34.8754274]}, "properties": {"name": "Mausolée de Sidi Abdellah lbaal", "name_ar": "ضريح سيد عبد الله البعل", "name_fr": "Mausolée de Sidi Abdellah lbaal", "type": "archaeological_site", "wilaya_code": "13", "source": "OpenStreetMap", "osm_id": 5054976164, "id": 51}}, {"type": "Feature", "geometry": {"type": "Point", "coordinates": [-1.3001143, 34.8894378]}, "properties": {"name": "Minaret d'Agadir صومعة أكادير ⵜⴰⴳⵔⵎⴰⵙ ⵏ ⴰⴳⴰⴷⵉⵔ", "name_ar": "صومعة أكادير", "name_fr": "Minaret d'Agadir", "type": "archaeological_site", "wilaya_code": "13", "source": "OpenStreetMap", "osm_id": 5047155902, "id": 52}}, {"type": "Feature", "geometry": {"type": "Point", "coordinates": [-1.2995943, 34.8894519]}, "properties": {"name": "Ruines de Hammam Ghoula أثار حمام الغولة ⴰⵙⴻⴷⵍⵉ ⵃⴰⵎⴰⵎ ⵖⵓⵍⴰ", "name_ar": "أثار حمام الغولة", "name_fr": "Ruines de Hammam Ghoula", "type": "archaeological_site", "wilaya_code": "13", "source": "OpenStreetMap", "osm_id": 5047073073, "id": 53}}, {"type": "Feature", "geometry": {"type": "Point", "coordinates": [-1.3385844, 34.8708131]}, "properties": {"name": "Ruines de la mosquée de Mansourah -ⴰⵙⴻⴷⵍⵉ ⵏ ⵜⴰⵎⵣⴳⵉⴷⴰ ⵏ ⵎⴰⵏⵚⵓⵕⴰ", "name_ar": "أثار مسجد المنصورة", "name_fr": "Ruines de la mosquée de Mansourah", "type": "archaeological_site", "wikipedia": "en:Mansourah Mosque", "wikidata": "Q12242783", "wilaya_code": "13", "source": "OpenStreetMap", "osm_id": 90639349, "id": 54}}, {"type": "Feature", "geometry": {"type": "Point", "coordinates": [-1.2989941, 34.8904295]}, "properties": {"name": "Tour de Ghemiss برج غميس ⴰⵙⵉⵔⵓ ⵏ ⴰⵖⵎⵉⵙ", "name_ar": "برج غميس", "name_fr": "Tour de Ghemiss", "type": "archaeological_site", "wilaya_code": "13", "source": "OpenStreetMap", "osm_id": 5043960145, "id": 55}}, {"type": "Feature", "geometry": {"type": "Point", "coordinates": [-1.3000779, 34.8891696]}, "properties": {"name": "ancienne mosquée Idriside d'Agadir المسجد الإدريسي العتيق لأكادير ⵜⴰⵎⵣⴳⵉⴷⴰ ⵜⵉⴷⵔⵉⵙⵉⵜ ⵜⴰⵇⴱⵓⵔⵜ ⵏ ⴰⴳⴰⴷⵉⵔ", "name_ar": "المسجد الإدريسي العتيق لأكادير", "name_fr": "ancienne mosquée Idriside d'Agadir", "type": "archaeological_site", "wilaya_code": "13", "source": "OpenStreetMap", "osm_id": 517804092, "id": 56}}, {"type": "Feature", "geometry": {"type": "Point", "coordinates": [-1.2995676, 34.889569]}, "properties": {"name": "أثار حمام الغولة", "name_ar": "أثار حمام الغولة", "name_fr": "Ruines de Hammam Ghoula", "type": "archaeological_site", "wilaya_code": "13", "source": "OpenStreetMap", "osm_id": 517115321, "id": 57}}, {"type": "Feature", "geometry": {"type": "Point", "coordinates": [1.5283408, 35.4585262]}, "properties": {"name": "Columnata", "type": "archaeological_site", "wilaya_code": "14", "source": "OpenStreetMap", "osm_id": 4788656623, "id": 58}}, {"type": "Feature", "geometry": {"type": "Point", "coordinates": [1.2126857, 35.1130363]}, "properties": {"name": "Pyramide de Lejdar", "type": "archaeological_site", "wikipedia": "fr:Djeddar", "wikidata": "Q3032861", "wilaya_code": "14", "source": "OpenStreetMap", "osm_id": 929762754, "id": 59}}, {"type": "Feature", "geometry": {"type": "Point", "coordinates": [1.2071493, 35.1097182]}, "properties": {"name": "Pyramide de Lejdar", "type": "archaeological_site", "wilaya_code": "14", "source": "OpenStreetMap", "osm_id": 3503394424, "id": 60}}, {"type": "Feature", "geometry": {"type": "Point", "coordinates": [1.4711601, 35.4506556]}, "properties": {"name": "Sidi Boubakeur", "type": "archaeological_site", "wilaya_code": "14", "source": "OpenStreetMap", "osm_id": 4792258886, "id": 61}}, {"type": "Feature", "geometry": {"type": "Point", "coordinates": [4.424161, 36.677114]}, "properties": {"name": "Abri sous roche Ifri N’Dellal", "name_fr": "Abri sous roche Ifri N’Dellal", "type": "archaeological_site", "wikidata": "Q129760370", "wilaya_code": "15", "source": "Wikidata", "id": 62}}, {"type": "Feature", "geometry": {"type": "Point", "coordinates": [4.156127, 36.8975716]}, "properties": {"name": "Semaa", "type": "archaeological_site", "wilaya_code": "15", "source": "OpenStreetMap", "osm_id": 2277162245, "id": 63}}, {"type": "Feature", "geometry": {"type": "Point", "coordinates": [4.170465, 36.902724]}, "properties": {"name": "Tisira Amara", "type": "archaeological_site", "wilaya_code": "15", "source": "OpenStreetMap", "osm_id": 2277878324, "id": 64}}, {"type": "Feature", "geometry": {"type": "Point", "coordinates": [3.6978978, 36.7132877]}, "properties": {"name": "Dra Zeg et Ter", "type": "archaeological_site", "wilaya_code": "16", "source": "OpenStreetMap", "osm_id": 1410759469, "id": 65}}, {"type": "Feature", "geometry": {"type": "Point", "coordinates": [3.237893, 36.799094]}, "properties": {"name": "Rusguniae", "name_fr": "Rusguniae", "type": "archaeological_site", "heritage_status": "Cultural heritage monuments in Algeria", "wikidata": "Q125421752", "wilaya_code": "16", "source": "Wikidata", "id": 66}}, {"type": "Feature", "geometry": {"type": "Point", "coordinates": [3.0623352, 36.7851413]}, "properties": {"name": "الموقع الأثري لبقايا مسجد السيدة", "name_ar": "الموقع الأثري لبقايا مسجد السيدة", "name_fr": "Le site archéologique des vestiges de la \"Mosquée El Sayyida\"", "type": "archaeological_site", "wilaya_code": "16", "source": "OpenStreetMap", "osm_id": 12133859819, "id": 67}}, {"type": "Feature", "geometry": {"type": "Point", "coordinates": [3.0617809, 36.7847679]}, "properties": {"name": "مدينة الجزائر العتيقة \"إيكوسيم\"", "name_ar": "مدينة الجزائر العتيقة \"إيكوسيم\"", "type": "archaeological_site", "wilaya_code": "16", "source": "OpenStreetMap", "osm_id": 1291554593, "id": 68}}, {"type": "Feature", "geometry": {"type": "Point", "coordinates": [5.7664444, 36.8220833]}, "properties": {"name": "Igilgili", "name_ar": "إيجلجيلي", "name_fr": "Igilgili", "type": "archaeological_site", "wikidata": "Q1657150", "wilaya_code": "18", "source": "Wikidata", "id": 69}}, {"type": "Feature", "geometry": {"type": "Point", "coordinates": [5.650278, 36.200833]}, "properties": {"name": "Ain Boucherit", "name_ar": "عين بوشريط", "name_fr": "Aïn Boucherit", "type": "archaeological_site", "wikidata": "Q60851742", "wilaya_code": "19", "source": "Wikidata", "id": 70}}, {"type": "Feature", "geometry": {"type": "Point", "coordinates": [5.6527778, 36.2038889]}, "properties": {"name": "Ain El Ahnech", "name_ar": "عين لحنش", "name_fr": "Aïn El Ahnech", "type": "archaeological_site", "wikidata": "Q2876290", "wilaya_code": "19", "source": "Wikidata", "id": 71}}, {"type": "Feature", "geometry": {"type": "Point", "coordinates": [5.7354314, 36.3208997]}, "properties": {"name": "Djémila", "name_ar": "جميلة", "name_fr": "Djemila", "type": "archaeological_site", "heritage": "1", "wikipedia": "fr:Djemila", "wikidata": "Q457362", "wilaya_code": "19", "source": "OpenStreetMap", "osm_id": 257564804, "id": 72}}, {"type": "Feature", "geometry": {"type": "Point", "coordinates": [5.736305, 36.3185249]}, "properties": {"name": "Garden of the Small Baths at Cuicul", "type": "archaeological_site", "wilaya_code": "19", "source": "OpenStreetMap", "osm_id": 13355786467, "id": 73}}, {"type": "Feature", "geometry": {"type": "Point", "coordinates": [5.6566571, 36.4702118]}, "properties": {"name": "Ikjan", "type": "archaeological_site", "wilaya_code": "19", "source": "OpenStreetMap", "osm_id": 1487735429, "id": 74}}, {"type": "Feature", "geometry": {"type": "Point", "coordinates": [5.4043067, 36.1920685]}, "properties": {"name": "Ruines romaines; الآثار الرومانية", "name_ar": "الآثار الرومانية", "name_fr": "Ruines romaines", "type": "archaeological_site", "wilaya_code": "19", "source": "OpenStreetMap", "osm_id": 51826611, "id": 75}}, {"type": "Feature", "geometry": {"type": "Point", "coordinates": [7.7467203, 36.8814029]}, "properties": {"name": "Annaba Theater", "type": "archaeological_site", "wilaya_code": "23", "source": "OpenStreetMap", "osm_id": 2947767583, "id": 76}}, {"type": "Feature", "geometry": {"type": "Point", "coordinates": [7.7481336, 36.8815553]}, "properties": {"name": "Forum of Hippo Regius", "type": "archaeological_site", "wilaya_code": "23", "source": "OpenStreetMap", "osm_id": 1386288786, "id": 77}}, {"type": "Feature", "geometry": {"type": "Point", "coordinates": [7.7508834, 36.8830521]}, "properties": {"name": "Great Church of Hippo Regius", "type": "archaeological_site", "wilaya_code": "23", "source": "OpenStreetMap", "osm_id": 1386288785, "id": 78}}, {"type": "Feature", "geometry": {"type": "Point", "coordinates": [7.765657, 36.906619]}, "properties": {"name": "Hafsid Castle", "name_ar": "القلعة الحفصية", "type": "archaeological_site", "wikidata": "Q101095903", "wilaya_code": "23", "source": "Wikidata", "id": 79}}, {"type": "Feature", "geometry": {"type": "Point", "coordinates": [7.755129, 36.883651]}, "properties": {"name": "Hippo Regius", "name_ar": "هيبون", "name_fr": "Hippone", "type": "archaeological_site", "wikidata": "Q858024", "wilaya_code": "23", "source": "Wikidata", "id": 80}}, {"type": "Feature", "geometry": {"type": "Point", "coordinates": [7.7501711, 36.8847524]}, "properties": {"name": "Hippo Regius, Thermae", "type": "archaeological_site", "wilaya_code": "23", "source": "OpenStreetMap", "osm_id": 1386285330, "id": 81}}, {"type": "Feature", "geometry": {"type": "Point", "coordinates": [7.7497019, 36.8827361]}, "properties": {"name": "Macellum of Hippo Regius", "type": "archaeological_site", "wilaya_code": "23", "source": "OpenStreetMap", "osm_id": 1386288788, "id": 82}}, {"type": "Feature", "geometry": {"type": "Point", "coordinates": [7.7501362, 36.8824366]}, "properties": {"name": "Site archéologique d’Hippone (Annaba)", "type": "archaeological_site", "wilaya_code": "23", "source": "OpenStreetMap", "osm_id": 341070034, "id": 83}}, {"type": "Feature", "geometry": {"type": "Point", "coordinates": [7.7509349, 36.8807164]}, "properties": {"name": "Southern Baths", "type": "archaeological_site", "wilaya_code": "23", "source": "OpenStreetMap", "osm_id": 12834593661, "id": 84}}, {"type": "Feature", "geometry": {"type": "Point", "coordinates": [7.7492491, 36.8808439]}, "properties": {"name": "Villa of Procurator", "type": "archaeological_site", "wilaya_code": "23", "source": "OpenStreetMap", "osm_id": 12834593660, "id": 85}}, {"type": "Feature", "geometry": {"type": "Point", "coordinates": [7.087929, 36.4126397]}, "properties": {"name": "Roman fort", "type": "archaeological_site", "wilaya_code": "24", "source": "OpenStreetMap", "osm_id": 1228354863, "id": 86}}, {"type": "Feature", "geometry": {"type": "Point", "coordinates": [7.25, 36.3833333]}, "properties": {"name": "Thibilis", "name_ar": "تبيليس", "name_fr": "Thibilis", "type": "archaeological_site", "wikidata": "Q2420610", "wilaya_code": "24", "source": "Wikidata", "id": 87}}, {"type": "Feature", "geometry": {"type": "Point", "coordinates": [7.4301906, 36.4672154]}, "properties": {"name": "Théatre Romain", "type": "archaeological_site", "wikipedia": "it:Teatro romano di Guelma", "wikidata": "Q101116126", "wilaya_code": "24", "source": "OpenStreetMap", "osm_id": 356635599, "id": 88}}, {"type": "Feature", "geometry": {"type": "Point", "coordinates": [7.23333, 36.55]}, "properties": {"name": "vestiges de Roknia", "name_fr": "vestiges de Roknia", "type": "archaeological_site", "wikidata": "Q3556388", "wilaya_code": "24", "source": "Wikidata", "id": 89}}, {"type": "Feature", "geometry": {"type": "Point", "coordinates": [6.613303, 36.368115]}, "properties": {"name": "Cirta", "name_ar": "سيرتا", "name_fr": "Cirta", "type": "archaeological_site", "wikidata": "Q1093156", "wilaya_code": "25", "source": "Wikidata", "id": 90}}, {"type": "Feature", "geometry": {"type": "Point", "coordinates": [3.4333306, 36.1333306]}, "properties": {"name": "Rapidum", "name_ar": "رابيدوم", "name_fr": "Rapidum", "type": "archaeological_site", "wikidata": "Q109626723", "wilaya_code": "26", "source": "Wikidata", "id": 91}}, {"type": "Feature", "geometry": {"type": "Point", "coordinates": [0.2416, 36.0299]}, "properties": {"name": "Quiza Cenitana", "name_ar": "كويزا كسينيتانا", "name_fr": "Quiza Xenitana", "type": "archaeological_site", "wikidata": "Q7272713", "wilaya_code": "27", "source": "Wikidata", "id": 92}}, {"type": "Feature", "geometry": {"type": "Point", "coordinates": [4.7989179, 35.8232749]}, "properties": {"name": "Chateau du Phare", "name_fr": "قصر المنار", "type": "archaeological_site", "wilaya_code": "28", "source": "OpenStreetMap", "osm_id": 1379249581, "id": 93}}, {"type": "Feature", "geometry": {"type": "Point", "coordinates": [4.7985614, 35.823669]}, "properties": {"name": "Mosquée de l'Emir", "name_ar": "مسجد الامير", "type": "archaeological_site", "wilaya_code": "28", "source": "OpenStreetMap", "osm_id": 1379249582, "id": 94}}, {"type": "Feature", "geometry": {"type": "Point", "coordinates": [4.7942963, 35.8224833]}, "properties": {"name": "Qalaa Beni Hammad", "name_ar": "قلعة بني حماد", "type": "archaeological_site", "wilaya_code": "28", "source": "OpenStreetMap", "osm_id": 1379249575, "id": 95}}, {"type": "Feature", "geometry": {"type": "Point", "coordinates": [0.3213889, 35.4152778]}, "properties": {"name": "Tighennif", "name_ar": "تغنيف", "name_fr": "Tighennif", "type": "archaeological_site", "wikidata": "Q7801608", "wilaya_code": "29", "source": "Wikidata", "id": 96}}, {"type": "Feature", "geometry": {"type": "Point", "coordinates": [-0.2592493, 35.8049927]}, "properties": {"name": "Portus Magnus", "type": "archaeological_site", "wilaya_code": "31", "source": "OpenStreetMap", "osm_id": 9233991201, "id": 97}}, {"type": "Feature", "geometry": {"type": "Point", "coordinates": [-0.260028, 35.804714]}, "properties": {"name": "Portus Magnus, Algeria", "name_ar": "بورتيس ماغنيس", "name_fr": "Portus Magnus (Algérie)", "type": "archaeological_site", "wikidata": "Q11934573", "wilaya_code": "31", "source": "Wikidata", "id": 98}}, {"type": "Feature", "geometry": {"type": "Point", "coordinates": [9.0, 25.6666667]}, "properties": {"name": "Tassili n'Ajjer", "name_ar": "طاسيلي ناجر", "name_fr": "Tassili n'Ajjer", "type": "archaeological_site", "heritage_status": "World Heritage Site", "wikidata": "Q190048", "wilaya_code": "33", "source": "Wikidata", "id": 99}}, {"type": "Feature", "geometry": {"type": "Point", "coordinates": [3.550191, 36.7014594]}, "properties": {"name": "Benian ntaa Soumâa Citadel", "type": "archaeological_site", "wilaya_code": "35", "source": "OpenStreetMap", "osm_id": 1384102734, "id": 100}}, {"type": "Feature", "geometry": {"type": "Point", "coordinates": [3.7976035, 36.778793]}, "properties": {"name": "Castellum Tulei", "type": "archaeological_site", "wilaya_code": "35", "source": "OpenStreetMap", "osm_id": 1410759471, "id": 101}}, {"type": "Feature", "geometry": {"type": "Point", "coordinates": [3.6557993, 36.6632058]}, "properties": {"name": "Chateau Romain", "name_ar": "قصر رومي", "type": "archaeological_site", "wilaya_code": "35", "source": "OpenStreetMap", "osm_id": 1379129665, "id": 102}}, {"type": "Feature", "geometry": {"type": "Point", "coordinates": [3.7303635, 36.7746074]}, "properties": {"name": "Dra Azib Boujet", "type": "archaeological_site", "wilaya_code": "35", "source": "OpenStreetMap", "osm_id": 1410759470, "id": 103}}, {"type": "Feature", "geometry": {"type": "Point", "coordinates": [3.8142227, 36.6806997]}, "properties": {"name": "El Jamaa Ihaddaden", "type": "archaeological_site", "wilaya_code": "35", "source": "OpenStreetMap", "osm_id": 1383065133, "id": 104}}, {"type": "Feature", "geometry": {"type": "Point", "coordinates": [3.8307342, 36.8589721]}, "properties": {"name": "Haouch el Oudjani", "type": "archaeological_site", "wilaya_code": "35", "source": "OpenStreetMap", "osm_id": 1410759474, "id": 105}}, {"type": "Feature", "geometry": {"type": "Point", "coordinates": [3.8165788, 36.8144935]}, "properties": {"name": "Kobr Roumia", "type": "archaeological_site", "wilaya_code": "35", "source": "OpenStreetMap", "osm_id": 1410759472, "id": 106}}, {"type": "Feature", "geometry": {"type": "Point", "coordinates": [3.5661432, 36.7995335]}, "properties": {"name": "Marsa al Dejjaj مرسى الدجاج", "name_ar": "مرسى الدجاج", "type": "archaeological_site", "wilaya_code": "35", "source": "OpenStreetMap", "osm_id": 1376564101, "id": 107}}, {"type": "Feature", "geometry": {"type": "Point", "coordinates": [3.5651722, 36.8002658]}, "properties": {"name": "Marsa al-Djaje", "name_ar": "مرسى الدجاج", "name_fr": "Marsa al-Djaje", "type": "archaeological_site", "heritage_status": "Cultural heritage monuments in Algeria", "wikidata": "Q125496468", "wilaya_code": "35", "source": "Wikidata", "id": 108}}, {"type": "Feature", "geometry": {"type": "Point", "coordinates": [3.90964, 36.91285]}, "properties": {"name": "Rusuccuru", "type": "archaeological_site", "wikidata": "Q15843385", "wilaya_code": "35", "source": "Wikidata", "id": 109}}, {"type": "Feature", "geometry": {"type": "Point", "coordinates": [3.7263928, 36.6562714]}, "properties": {"name": "Taksebt des Ouled Said", "type": "archaeological_site", "wilaya_code": "35", "source": "OpenStreetMap", "osm_id": 1395521035, "id": 110}}, {"type": "Feature", "geometry": {"type": "Point", "coordinates": [2.2807736, 35.8655227]}, "properties": {"name": "حصن الامير عبد القادر", "name_ar": "حصن الامير عبد القادر", "type": "archaeological_site", "wilaya_code": "38", "source": "OpenStreetMap", "osm_id": 259354485, "id": 111}}, {"type": "Feature", "geometry": {"type": "Point", "coordinates": [7.1182448, 35.5355503]}, "properties": {"name": "Ksar Baghai", "type": "archaeological_site", "wilaya_code": "40", "source": "OpenStreetMap", "osm_id": 265150241, "id": 112}}, {"type": "Feature", "geometry": {"type": "Point", "coordinates": [7.0846943, 35.4401595]}, "properties": {"name": "حمام الصالحين ⵃⴻⵎⵎⴰⵎ ⵚⴰⵍⵃⵉⵏ", "name_ar": "حمام الصالحين", "name_fr": "Hammam Essalihine", "type": "archaeological_site", "wikipedia": "fr:Hammam Essalihine", "wikidata": "Q2058233", "wilaya_code": "40", "source": "OpenStreetMap", "osm_id": 2662646762, "id": 113}}, {"type": "Feature", "geometry": {"type": "Point", "coordinates": [7.2349306, 35.3222656]}, "properties": {"name": "قصرالجازية - Mausolée de Cedias", "name_fr": "Mausolée de Cédias", "type": "archaeological_site", "wikipedia": "ar:قصر الجازية", "wikidata": "Q12232982", "wilaya_code": "40", "source": "OpenStreetMap", "osm_id": 318626658, "id": 114}}, {"type": "Feature", "geometry": {"type": "Point", "coordinates": [7.6559214, 36.1937048]}, "properties": {"name": "Ancient Roman theater in Khamissa", "type": "archaeological_site", "wikidata": "Q2429753", "wilaya_code": "41", "source": "OpenStreetMap", "osm_id": 1321739924, "id": 115}}, {"type": "Feature", "geometry": {"type": "Point", "coordinates": [7.6539647, 36.1919041]}, "properties": {"name": "Forum Novum", "type": "archaeological_site", "wilaya_code": "41", "source": "OpenStreetMap", "osm_id": 1321756093, "id": 116}}, {"type": "Feature", "geometry": {"type": "Point", "coordinates": [7.9014802, 36.0778831]}, "properties": {"name": "Madauros Theatre", "type": "archaeological_site", "wikidata": "Q62050969", "wilaya_code": "41", "source": "OpenStreetMap", "osm_id": 284087760, "id": 117}}, {"type": "Feature", "geometry": {"type": "Point", "coordinates": [7.6535203, 36.1921346]}, "properties": {"name": "Thermae", "type": "archaeological_site", "wilaya_code": "41", "source": "OpenStreetMap", "osm_id": 1321756094, "id": 118}}, {"type": "Feature", "geometry": {"type": "Point", "coordinates": [7.6564366, 36.1915906]}, "properties": {"name": "Thubursicum Numidarum", "type": "archaeological_site", "wikipedia": "ar:ثيبيرسيكوم", "wikidata": "Q3426859", "wilaya_code": "41", "source": "OpenStreetMap", "osm_id": 1321739442, "id": 119}}, {"type": "Feature", "geometry": {"type": "Point", "coordinates": [2.1988885, 36.6085973]}, "properties": {"name": "Amphithéatre romain", "name_ar": "المدرج الروماني", "name_fr": "Amphithéatre romain", "type": "archaeological_site", "wikidata": "Q28969515", "wilaya_code": "42", "source": "OpenStreetMap", "osm_id": 266409896, "id": 120}}, {"type": "Feature", "geometry": {"type": "Point", "coordinates": [2.290128, 36.5685254]}, "properties": {"name": "Aqueduc Maurétanien de Cherchell", "type": "archaeological_site", "wilaya_code": "42", "source": "OpenStreetMap", "osm_id": 370173875, "id": 121}}, {"type": "Feature", "geometry": {"type": "Point", "coordinates": [2.2014234, 36.5979931]}, "properties": {"name": "Archaeological Museum of Cherchell", "name_fr": "Musée archéologique de Cherchell", "type": "archaeological_site", "wikipedia": "en:Archaeological Museum of Cherchell", "wikidata": "Q4785393", "wilaya_code": "42", "source": "OpenStreetMap", "osm_id": 4832565326, "id": 122}}, {"type": "Feature", "geometry": {"type": "Point", "coordinates": [1.8603077, 36.5687845]}, "properties": {"name": "Breshk", "type": "archaeological_site", "wilaya_code": "42", "source": "OpenStreetMap", "osm_id": 1487738119, "id": 123}}, {"type": "Feature", "geometry": {"type": "Point", "coordinates": [2.4422403, 36.5946299]}, "properties": {"name": "Ruines Romaines de Tipaza", "name_ar": "الآثار الرومانية تيبازة", "name_fr": "Ruines Romaines de Tipaza", "type": "archaeological_site", "heritage": "1", "wikipedia": "fr:Tipasa de Maurétanie", "wikidata": "Q3529269", "wilaya_code": "42", "source": "OpenStreetMap", "osm_id": 171552738, "id": 124}}, {"type": "Feature", "geometry": {"type": "Point", "coordinates": [2.4546, 36.5929]}, "properties": {"name": "Tipasa eastern archaeological zone", "name_fr": "parc archéologique de Tipasa est", "type": "archaeological_site", "heritage_status": "part of UNESCO World Heritage Site", "wikidata": "Q65643680", "wilaya_code": "42", "source": "Wikidata", "id": 125}}, {"type": "Feature", "geometry": {"type": "Point", "coordinates": [2.4434, 36.594]}, "properties": {"name": "Tipasa western archaeological zone", "name_fr": "parc archéologique de Tipasa ouest", "type": "archaeological_site", "heritage_status": "part of UNESCO World Heritage Site", "wikidata": "Q65643679", "wilaya_code": "42", "source": "Wikidata", "id": 126}}, {"type": "Feature", "geometry": {"type": "Point", "coordinates": [2.1966667, 36.6069444]}, "properties": {"name": "aqueduct of Cherchell", "name_fr": "aqueduc de Cherchell", "type": "archaeological_site", "wikidata": "Q21028732", "wilaya_code": "42", "source": "Wikidata", "id": 127}}, {"type": "Feature", "geometry": {"type": "Point", "coordinates": [5.5706896, 36.2603926]}, "properties": {"name": "El-Ksar", "type": "archaeological_site", "wilaya_code": "43", "source": "OpenStreetMap", "osm_id": 1154161722, "id": 128}}, {"type": "Feature", "geometry": {"type": "Point", "coordinates": [6.483428, 36.489792]}, "properties": {"name": "Mausoleum of Quintus Lollius Urbicus", "name_ar": "ضريح لوليوس أربيكيوس", "name_fr": "mausolée de Quintus Lollius Urbicus", "type": "archaeological_site", "wikidata": "Q84710269", "wilaya_code": "43", "source": "Wikidata", "id": 129}}, {"type": "Feature", "geometry": {"type": "Point", "coordinates": [6.131, 36.099]}, "properties": {"name": "Mechta el-Arbi", "type": "archaeological_site", "wikidata": "Q132402139", "wilaya_code": "43", "source": "Wikidata", "id": 130}}, {"type": "Feature", "geometry": {"type": "Point", "coordinates": [6.267698, 36.4512765]}, "properties": {"name": "Milevum", "name_ar": "ميليفوم", "name_fr": "Milev (Numidie)", "type": "archaeological_site", "wikidata": "Q28195180", "wilaya_code": "43", "source": "Wikidata", "id": 131}}, {"type": "Feature", "geometry": {"type": "Point", "coordinates": [6.4834582, 36.4897736]}, "properties": {"name": "Quintus Lollius Urbicus Mausoleum", "name_fr": "Mausolée de Quintus Lollius Urbicus", "type": "archaeological_site", "wikipedia": "ar:ضريح لوليوس أربيكيوس", "wikidata": "Q86725228", "wilaya_code": "43", "source": "OpenStreetMap", "osm_id": 1268274982, "id": 132}}, {"type": "Feature", "geometry": {"type": "Point", "coordinates": [6.4823717, 36.4623723]}, "properties": {"name": "Ruines Romaines Tiddis", "name_ar": "الآثار الرومانية تيديس", "type": "archaeological_site", "wikipedia": "en:Tiddis", "wikidata": "Q1396850", "wilaya_code": "43", "source": "OpenStreetMap", "osm_id": 3650432490, "id": 133}}, {"type": "Feature", "geometry": {"type": "Point", "coordinates": [5.9971469, 36.4774998]}, "properties": {"name": "Site archéologique romain", "type": "archaeological_site", "wilaya_code": "43", "source": "OpenStreetMap", "osm_id": 5422432767, "id": 134}}, {"type": "Feature", "geometry": {"type": "Point", "coordinates": [6.1050539, 36.2912948]}, "properties": {"name": "Tazrut", "type": "archaeological_site", "wilaya_code": "43", "source": "OpenStreetMap", "osm_id": 1491571097, "id": 135}}, {"type": "Feature", "geometry": {"type": "Point", "coordinates": [1.8471, 36.3049]}, "properties": {"name": "Gargara (Aïn Defla)", "name_ar": "آثار قرقرة", "name_fr": "Gargara (Aïn Defla)", "type": "archaeological_site", "wikidata": "Q131348582", "wilaya_code": "44", "source": "Wikidata", "id": 136}}, {"type": "Feature", "geometry": {"type": "Point", "coordinates": [2.2669695, 36.3444683]}, "properties": {"name": "دار الشانبيط", "name_ar": "دار الشانبيط", "type": "archaeological_site", "wilaya_code": "44", "source": "OpenStreetMap", "osm_id": 10931591600, "id": 137}}, {"type": "Feature", "geometry": {"type": "Point", "coordinates": [-0.4107575, 32.7801707]}, "properties": {"name": "Gravures Rupestres", "type": "archaeological_site", "wilaya_code": "45", "source": "OpenStreetMap", "osm_id": 395980901, "id": 138}}, {"type": "Feature", "geometry": {"type": "Point", "coordinates": [-1.140089, 35.294322]}, "properties": {"name": "Albulae", "name_ar": "ألبولاي", "name_fr": "Albulae", "type": "archaeological_site", "wikidata": "Q2831972", "wilaya_code": "46", "source": "Wikidata", "id": 139}}, {"type": "Feature", "geometry": {"type": "Point", "coordinates": [-0.618882, 35.45228]}, "properties": {"name": "Regiae", "name_ar": "ريجياي", "name_fr": "Regiae", "type": "archaeological_site", "wikidata": "Q3423451", "wilaya_code": "46", "source": "Wikidata", "id": 140}}, {"type": "Feature", "geometry": {"type": "Point", "coordinates": [-1.4528777, 35.2664527]}, "properties": {"name": "Siga", "name_ar": "سيقا", "name_fr": "Siga", "type": "archaeological_site", "wikipedia": "ar:سيقا", "wikidata": "Q3483498", "wilaya_code": "46", "source": "OpenStreetMap", "osm_id": 2719759752, "id": 141}}, {"type": "Feature", "geometry": {"type": "Point", "coordinates": [3.6813889, 32.4872222]}, "properties": {"name": "M'zab", "name_ar": "مزاب", "name_fr": "Mzab", "type": "archaeological_site", "heritage_status": "World Heritage Site", "wikidata": "Q724484", "wilaya_code": "47", "source": "Wikidata", "id": 142}}, {"type": "Feature", "geometry": {"type": "Point", "coordinates": [1.2002424, 35.9190226]}, "properties": {"name": "Ksar el Kaoua", "type": "archaeological_site", "wikipedia": "fr:Ksar el Kaoua", "wikidata": "Q20726070", "wilaya_code": "48", "source": "OpenStreetMap", "osm_id": 1244100281, "id": 143}}, {"type": "Feature", "geometry": {"type": "Point", "coordinates": [1.11667, 35.86667]}, "properties": {"name": "Ksar el Kaoua", "name_ar": "قصر كاوة", "name_fr": "Ksar el Kaoua", "type": "archaeological_site", "heritage_status": "Cultural heritage monuments in Algeria", "wikidata": "Q109258706", "wilaya_code": "48", "source": "Wikidata", "id": 144}}, {"type": "Feature", "geometry": {"type": "Point", "coordinates": [0.1832851, 29.5347801]}, "properties": {"name": "Ksar Draa", "name_fr": "Ksar Draa", "type": "archaeological_site", "wikipedia": "en:Ksar Draa", "wikidata": "Q136723083", "wilaya_code": "49", "source": "OpenStreetMap", "osm_id": 15441899, "id": 145}}, {"type": "Feature", "geometry": {"type": "Point", "coordinates": [0.2413861, 29.2881765]}, "properties": {"name": "‎Tamimimoon Old Town", "name_fr": "‎Tamimimoon Old Town", "type": "archaeological_site", "wilaya_code": "49", "source": "OpenStreetMap", "osm_id": 1276224921, "id": 146}}, {"type": "Feature", "geometry": {"type": "Point", "coordinates": [7.4483919, 25.4295273]}, "properties": {"name": "Abri de In Temailt", "name_fr": "Abri de In Temailt", "type": "archaeological_site", "wilaya_code": "56", "source": "OpenStreetMap", "osm_id": 9724483080, "id": 147}}, {"type": "Feature", "geometry": {"type": "Point", "coordinates": [7.4679961, 25.4187845]}, "properties": {"name": "Abri de Ouairassen", "name_fr": "Abri de Ouairassen", "type": "archaeological_site", "wilaya_code": "56", "source": "OpenStreetMap", "osm_id": 9724555693, "id": 148}}, {"type": "Feature", "geometry": {"type": "Point", "coordinates": [7.5011398, 25.4354665]}, "properties": {"name": "Abri de Tigat Nalies (Three dancing women)", "name_fr": "Abri de Tigat Nalies", "type": "archaeological_site", "wilaya_code": "56", "source": "OpenStreetMap", "osm_id": 7104280022, "id": 149}}, {"type": "Feature", "geometry": {"type": "Point", "coordinates": [8.0482866, 25.3419847]}, "properties": {"name": "Abri de Tikadiouine", "type": "archaeological_site", "wilaya_code": "56", "source": "OpenStreetMap", "osm_id": 9758089117, "id": 150}}, {"type": "Feature", "geometry": {"type": "Point", "coordinates": [10.9267505, 23.9820524]}, "properties": {"name": "Akaham ouan Elbered", "type": "archaeological_site", "wilaya_code": "56", "source": "OpenStreetMap", "osm_id": 316496850, "id": 151}}, {"type": "Feature", "geometry": {"type": "Point", "coordinates": [8.265454, 24.238574]}, "properties": {"name": "Archeological Site", "type": "archaeological_site", "wilaya_code": "56", "source": "OpenStreetMap", "osm_id": 827625216, "id": 152}}, {"type": "Feature", "geometry": {"type": "Point", "coordinates": [10.88279, 24.0657945]}, "properties": {"name": "Elephant petroglyph", "type": "archaeological_site", "wilaya_code": "56", "source": "OpenStreetMap", "osm_id": 7852977880, "id": 153}}, {"type": "Feature", "geometry": {"type": "Point", "coordinates": [10.8330732, 24.0598779]}, "properties": {"name": "Elephant petroglyphs", "type": "archaeological_site", "wilaya_code": "56", "source": "OpenStreetMap", "osm_id": 7072439585, "id": 154}}, {"type": "Feature", "geometry": {"type": "Point", "coordinates": [10.8831037, 24.0660215]}, "properties": {"name": "Fish petroglyphs", "type": "archaeological_site", "wilaya_code": "56", "source": "OpenStreetMap", "osm_id": 316501703, "id": 155}}, {"type": "Feature", "geometry": {"type": "Point", "coordinates": [10.8234439, 24.0731266]}, "properties": {"name": "Giraffe petroglyphs of Tisseteka", "type": "archaeological_site", "wilaya_code": "56", "source": "OpenStreetMap", "osm_id": 7104354883, "id": 156}}, {"type": "Feature", "geometry": {"type": "Point", "coordinates": [7.9622595, 25.3078556]}, "properties": {"name": "Ikadnouchere rock paintings", "type": "archaeological_site", "wilaya_code": "56", "source": "OpenStreetMap", "osm_id": 2552961759, "id": 157}}, {"type": "Feature", "geometry": {"type": "Point", "coordinates": [8.4648236, 24.5109766]}, "properties": {"name": "Important Archeological Site", "type": "archaeological_site", "wilaya_code": "56", "source": "OpenStreetMap", "osm_id": 827589876, "id": 158}}, {"type": "Feature", "geometry": {"type": "Point", "coordinates": [7.9190277, 24.3761333]}, "properties": {"name": "Important Archeological Site", "type": "archaeological_site", "wilaya_code": "56", "source": "OpenStreetMap", "osm_id": 827706867, "id": 159}}, {"type": "Feature", "geometry": {"type": "Point", "coordinates": [8.6181268, 24.8126998]}, "properties": {"name": "Important archeological site", "type": "archaeological_site", "wilaya_code": "56", "source": "OpenStreetMap", "osm_id": 818886215, "id": 160}}, {"type": "Feature", "geometry": {"type": "Point", "coordinates": [8.020466, 25.3486162]}, "properties": {"name": "In Tanadouft", "type": "archaeological_site", "wilaya_code": "56", "source": "OpenStreetMap", "osm_id": 7072462684, "id": 161}}, {"type": "Feature", "geometry": {"type": "Point", "coordinates": [8.4304252, 25.4251789]}, "properties": {"name": "Ksar of Aghram", "type": "archaeological_site", "wilaya_code": "56", "source": "OpenStreetMap", "osm_id": 768736202, "id": 162}}, {"type": "Feature", "geometry": {"type": "Point", "coordinates": [10.8518936, 24.2695267]}, "properties": {"name": "Ouan Atan Felsmalereien", "type": "archaeological_site", "wilaya_code": "56", "source": "OpenStreetMap", "osm_id": 316499810, "id": 163}}, {"type": "Feature", "geometry": {"type": "Point", "coordinates": [10.84968, 24.0648806]}, "properties": {"name": "Ouan Ekli petroglyphs", "type": "archaeological_site", "wilaya_code": "56", "source": "OpenStreetMap", "osm_id": 316501704, "id": 164}}, {"type": "Feature", "geometry": {"type": "Point", "coordinates": [10.9548148, 24.0661109]}, "properties": {"name": "Ouan Iska", "type": "archaeological_site", "wilaya_code": "56", "source": "OpenStreetMap", "osm_id": 7072156228, "id": 165}}, {"type": "Feature", "geometry": {"type": "Point", "coordinates": [10.8838871, 24.2347282]}, "properties": {"name": "Ouan Takanessit Felsmalereien", "type": "archaeological_site", "wilaya_code": "56", "source": "OpenStreetMap", "osm_id": 316499807, "id": 166}}, {"type": "Feature", "geometry": {"type": "Point", "coordinates": [10.9357146, 24.0773348]}, "properties": {"name": "Ouan Zaouatan", "type": "archaeological_site", "wilaya_code": "56", "source": "OpenStreetMap", "osm_id": 316499803, "id": 167}}, {"type": "Feature", "geometry": {"type": "Point", "coordinates": [10.8443718, 24.2196956]}, "properties": {"name": "Oued Sirik", "type": "archaeological_site", "wilaya_code": "56", "source": "OpenStreetMap", "osm_id": 7072298901, "id": 168}}, {"type": "Feature", "geometry": {"type": "Point", "coordinates": [10.9626679, 24.0580161]}, "properties": {"name": "Place de Jean Claude", "type": "archaeological_site", "wilaya_code": "56", "source": "OpenStreetMap", "osm_id": 1230779162, "id": 169}}, {"type": "Feature", "geometry": {"type": "Point", "coordinates": [9.3425441, 24.5656798]}, "properties": {"name": "Rock Paintings", "type": "archaeological_site", "wilaya_code": "56", "source": "OpenStreetMap", "osm_id": 4529064932, "id": 170}}, {"type": "Feature", "geometry": {"type": "Point", "coordinates": [7.7487147, 25.3861674]}, "properties": {"name": "Rock paintings", "type": "archaeological_site", "wilaya_code": "56", "source": "OpenStreetMap", "osm_id": 7074472024, "id": 171}}, {"type": "Feature", "geometry": {"type": "Point", "coordinates": [7.7873743, 25.3919834]}, "properties": {"name": "Rock paintings", "type": "archaeological_site", "wilaya_code": "56", "source": "OpenStreetMap", "osm_id": 7074493223, "id": 172}}, {"type": "Feature", "geometry": {"type": "Point", "coordinates": [9.651, 24.687]}, "properties": {"name": "Séfar", "name_ar": "مدينة سفار", "name_fr": "Séfar", "type": "archaeological_site", "wikidata": "Q22689835", "wilaya_code": "56", "source": "Wikidata", "id": 173}}, {"type": "Feature", "geometry": {"type": "Point", "coordinates": [8.2969781, 25.433303]}, "properties": {"name": "Tadrast", "type": "archaeological_site", "wilaya_code": "56", "source": "OpenStreetMap", "osm_id": 7074477607, "id": 174}}, {"type": "Feature", "geometry": {"type": "Point", "coordinates": [8.2203599, 25.4221816]}, "properties": {"name": "Tan Toudeft", "type": "archaeological_site", "wilaya_code": "56", "source": "OpenStreetMap", "osm_id": 7072546142, "id": 175}}, {"type": "Feature", "geometry": {"type": "Point", "coordinates": [9.012, 24.974]}, "properties": {"name": "Tassili Cultural Park", "name_ar": "الحظيرة الثقافية طاسيلي ناجر", "name_fr": "Parc culturel du Tassili", "type": "archaeological_site", "heritage_status": "Cultural heritage monuments in Algeria", "wikidata": "Q14629434", "wilaya_code": "56", "source": "Wikidata", "id": 176}}, {"type": "Feature", "geometry": {"type": "Point", "coordinates": [7.9752925, 25.3649917]}, "properties": {"name": "Tedar rock paintings", "type": "archaeological_site", "wilaya_code": "56", "source": "OpenStreetMap", "osm_id": 2552961765, "id": 177}}, {"type": "Feature", "geometry": {"type": "Point", "coordinates": [8.247451, 25.4349644]}, "properties": {"name": "Tiaraneen", "type": "archaeological_site", "wilaya_code": "56", "source": "OpenStreetMap", "osm_id": 7093129743, "id": 178}}, {"type": "Feature", "geometry": {"type": "Point", "coordinates": [10.3749837, 23.8523635]}, "properties": {"name": "Tin Akahem (Felsmalereien)", "type": "archaeological_site", "wilaya_code": "56", "source": "OpenStreetMap", "osm_id": 316496845, "id": 179}}, {"type": "Feature", "geometry": {"type": "Point", "coordinates": [8.298143, 25.421658]}, "properties": {"name": "Tin Amarasouzi", "type": "archaeological_site", "wilaya_code": "56", "source": "OpenStreetMap", "osm_id": 7074472272, "id": 180}}, {"type": "Feature", "geometry": {"type": "Point", "coordinates": [10.9056769, 24.0731742]}, "properties": {"name": "Tin Taborok paintings", "type": "archaeological_site", "wilaya_code": "56", "source": "OpenStreetMap", "osm_id": 7072156380, "id": 181}}, {"type": "Feature", "geometry": {"type": "Point", "coordinates": [8.5058441, 25.1486739]}, "properties": {"name": "Tin Taghirt", "type": "archaeological_site", "wilaya_code": "56", "source": "OpenStreetMap", "osm_id": 2571925549, "id": 182}}, {"type": "Feature", "geometry": {"type": "Point", "coordinates": [8.5059639, 25.1486444]}, "properties": {"name": "Tin Taghirt", "type": "archaeological_site", "wikidata": "Q131825711", "wilaya_code": "56", "source": "Wikidata", "id": 183}}, {"type": "Feature", "geometry": {"type": "Point", "coordinates": [8.3336356, 24.8278481]}, "properties": {"name": "important archeological site", "type": "archaeological_site", "wilaya_code": "56", "source": "OpenStreetMap", "osm_id": 818755324, "id": 184}}, {"type": "Feature", "geometry": {"type": "Point", "coordinates": [8.6228043, 24.7034527]}, "properties": {"name": "important archeological site", "type": "archaeological_site", "wilaya_code": "56", "source": "OpenStreetMap", "osm_id": 818756093, "id": 185}}, {"type": "Feature", "geometry": {"type": "Point", "coordinates": [8.330931, 24.8105552]}, "properties": {"name": "important archeological site", "type": "archaeological_site", "wilaya_code": "56", "source": "OpenStreetMap", "osm_id": 818757191, "id": 186}}, {"type": "Feature", "geometry": {"type": "Point", "coordinates": [10.9543028, 24.0335748]}, "properties": {"name": "neolithic painting", "type": "archaeological_site", "wilaya_code": "56", "source": "OpenStreetMap", "osm_id": 1230776910, "id": 187}}, {"type": "Feature", "geometry": {"type": "Point", "coordinates": [10.9512017, 24.0369228]}, "properties": {"name": "neolithic painting", "type": "archaeological_site", "wilaya_code": "56", "source": "OpenStreetMap", "osm_id": 1230777564, "id": 188}}, {"type": "Feature", "geometry": {"type": "Point", "coordinates": [11.0122967, 24.0347795]}, "properties": {"name": "neolithic petroglyph", "type": "archaeological_site", "wilaya_code": "56", "source": "OpenStreetMap", "osm_id": 7864958910, "id": 189}}, {"type": "Feature", "geometry": {"type": "Point", "coordinates": [11.0125621, 24.0323857]}, "properties": {"name": "neolithic petroglyphs", "type": "archaeological_site", "wilaya_code": "56", "source": "OpenStreetMap", "osm_id": 7072193486, "id": 190}}, {"type": "Feature", "geometry": {"type": "Point", "coordinates": [10.9513831, 24.0372728]}, "properties": {"name": "neolithic petroglyphs", "type": "archaeological_site", "wilaya_code": "56", "source": "OpenStreetMap", "osm_id": 7072320599, "id": 191}}, {"type": "Feature", "geometry": {"type": "Point", "coordinates": [11.0212092, 24.0429303]}, "properties": {"name": "neolithic petroglyphs", "type": "archaeological_site", "wilaya_code": "56", "source": "OpenStreetMap", "osm_id": 7072419646, "id": 192}}, {"type": "Feature", "geometry": {"type": "Point", "coordinates": [10.9624513, 24.0582223]}, "properties": {"name": "neolothic petroglyph", "type": "archaeological_site", "wilaya_code": "56", "source": "OpenStreetMap", "osm_id": 7846823935, "id": 193}}, {"type": "Feature", "geometry": {"type": "Point", "coordinates": [10.7661662, 24.0545452]}, "properties": {"name": "rock paintings", "type": "archaeological_site", "wilaya_code": "56", "source": "OpenStreetMap", "osm_id": 316501709, "id": 194}}, {"type": "Feature", "geometry": {"type": "Point", "coordinates": [8.3528996, 25.3878162]}, "properties": {"name": "إسالامن", "name_ar": "إسالامن", "type": "archaeological_site", "wilaya_code": "56", "source": "OpenStreetMap", "osm_id": 7074480719, "id": 195}}, {"type": "Feature", "geometry": {"type": "Point", "coordinates": [9.4323492, 24.380277]}, "properties": {"name": "البقرة البكاء", "name_ar": "البقرة البكاء", "name_fr": "La vache qui pleure", "type": "archaeological_site", "wilaya_code": "56", "source": "OpenStreetMap", "osm_id": 316496842, "id": 196}}, {"type": "Feature", "geometry": {"type": "Point", "coordinates": [10.876935, 24.200283]}, "properties": {"name": "اللوحات الصخرية بوادي أبو هديان", "name_ar": "اللوحات الصخرية بوادي أبو هديان", "name_fr": "Peintures rupestres vallée Bouhadian", "type": "archaeological_site", "wilaya_code": "56", "source": "OpenStreetMap", "osm_id": 316499806, "id": 197}}, {"type": "Feature", "geometry": {"type": "Point", "coordinates": [8.5567661, 25.0286191]}, "properties": {"name": "اللوحات الصخرية طاسيلي ناجر", "name_ar": "اللوحات الصخرية طاسيلي ناجر", "name_fr": "Peintures rupestres Tassili N' Ajjer", "type": "archaeological_site", "wilaya_code": "56", "source": "OpenStreetMap", "osm_id": 4407133091, "id": 198}}, {"type": "Feature", "geometry": {"type": "Point", "coordinates": [10.9314218, 24.1336841]}, "properties": {"name": "النقوش الصخرية بوان تيكال", "name_ar": "النقوش الصخرية بوان تيكال", "name_fr": "Pétroglyphes de Oued Tikal", "type": "archaeological_site", "wilaya_code": "56", "source": "OpenStreetMap", "osm_id": 316499804, "id": 199}}, {"type": "Feature", "geometry": {"type": "Point", "coordinates": [10.1602672, 24.0577576]}, "properties": {"name": "تاناوت ⵜⴰⵏⴰⵡⵜ", "name_ar": "تاناوت", "name_fr": "Tanaout", "type": "archaeological_site", "wilaya_code": "56", "source": "OpenStreetMap", "osm_id": 7074429278, "id": 200}}, {"type": "Feature", "geometry": {"type": "Point", "coordinates": [10.2502173, 24.023561]}, "properties": {"name": "تين أرسو ⵜⵉⵏ ⴰⵔⴻⵙⵓ", "name_ar": "تين أرسو", "name_fr": "Tin Aressou", "type": "archaeological_site", "wilaya_code": "56", "source": "OpenStreetMap", "osm_id": 7072482699, "id": 201}}, {"type": "Feature", "geometry": {"type": "Point", "coordinates": [9.526155, 24.4172898]}, "properties": {"name": "تين امالي ⵜⵉⵏ ⴰⵎⴰⵍⵉ", "name_ar": "تين امالي", "name_fr": "Tin Amali", "type": "archaeological_site", "wilaya_code": "56", "source": "OpenStreetMap", "osm_id": 4936229849, "id": 202}}, {"type": "Feature", "geometry": {"type": "Point", "coordinates": [9.0520792, 24.835834]}, "properties": {"name": "قبر شمسي", "name_ar": "قبر شمسي", "name_fr": "Tombe solaire", "type": "archaeological_site", "wilaya_code": "56", "source": "OpenStreetMap", "osm_id": 4529064838, "id": 203}}, {"type": "Feature", "geometry": {"type": "Point", "coordinates": [9.3124586, 24.8043194]}, "properties": {"name": "قبر شمسي", "name_ar": "قبر شمسي", "name_fr": "Tombe solaire", "type": "archaeological_site", "wilaya_code": "56", "source": "OpenStreetMap", "osm_id": 11655976887, "id": 204}}, {"type": "Feature", "geometry": {"type": "Point", "coordinates": [9.2791792, 24.793481]}, "properties": {"name": "قبر شمسي", "name_ar": "قبر شمسي", "name_fr": "Tombe solaire", "type": "archaeological_site", "wilaya_code": "56", "source": "OpenStreetMap", "osm_id": 11655976888, "id": 205}}, {"type": "Feature", "geometry": {"type": "Point", "coordinates": [9.3014225, 24.734868]}, "properties": {"name": "قبر شمسي", "name_ar": "قبر شمسي", "name_fr": "Tombe solaire", "type": "archaeological_site", "wilaya_code": "56", "source": "OpenStreetMap", "osm_id": 11655976889, "id": 206}}, {"type": "Feature", "geometry": {"type": "Point", "coordinates": [9.2853223, 24.728342]}, "properties": {"name": "قبر شمسي", "name_ar": "قبر شمسي", "name_fr": "Tombe solaire", "type": "archaeological_site", "wilaya_code": "56", "source": "OpenStreetMap", "osm_id": 11655976890, "id": 207}}, {"type": "Feature", "geometry": {"type": "Point", "coordinates": [9.3809756, 24.7288825]}, "properties": {"name": "قبر شمسي", "name_ar": "قبر شمسي", "name_fr": "Tombe solaire", "type": "archaeological_site", "wilaya_code": "56", "source": "OpenStreetMap", "osm_id": 11655976891, "id": 208}}, {"type": "Feature", "geometry": {"type": "Point", "coordinates": [9.32633, 24.7516137]}, "properties": {"name": "قبر شمسي", "name_ar": "قبر شمسي", "name_fr": "Tombe solaire", "type": "archaeological_site", "wilaya_code": "56", "source": "OpenStreetMap", "osm_id": 11655976893, "id": 209}}, {"type": "Feature", "geometry": {"type": "Point", "coordinates": [9.2929189, 24.7515233]}, "properties": {"name": "قبر شمسي", "name_ar": "قبر شمسي", "name_fr": "Tombe solaire", "type": "archaeological_site", "wilaya_code": "56", "source": "OpenStreetMap", "osm_id": 11655976894, "id": 210}}, {"type": "Feature", "geometry": {"type": "Point", "coordinates": [9.2745275, 24.7563646]}, "properties": {"name": "قبر شمسي", "name_ar": "قبر شمسي", "name_fr": "Tombe solaire", "type": "archaeological_site", "wilaya_code": "56", "source": "OpenStreetMap", "osm_id": 11655976895, "id": 211}}, {"type": "Feature", "geometry": {"type": "Point", "coordinates": [9.2959172, 24.7538336]}, "properties": {"name": "قبر شمسي", "name_ar": "قبر شمسي", "name_fr": "Tombe solaire", "type": "archaeological_site", "wilaya_code": "56", "source": "OpenStreetMap", "osm_id": 11655976896, "id": 212}}, {"type": "Feature", "geometry": {"type": "Point", "coordinates": [9.3004548, 24.7537879]}, "properties": {"name": "قبر شمسي", "name_ar": "قبر شمسي", "name_fr": "Tombe solaire", "type": "archaeological_site", "wilaya_code": "56", "source": "OpenStreetMap", "osm_id": 11655976897, "id": 213}}, {"type": "Feature", "geometry": {"type": "Point", "coordinates": [9.3001945, 24.7512065]}, "properties": {"name": "قبر شمسي", "name_ar": "قبر شمسي", "name_fr": "Tombe solaire", "type": "archaeological_site", "wilaya_code": "56", "source": "OpenStreetMap", "osm_id": 11655976898, "id": 214}}, {"type": "Feature", "geometry": {"type": "Point", "coordinates": [9.3000022, 24.7494389]}, "properties": {"name": "قبر شمسي", "name_ar": "قبر شمسي", "name_fr": "Tombe solaire", "type": "archaeological_site", "wilaya_code": "56", "source": "OpenStreetMap", "osm_id": 11655976899, "id": 215}}, {"type": "Feature", "geometry": {"type": "Point", "coordinates": [9.3049632, 24.7494598]}, "properties": {"name": "قبر شمسي", "name_ar": "قبر شمسي", "name_fr": "Tombe solaire", "type": "archaeological_site", "wilaya_code": "56", "source": "OpenStreetMap", "osm_id": 11655976900, "id": 216}}, {"type": "Feature", "geometry": {"type": "Point", "coordinates": [9.3102461, 24.7476837]}, "properties": {"name": "قبر شمسي", "name_ar": "قبر شمسي", "name_fr": "Tombe solaire", "type": "archaeological_site", "wilaya_code": "56", "source": "OpenStreetMap", "osm_id": 11655976901, "id": 217}}, {"type": "Feature", "geometry": {"type": "Point", "coordinates": [9.3003677, 24.7353922]}, "properties": {"name": "قبر شمسي", "name_ar": "قبر شمسي", "name_fr": "Tombe solaire", "type": "archaeological_site", "wilaya_code": "56", "source": "OpenStreetMap", "osm_id": 11655976904, "id": 218}}, {"type": "Feature", "geometry": {"type": "Point", "coordinates": [9.3000846, 24.7355689]}, "properties": {"name": "قبر شمسي", "name_ar": "قبر شمسي", "name_fr": "Tombe solaire", "type": "archaeological_site", "wilaya_code": "56", "source": "OpenStreetMap", "osm_id": 11655976905, "id": 219}}, {"type": "Feature", "geometry": {"type": "Point", "coordinates": [9.3067752, 24.7357369]}, "properties": {"name": "قبر شمسي", "name_ar": "قبر شمسي", "name_fr": "Tombe solaire", "type": "archaeological_site", "wilaya_code": "56", "source": "OpenStreetMap", "osm_id": 11655976907, "id": 220}}, {"type": "Feature", "geometry": {"type": "Point", "coordinates": [9.304782, 24.735859]}, "properties": {"name": "قبر شمسي", "name_ar": "قبر شمسي", "name_fr": "Tombe solaire", "type": "archaeological_site", "wilaya_code": "56", "source": "OpenStreetMap", "osm_id": 11655976908, "id": 221}}, {"type": "Feature", "geometry": {"type": "Point", "coordinates": [9.3035306, 24.7354883]}, "properties": {"name": "قبر شمسي", "name_ar": "قبر شمسي", "name_fr": "Tombe solaire", "type": "archaeological_site", "wilaya_code": "56", "source": "OpenStreetMap", "osm_id": 11655976909, "id": 222}}, {"type": "Feature", "geometry": {"type": "Point", "coordinates": [9.294456, 24.7351293]}, "properties": {"name": "قبر شمسي", "name_ar": "قبر شمسي", "name_fr": "Tombe solaire", "type": "archaeological_site", "wilaya_code": "56", "source": "OpenStreetMap", "osm_id": 11655976910, "id": 223}}, {"type": "Feature", "geometry": {"type": "Point", "coordinates": [9.2946833, 24.7351054]}, "properties": {"name": "قبر شمسي", "name_ar": "قبر شمسي", "name_fr": "Tombe solaire", "type": "archaeological_site", "wilaya_code": "56", "source": "OpenStreetMap", "osm_id": 11655976911, "id": 224}}, {"type": "Feature", "geometry": {"type": "Point", "coordinates": [9.2946444, 24.7352073]}, "properties": {"name": "قبر شمسي", "name_ar": "قبر شمسي", "name_fr": "Tombe solaire", "type": "archaeological_site", "wilaya_code": "56", "source": "OpenStreetMap", "osm_id": 11655976912, "id": 225}}, {"type": "Feature", "geometry": {"type": "Point", "coordinates": [9.2910956, 24.73431]}, "properties": {"name": "قبر شمسي", "name_ar": "قبر شمسي", "name_fr": "Tombe solaire", "type": "archaeological_site", "wilaya_code": "56", "source": "OpenStreetMap", "osm_id": 11655976913, "id": 226}}, {"type": "Feature", "geometry": {"type": "Point", "coordinates": [9.2912431, 24.7334752]}, "properties": {"name": "قبر شمسي", "name_ar": "قبر شمسي", "name_fr": "Tombe solaire", "type": "archaeological_site", "wilaya_code": "56", "source": "OpenStreetMap", "osm_id": 11655976914, "id": 227}}, {"type": "Feature", "geometry": {"type": "Point", "coordinates": [9.2896543, 24.735899]}, "properties": {"name": "قبر شمسي", "name_ar": "قبر شمسي", "name_fr": "Tombe solaire", "type": "archaeological_site", "wilaya_code": "56", "source": "OpenStreetMap", "osm_id": 11655976916, "id": 228}}, {"type": "Feature", "geometry": {"type": "Point", "coordinates": [9.282167, 24.7359671]}, "properties": {"name": "قبر شمسي", "name_ar": "قبر شمسي", "name_fr": "Tombe solaire", "type": "archaeological_site", "wilaya_code": "56", "source": "OpenStreetMap", "osm_id": 11655976917, "id": 229}}, {"type": "Feature", "geometry": {"type": "Point", "coordinates": [9.2929197, 24.7515805]}, "properties": {"name": "قبر شمسي", "name_ar": "قبر شمسي", "name_fr": "Tombe solaire", "type": "archaeological_site", "wilaya_code": "56", "source": "OpenStreetMap", "osm_id": 11656177113, "id": 230}}, {"type": "Feature", "geometry": {"type": "Point", "coordinates": [9.282385, 24.8000846]}, "properties": {"name": "قبر شمسي", "name_ar": "قبر شمسي", "name_fr": "Tombe solaire", "type": "archaeological_site", "wilaya_code": "56", "source": "OpenStreetMap", "osm_id": 11656177114, "id": 231}}, {"type": "Feature", "geometry": {"type": "Point", "coordinates": [9.2834097, 24.7993535]}, "properties": {"name": "قبر شمسي", "name_ar": "قبر شمسي", "name_fr": "Tombe solaire", "type": "archaeological_site", "wilaya_code": "56", "source": "OpenStreetMap", "osm_id": 11656177115, "id": 232}}, {"type": "Feature", "geometry": {"type": "Point", "coordinates": [9.3023071, 24.7971032]}, "properties": {"name": "قبر شمسي", "name_ar": "قبر شمسي", "name_fr": "Tombe solaire", "type": "archaeological_site", "wilaya_code": "56", "source": "OpenStreetMap", "osm_id": 11656177116, "id": 233}}, {"type": "Feature", "geometry": {"type": "Point", "coordinates": [9.3082014, 24.7950007]}, "properties": {"name": "قبر شمسي", "name_ar": "قبر شمسي", "name_fr": "Tombe solaire", "type": "archaeological_site", "wilaya_code": "56", "source": "OpenStreetMap", "osm_id": 11656177117, "id": 234}}, {"type": "Feature", "geometry": {"type": "Point", "coordinates": [9.3097895, 24.7576888]}, "properties": {"name": "قبر شمسي", "name_ar": "قبر شمسي", "name_fr": "Tombe solaire", "type": "archaeological_site", "wilaya_code": "56", "source": "OpenStreetMap", "osm_id": 11656177118, "id": 235}}, {"type": "Feature", "geometry": {"type": "Point", "coordinates": [9.3109434, 24.7570671]}, "properties": {"name": "قبر شمسي", "name_ar": "قبر شمسي", "name_fr": "Tombe solaire", "type": "archaeological_site", "wilaya_code": "56", "source": "OpenStreetMap", "osm_id": 11656177119, "id": 236}}, {"type": "Feature", "geometry": {"type": "Point", "coordinates": [9.3163725, 24.7570497]}, "properties": {"name": "قبر شمسي", "name_ar": "قبر شمسي", "name_fr": "Tombe solaire", "type": "archaeological_site", "wilaya_code": "56", "source": "OpenStreetMap", "osm_id": 11656177120, "id": 237}}, {"type": "Feature", "geometry": {"type": "Point", "coordinates": [9.3282227, 24.7374287]}, "properties": {"name": "قبر شمسي", "name_ar": "قبر شمسي", "name_fr": "Tombe solaire", "type": "archaeological_site", "wilaya_code": "56", "source": "OpenStreetMap", "osm_id": 11656177121, "id": 238}}, {"type": "Feature", "geometry": {"type": "Point", "coordinates": [9.3125437, 24.737269]}, "properties": {"name": "قبر شمسي", "name_ar": "قبر شمسي", "name_fr": "Tombe solaire", "type": "archaeological_site", "wilaya_code": "56", "source": "OpenStreetMap", "osm_id": 11656177122, "id": 239}}, {"type": "Feature", "geometry": {"type": "Point", "coordinates": [9.3119644, 24.7370734]}, "properties": {"name": "قبر شمسي", "name_ar": "قبر شمسي", "name_fr": "Tombe solaire", "type": "archaeological_site", "wilaya_code": "56", "source": "OpenStreetMap", "osm_id": 11656177123, "id": 240}}, {"type": "Feature", "geometry": {"type": "Point", "coordinates": [9.3102313, 24.7369168]}, "properties": {"name": "قبر شمسي", "name_ar": "قبر شمسي", "name_fr": "Tombe solaire", "type": "archaeological_site", "wilaya_code": "56", "source": "OpenStreetMap", "osm_id": 11656177124, "id": 241}}, {"type": "Feature", "geometry": {"type": "Point", "coordinates": [9.2982526, 24.7362254]}, "properties": {"name": "قبر شمسي", "name_ar": "قبر شمسي", "name_fr": "Tombe solaire", "type": "archaeological_site", "wilaya_code": "56", "source": "OpenStreetMap", "osm_id": 11656177128, "id": 242}}, {"type": "Feature", "geometry": {"type": "Point", "coordinates": [9.2979654, 24.7361776]}, "properties": {"name": "قبر شمسي", "name_ar": "قبر شمسي", "name_fr": "Tombe solaire", "type": "archaeological_site", "wilaya_code": "56", "source": "OpenStreetMap", "osm_id": 11656177129, "id": 243}}, {"type": "Feature", "geometry": {"type": "Point", "coordinates": [9.2913877, 24.7338524]}, "properties": {"name": "قبر شمسي", "name_ar": "قبر شمسي", "name_fr": "Tombe solaire", "type": "archaeological_site", "wilaya_code": "56", "source": "OpenStreetMap", "osm_id": 11656177134, "id": 244}}, {"type": "Feature", "geometry": {"type": "Point", "coordinates": [9.2825374, 24.7359316]}, "properties": {"name": "قبر شمسي", "name_ar": "قبر شمسي", "name_fr": "Tombe solaire", "type": "archaeological_site", "wilaya_code": "56", "source": "OpenStreetMap", "osm_id": 11656177137, "id": 245}}, {"type": "Feature", "geometry": {"type": "Point", "coordinates": [5.701555, 35.233555]}, "properties": {"name": "Roman bridge in El Kantara", "name_ar": "جسر القنطرة الروماني", "name_fr": "pont romain d'El Kantara", "type": "archaeological_site", "wikidata": "Q101243536", "wilaya_code": "61", "source": "Wikidata", "id": 246}}, {"type": "Feature", "geometry": {"type": "Point", "coordinates": [8.051, 34.73]}, "properties": {"name": "Oued Djebbana", "type": "archaeological_site", "wikidata": "Q131928123", "wilaya_code": "62", "source": "Wikidata", "id": 247}}, {"type": "Feature", "geometry": {"type": "Point", "coordinates": [3.2848055, 35.9450356]}, "properties": {"name": "Ruines d'Achir", "name_ar": "اطلال المدينة الاثرية آشير", "type": "archaeological_site", "wikipedia": "fr:Achir", "wikidata": "Q2401317", "wilaya_code": "67", "source": "OpenStreetMap", "osm_id": 385862082, "id": 248}}, {"type": "Feature", "geometry": {"type": "Point", "coordinates": [4.9245416, 34.8613753]}, "properties": {"name": "Ausum", "type": "archaeological_site", "wilaya_code": "68", "source": "OpenStreetMap", "osm_id": 1338155675, "id": 249}}, {"type": "Feature", "geometry": {"type": "Point", "coordinates": [4.1653317, 35.1920423]}, "properties": {"name": "رحى فيريرو", "name_ar": "رحى فيريرو", "name_fr": "Moulin Ferrero", "type": "archaeological_site", "wilaya_code": "68", "source": "OpenStreetMap", "osm_id": 3207837890, "id": 250}}, {"type": "Feature", "geometry": {"type": "Point", "coordinates": [3.069175, 36.7842127]}, "properties": {"name": "قيادة القوات البحرية", "name_ar": "قيادة القوات البحرية", "name_fr": "Commandement des Forces Navales", "type": "area", "wilaya_code": "16", "source": "OpenStreetMap", "osm_id": 155362197, "id": 251}}, {"type": "Feature", "geometry": {"type": "Point", "coordinates": [2.748355, 36.2616984]}, "properties": {"name": "Caserne Bab Lakouas", "name_ar": "ثكنة باب الأقواس", "name_fr": "Caserne Bab Lakouas", "type": "barracks", "wilaya_code": "26", "source": "OpenStreetMap", "osm_id": 190374019, "id": 252}}, {"type": "Feature", "geometry": {"type": "Point", "coordinates": [6.6158479, 36.3663834]}, "properties": {"name": "حمامات قيصر الرومانية", "name_ar": "حمامات قيصر الرومانية", "name_fr": "Thermes romains de César", "type": "bath", "wilaya_code": "25", "source": "OpenStreetMap", "osm_id": 13680444051, "id": 253}}, {"type": "Feature", "geometry": {"type": "Point", "coordinates": [2.3178677, 35.6433139]}, "properties": {"name": "Battle site of the Battle of Oued Chelif (1015)", "name_ar": "موقع المعركة واد شليف (1015)", "type": "battle_site", "wilaya_code": "67", "source": "OpenStreetMap", "osm_id": 1513382475, "id": 254}}, {"type": "Feature", "geometry": {"type": "Point", "coordinates": [2.8788191, 33.8054435]}, "properties": {"name": "حصار الأغواط", "name_ar": "حصار الأغواط", "name_fr": "Siège de Laghouat", "type": "battlefield", "wikipedia": "ar:حصار الأغواط", "wikidata": "Q16931833", "wilaya_code": "03", "source": "OpenStreetMap", "osm_id": 12471849708, "id": 255}}, {"type": "Feature", "geometry": {"type": "Point", "coordinates": [6.2450322, 35.1546118]}, "properties": {"name": "نصب تذكاري لإندلاع ثورة أول نوفمبر", "name_ar": "نصب تذكاري لإندلاع ثورة أول نوفمبر", "type": "battlefield", "wikipedia": "fr:Guerre d'Algérie", "wilaya_code": "05", "source": "OpenStreetMap", "osm_id": 474802378, "id": 256}}, {"type": "Feature", "geometry": {"type": "Point", "coordinates": [2.881601, 36.7579768]}, "properties": {"name": "Bataille de Staoueli معركة سطاوالي", "name_ar": "معركة سطاوالي", "name_fr": "Bataille de Staoueli", "type": "battlefield", "wikipedia": "ar:معركة سطاوالي (1830)", "wikidata": "Q2890049", "wilaya_code": "16", "source": "OpenStreetMap", "osm_id": 12471558534, "id": 257}}, {"type": "Feature", "geometry": {"type": "Point", "coordinates": [3.0448054, 36.7738159]}, "properties": {"name": "حصار قلعة برج مولاي الحسن", "name_ar": "حصار قلعة برج مولاي الحسن", "name_fr": "Siège de la forteresse de Bordj Moulay Hassan", "type": "battlefield", "wilaya_code": "16", "source": "OpenStreetMap", "osm_id": 12471601073, "id": 258}}, {"type": "Feature", "geometry": {"type": "Point", "coordinates": [4.5331584, 36.7023441]}, "properties": {"name": "Les 04 chemins", "type": "boundary_stone", "wilaya_code": "15", "source": "OpenStreetMap", "osm_id": 2837834352, "id": 259}}, {"type": "Feature", "geometry": {"type": "Point", "coordinates": [5.4176932, 31.9364984]}, "properties": {"name": "pk 178/49", "type": "boundary_stone", "wilaya_code": "30", "source": "OpenStreetMap", "osm_id": 5305560977, "id": 260}}, {"type": "Feature", "geometry": {"type": "Point", "coordinates": [3.0311632, 36.7559196]}, "properties": {"name": "قناة عين الزبوجة", "name_ar": "قناة عين الزبوجة", "name_fr": "Aqueduc Ain Zeboudja", "type": "bridge", "wilaya_code": "16", "source": "OpenStreetMap", "osm_id": 278903680, "id": 261}}, {"type": "Feature", "geometry": {"type": "Point", "coordinates": [5.701588, 35.2335682]}, "properties": {"name": "El Kantara", "type": "bridge", "heritage": "yes", "wilaya_code": "61", "source": "OpenStreetMap", "osm_id": 475450594, "id": 262}}, {"type": "Feature", "geometry": {"type": "Point", "coordinates": [4.6440125, 36.6062598]}, "properties": {"name": "الجامع ميقور", "name_ar": "الجامع ميقور", "name_fr": "El Jama3 Migour", "type": "building", "wilaya_code": "06", "source": "OpenStreetMap", "osm_id": 261518724, "id": 263}}, {"type": "Feature", "geometry": {"type": "Point", "coordinates": [3.162279, 36.5978227]}, "properties": {"name": "Château Boukandoura قلعة بوقندورة", "name_ar": "قلعة بوقندورة", "name_fr": "Château Boukandoura", "type": "building", "wilaya_code": "09", "source": "OpenStreetMap", "osm_id": 1160663208, "id": 264}}, {"type": "Feature", "geometry": {"type": "Point", "coordinates": [3.0595769, 36.773079]}, "properties": {"name": "البريد المركزي الجزائر", "name_ar": "البريد المركزي الجزائر", "name_fr": "La Grande Poste d'Alger", "type": "building", "wikipedia": "fr:Grande Poste d'Alger", "wikidata": "Q3115007", "wilaya_code": "16", "source": "OpenStreetMap", "osm_id": 415866, "id": 265}}, {"type": "Feature", "geometry": {"type": "Point", "coordinates": [-0.6537832, 35.7056835]}, "properties": {"name": "مستشفى بودانس القديم", "name_ar": "مستشفى بودانس القديم", "name_fr": "Ancien hôpital Baudens", "type": "building", "wilaya_code": "31", "source": "OpenStreetMap", "osm_id": 369151778, "id": 266}}, {"type": "Feature", "geometry": {"type": "Point", "coordinates": [6.2887441, 36.2480698]}, "properties": {"name": "Gendarmerie de Oued Athmania درك وادي العثمانية", "name_ar": "درك وادي العثمانية", "name_fr": "Gendarmerie de Oued Athmania", "type": "building", "wilaya_code": "43", "source": "OpenStreetMap", "osm_id": 1329600495, "id": 267}}, {"type": "Feature", "geometry": {"type": "Point", "coordinates": [-1.1825911, 35.3044774]}, "properties": {"name": "Centre de concentration 2 ème Bureau", "name_ar": "مركز التعديب المكتب 2", "name_fr": "Centre de concentration 2 ème Bureau", "type": "building", "wilaya_code": "46", "source": "OpenStreetMap", "osm_id": 5305283021, "id": 268}}, {"type": "Feature", "geometry": {"type": "Point", "coordinates": [1.0824514, 26.9634847]}, "properties": {"name": "Kasba", "type": "castle", "wilaya_code": "01", "source": "OpenStreetMap", "osm_id": 298367390, "id": 269}}, {"type": "Feature", "geometry": {"type": "Point", "coordinates": [-0.270722, 27.8301491]}, "properties": {"name": "Ksar", "type": "castle", "wilaya_code": "01", "source": "OpenStreetMap", "osm_id": 1363070571, "id": 270}}, {"type": "Feature", "geometry": {"type": "Point", "coordinates": [-0.3417701, 27.8728849]}, "properties": {"name": "Ksar", "type": "castle", "wilaya_code": "01", "source": "OpenStreetMap", "osm_id": 1363082816, "id": 271}}, {"type": "Feature", "geometry": {"type": "Point", "coordinates": [-0.2342137, 27.336779]}, "properties": {"name": "Ksar", "type": "castle", "wilaya_code": "01", "source": "OpenStreetMap", "osm_id": 1364293354, "id": 272}}, {"type": "Feature", "geometry": {"type": "Point", "coordinates": [-0.2643222, 27.4502424]}, "properties": {"name": "Ksar", "type": "castle", "wilaya_code": "01", "source": "OpenStreetMap", "osm_id": 1365073274, "id": 273}}, {"type": "Feature", "geometry": {"type": "Point", "coordinates": [-0.1374983, 27.1564356]}, "properties": {"name": "Ksar", "type": "castle", "wilaya_code": "01", "source": "OpenStreetMap", "osm_id": 1428568380, "id": 274}}, {"type": "Feature", "geometry": {"type": "Point", "coordinates": [-0.1359329, 27.156911]}, "properties": {"name": "Ksar", "type": "castle", "wilaya_code": "01", "source": "OpenStreetMap", "osm_id": 1428568383, "id": 275}}, {"type": "Feature", "geometry": {"type": "Point", "coordinates": [-0.1376885, 27.1435553]}, "properties": {"name": "Ksar", "type": "castle", "wilaya_code": "01", "source": "OpenStreetMap", "osm_id": 1428568394, "id": 276}}, {"type": "Feature", "geometry": {"type": "Point", "coordinates": [-0.2066214, 27.2718879]}, "properties": {"name": "Ksar القصر", "name_ar": "القصر", "name_fr": "Ksar", "type": "castle", "wilaya_code": "01", "source": "OpenStreetMap", "osm_id": 1361579926, "id": 277}}, {"type": "Feature", "geometry": {"type": "Point", "coordinates": [-0.2076234, 27.2640264]}, "properties": {"name": "Ksar القصر", "name_ar": "القصر", "name_fr": "Ksar", "type": "castle", "wilaya_code": "01", "source": "OpenStreetMap", "osm_id": 1361579932, "id": 278}}, {"type": "Feature", "geometry": {"type": "Point", "coordinates": [-0.2096369, 27.2562743]}, "properties": {"name": "Ksar القصر", "name_ar": "القصر", "name_fr": "Ksar", "type": "castle", "wilaya_code": "01", "source": "OpenStreetMap", "osm_id": 1361579933, "id": 279}}, {"type": "Feature", "geometry": {"type": "Point", "coordinates": [-0.2048939, 27.6501053]}, "properties": {"name": "Ksar القصر", "name_ar": "القصر", "name_fr": "Ksar", "type": "castle", "wilaya_code": "01", "source": "OpenStreetMap", "osm_id": 1364194176, "id": 280}}, {"type": "Feature", "geometry": {"type": "Point", "coordinates": [-0.2719666, 27.7445097]}, "properties": {"name": "بالحاج", "name_ar": "بالحاج", "name_fr": "Belhadj", "type": "castle", "wilaya_code": "01", "source": "OpenStreetMap", "osm_id": 4798706321, "id": 281}}, {"type": "Feature", "geometry": {"type": "Point", "coordinates": [0.9302819, 36.1900309]}, "properties": {"name": "أولاد عدة", "name_ar": "أولاد عدة", "type": "castle", "wilaya_code": "02", "source": "OpenStreetMap", "osm_id": 7778783686, "id": 282}}, {"type": "Feature", "geometry": {"type": "Point", "coordinates": [0.9428761, 36.1570842]}, "properties": {"name": "أولاد عين الناس", "name_ar": "أولاد عين الناس", "type": "castle", "wilaya_code": "02", "source": "OpenStreetMap", "osm_id": 7778783887, "id": 283}}, {"type": "Feature", "geometry": {"type": "Point", "coordinates": [1.0104464, 36.1750361]}, "properties": {"name": "البيايض", "name_ar": "البيايض", "type": "castle", "wilaya_code": "02", "source": "OpenStreetMap", "osm_id": 7778783985, "id": 284}}, {"type": "Feature", "geometry": {"type": "Point", "coordinates": [0.9258083, 36.1674177]}, "properties": {"name": "السهايلية", "name_ar": "السهايلية", "type": "castle", "wilaya_code": "02", "source": "OpenStreetMap", "osm_id": 7778783885, "id": 285}}, {"type": "Feature", "geometry": {"type": "Point", "coordinates": [0.9483852, 36.1017066]}, "properties": {"name": "سخاريف", "name_ar": "سخاريف", "name_fr": "Skharif", "type": "castle", "wilaya_code": "02", "source": "OpenStreetMap", "osm_id": 7778783886, "id": 286}}, {"type": "Feature", "geometry": {"type": "Point", "coordinates": [0.9549582, 36.2206095]}, "properties": {"name": "عين العزلة", "name_ar": "عين العزلة", "type": "castle", "wilaya_code": "02", "source": "OpenStreetMap", "osm_id": 7472265185, "id": 287}}, {"type": "Feature", "geometry": {"type": "Point", "coordinates": [2.8802413, 33.8034368]}, "properties": {"name": "Fort Bouscaren", "type": "castle", "wilaya_code": "03", "source": "OpenStreetMap", "osm_id": 42693121, "id": 288}}, {"type": "Feature", "geometry": {"type": "Point", "coordinates": [2.300943, 33.7938532]}, "properties": {"name": "Ksar", "name_ar": "قصر عين ماضي", "type": "castle", "wilaya_code": "03", "source": "OpenStreetMap", "osm_id": 405891354, "id": 289}}, {"type": "Feature", "geometry": {"type": "Point", "coordinates": [2.34049, 33.8497]}, "properties": {"name": "Palais de Kourdane", "name_ar": "قصر كوردان", "name_fr": "palais de Kourdane", "type": "castle", "wikidata": "Q3360974", "wilaya_code": "03", "source": "Wikidata", "id": 290}}, {"type": "Feature", "geometry": {"type": "Point", "coordinates": [2.8605599, 32.9993535]}, "properties": {"name": "راس بنادم", "type": "castle", "wilaya_code": "03", "source": "OpenStreetMap", "osm_id": 12705996101, "id": 291}}, {"type": "Feature", "geometry": {"type": "Point", "coordinates": [7.116255, 35.8787548]}, "properties": {"name": "Château", "name_ar": "القبة", "name_fr": "Château", "type": "castle", "wilaya_code": "04", "source": "OpenStreetMap", "osm_id": 310446941, "id": 292}}, {"type": "Feature", "geometry": {"type": "Point", "coordinates": [6.0222573, 35.0742671]}, "properties": {"name": "اقلفن", "name_ar": "اقلفن", "type": "castle", "wilaya_code": "05", "source": "OpenStreetMap", "osm_id": 5020286272, "id": 293}}, {"type": "Feature", "geometry": {"type": "Point", "coordinates": [5.6490469, 35.6697723]}, "properties": {"name": "الجدة جوهرة بن منصور", "name_ar": "الجدة جوهرة بن منصور", "name_fr": "Nana djohra benmansour", "type": "castle", "wilaya_code": "05", "source": "OpenStreetMap", "osm_id": 5080748822, "id": 294}}, {"type": "Feature", "geometry": {"type": "Point", "coordinates": [6.4367762, 35.1276534]}, "properties": {"name": "حدود أملاك لخضر بن علي علاوة", "name_ar": "حدود أملاك لخضر بن علي علاوة", "name_fr": "Fin de la propriété de Lakhdar Ben Ali Allaoua", "type": "castle", "wilaya_code": "05", "source": "OpenStreetMap", "osm_id": 6710739885, "id": 295}}, {"type": "Feature", "geometry": {"type": "Point", "coordinates": [6.4018848, 35.0799265]}, "properties": {"name": "رأس السراء كيمل تكوت", "name_ar": "رأس السراء كيمل تكوت", "type": "castle", "wilaya_code": "05", "source": "OpenStreetMap", "osm_id": 6668792989, "id": 296}}, {"type": "Feature", "geometry": {"type": "Point", "coordinates": [6.1944315, 35.582181]}, "properties": {"name": "قاعة حفلات الزفاف طبنة", "name_ar": "قاعة حفلات الزفاف طبنة", "type": "castle", "wilaya_code": "05", "source": "OpenStreetMap", "osm_id": 5844039385, "id": 297}}, {"type": "Feature", "geometry": {"type": "Point", "coordinates": [6.0174061, 35.0791259]}, "properties": {"name": "قلعة ايقلفن", "name_ar": "قلعة ايقلفن", "type": "castle", "wilaya_code": "05", "source": "OpenStreetMap", "osm_id": 552216176, "id": 298}}, {"type": "Feature", "geometry": {"type": "Point", "coordinates": [6.064984, 35.0923068]}, "properties": {"name": "قلعة بالول", "name_ar": "قلعة بالول", "type": "castle", "wilaya_code": "05", "source": "OpenStreetMap", "osm_id": 552216174, "id": 299}}, {"type": "Feature", "geometry": {"type": "Point", "coordinates": [6.0518114, 35.097301]}, "properties": {"name": "هازمال", "name_ar": "هازمال", "type": "castle", "wilaya_code": "05", "source": "OpenStreetMap", "osm_id": 5020349494, "id": 300}}, {"type": "Feature", "geometry": {"type": "Point", "coordinates": [5.9942827, 35.0747157]}, "properties": {"name": "هاليليث", "name_ar": "هاليليث", "type": "castle", "wilaya_code": "05", "source": "OpenStreetMap", "osm_id": 5331940624, "id": 301}}, {"type": "Feature", "geometry": {"type": "Point", "coordinates": [6.0281814, 35.0848993]}, "properties": {"name": "هيطرومكث", "name_ar": "هيطرومكث", "type": "castle", "wilaya_code": "05", "source": "OpenStreetMap", "osm_id": 5020286273, "id": 302}}, {"type": "Feature", "geometry": {"type": "Point", "coordinates": [5.0836546, 36.7551096]}, "properties": {"name": "Bordj Moussa", "name_ar": "برج موسى", "name_fr": "Bordj Moussa", "type": "castle", "wikidata": "Q124425851", "wilaya_code": "06", "source": "OpenStreetMap", "osm_id": 338116028, "id": 303}}, {"type": "Feature", "geometry": {"type": "Point", "coordinates": [5.0682968, 36.7663501]}, "properties": {"name": "Fort Lemercier", "name_ar": "حصن يما قورايا", "name_fr": "Fort Lemercier", "type": "castle", "wikipedia": "ar:حصن يما قورايا", "wikidata": "Q17354602", "wilaya_code": "06", "source": "OpenStreetMap", "osm_id": 5089539019, "id": 304}}, {"type": "Feature", "geometry": {"type": "Point", "coordinates": [5.2091517, 36.6449015]}, "properties": {"name": "La comtesse", "type": "castle", "wilaya_code": "06", "source": "OpenStreetMap", "osm_id": 4578229792, "id": 305}}, {"type": "Feature", "geometry": {"type": "Point", "coordinates": [5.0812886, 36.7707745]}, "properties": {"name": "Yemma Gouraya", "name_ar": "يما قورايا", "name_fr": "Yemma Gouraya", "type": "castle", "wikipedia": "fr:Yemma Gouraya", "wikidata": "Q3572154", "wilaya_code": "06", "source": "OpenStreetMap", "osm_id": 309222600, "id": 306}}, {"type": "Feature", "geometry": {"type": "Point", "coordinates": [6.5061664, 34.6911358]}, "properties": {"name": "Ramzi", "name_fr": "Ramzi", "type": "castle", "wilaya_code": "07", "source": "OpenStreetMap", "osm_id": 7134194885, "id": 307}}, {"type": "Feature", "geometry": {"type": "Point", "coordinates": [6.0069169, 35.0291707]}, "properties": {"name": "بوووزال", "name_ar": "بوووزال", "type": "castle", "wilaya_code": "07", "source": "OpenStreetMap", "osm_id": 5020349624, "id": 308}}, {"type": "Feature", "geometry": {"type": "Point", "coordinates": [6.0150922, 35.0222299]}, "properties": {"name": "فدعنان", "name_ar": "فدعنان", "type": "castle", "wilaya_code": "07", "source": "OpenStreetMap", "osm_id": 5020349625, "id": 309}}, {"type": "Feature", "geometry": {"type": "Point", "coordinates": [5.9803866, 35.0410566]}, "properties": {"name": "هاقرنين", "name_ar": "هاقرنين", "type": "castle", "wilaya_code": "07", "source": "OpenStreetMap", "osm_id": 5331940625, "id": 310}}, {"type": "Feature", "geometry": {"type": "Point", "coordinates": [6.0427734, 35.0186459]}, "properties": {"name": "هاقليحث", "name_ar": "هاقليحث", "type": "castle", "wilaya_code": "07", "source": "OpenStreetMap", "osm_id": 4697184797, "id": 311}}, {"type": "Feature", "geometry": {"type": "Point", "coordinates": [-2.9839002, 27.319878]}, "properties": {"name": "Bordj Flye Sainte Marie", "type": "castle", "wikipedia": "fr:Bordj Flye Sainte Marie", "wikidata": "Q2910763", "wilaya_code": "08", "source": "OpenStreetMap", "osm_id": 504811761, "id": 312}}, {"type": "Feature", "geometry": {"type": "Point", "coordinates": [3.7481752, 25.2926518]}, "properties": {"name": "Bordj Arak", "type": "castle", "wilaya_code": "11", "source": "OpenStreetMap", "osm_id": 562083262, "id": 313}}, {"type": "Feature", "geometry": {"type": "Point", "coordinates": [6.0106289, 22.9793908]}, "properties": {"name": "مكان", "type": "castle", "wilaya_code": "11", "source": "OpenStreetMap", "osm_id": 8825725719, "id": 314}}, {"type": "Feature", "geometry": {"type": "Point", "coordinates": [8.1217254, 35.4033789]}, "properties": {"name": "النجم الثاقب تبسة", "name_ar": "النجم الثاقب تبسة", "name_fr": "L'étoile filante Tebessa", "type": "castle", "wilaya_code": "12", "source": "OpenStreetMap", "osm_id": 4582086790, "id": 315}}, {"type": "Feature", "geometry": {"type": "Point", "coordinates": [8.1173771, 35.4012833]}, "properties": {"name": "النسر الذهبي", "name_ar": "النسر الذهبي", "name_fr": "L'Aigle d'Or", "type": "castle", "wilaya_code": "12", "source": "OpenStreetMap", "osm_id": 4274571091, "id": 316}}, {"type": "Feature", "geometry": {"type": "Point", "coordinates": [8.1230636, 35.4046685]}, "properties": {"name": "باب كاركلا تبسة", "name_ar": "باب كاركلا تبسة", "name_fr": "Porte CARACALLA Tebessa", "type": "castle", "wikipedia": "ar:قوس كاراكالا (تبسة)", "wikidata": "Q3621773", "wilaya_code": "12", "source": "OpenStreetMap", "osm_id": 2682856138, "id": 317}}, {"type": "Feature", "geometry": {"type": "Point", "coordinates": [-1.3808166, 35.0455863]}, "properties": {"name": "Belkessakis", "name_fr": "Belkessakis", "type": "castle", "wilaya_code": "13", "source": "OpenStreetMap", "osm_id": 5787745157, "id": 318}}, {"type": "Feature", "geometry": {"type": "Point", "coordinates": [-1.289783, 34.8776621]}, "properties": {"name": "Medersa KHALDOUNIA -المدرسة الخلدونية -ⵎⴷⴰⵔⵙⴰ ⵜⴰⵅⴰⵍⴷⵓⵏⵉⵜ", "name_fr": "Medersa Khaldounia", "type": "castle", "wilaya_code": "13", "source": "OpenStreetMap", "osm_id": 518138599, "id": 319}}, {"type": "Feature", "geometry": {"type": "Point", "coordinates": [-1.3090274, 34.8816047]}, "properties": {"name": "Palais Royale Zianide - القصر الملكي الزياني -ⵜⴰⴳⴰⴷⵉⵔⵜ ⵜⴰⴳⴻⵍⴷⴰⵏⵜ ⵜⴰⵣⵢⵢⴰⵏⵉⵜ", "name_ar": "القصر الملكي الزياني", "name_fr": "Palais Royale Zianide", "type": "castle", "wilaya_code": "13", "source": "OpenStreetMap", "osm_id": 14571675, "id": 320}}, {"type": "Feature", "geometry": {"type": "Point", "coordinates": [-1.2897724, 34.8781505]}, "properties": {"name": "Palais du Sultan قصر السلطان ⵜⴰⴳⴰⴷⵉⵔⵜ ⵏ ⵙⵓⵍⵟⴰⵏ", "name_ar": "قصر السلطان", "name_fr": "Palais du Sultan", "type": "castle", "wilaya_code": "13", "source": "OpenStreetMap", "osm_id": 518138602, "id": 321}}, {"type": "Feature", "geometry": {"type": "Point", "coordinates": [-1.3088585, 34.8809396]}, "properties": {"name": "Palais el-Mechouar", "name_ar": "قصر المشور", "name_fr": "Palais el-Mechouar", "type": "castle", "wikipedia": "fr:Palais El Mechouar", "wikidata": "Q3360854", "wilaya_code": "13", "source": "OpenStreetMap", "osm_id": 100273033, "id": 322}}, {"type": "Feature", "geometry": {"type": "Point", "coordinates": [-1.6562682, 35.1743139]}, "properties": {"name": "حصن هنين", "name_ar": "حصن هنين", "name_fr": "Forteresse de Honaïne", "type": "castle", "wilaya_code": "13", "source": "OpenStreetMap", "osm_id": 920587913, "id": 323}}, {"type": "Feature", "geometry": {"type": "Point", "coordinates": [4.2807392, 36.5533927]}, "properties": {"name": "Base", "name_ar": "قاعة", "type": "castle", "wilaya_code": "15", "source": "OpenStreetMap", "osm_id": 5042422021, "id": 324}}, {"type": "Feature", "geometry": {"type": "Point", "coordinates": [4.0473276, 36.7090062]}, "properties": {"name": "Bordj Turc", "name_ar": "البرج التركي", "name_fr": "Bordj Turc", "type": "castle", "wilaya_code": "15", "source": "OpenStreetMap", "osm_id": 370226262, "id": 325}}, {"type": "Feature", "geometry": {"type": "Point", "coordinates": [4.069894, 36.781897]}, "properties": {"name": "Mécanicien makouda", "type": "castle", "wilaya_code": "15", "source": "OpenStreetMap", "osm_id": 6578143185, "id": 326}}, {"type": "Feature", "geometry": {"type": "Point", "coordinates": [4.3929687, 36.6568593]}, "properties": {"name": "château d'eau", "type": "castle", "wilaya_code": "15", "source": "OpenStreetMap", "osm_id": 632279595, "id": 327}}, {"type": "Feature", "geometry": {"type": "Point", "coordinates": [3.059471, 36.7849147]}, "properties": {"name": "Al Hambra Palace", "type": "castle", "wilaya_code": "16", "source": "OpenStreetMap", "osm_id": 11925037601, "id": 328}}, {"type": "Feature", "geometry": {"type": "Point", "coordinates": [3.045979, 36.7736868]}, "properties": {"name": "Bordj Moulay Hassen برج مولاي حسن", "name_ar": "برج مولاي حسن", "name_fr": "Fort de Moulay Hassen", "type": "castle", "wikipedia": "fr:Fort l'Empereur", "wikidata": "Q3078279", "wilaya_code": "16", "source": "OpenStreetMap", "osm_id": 17972296, "id": 329}}, {"type": "Feature", "geometry": {"type": "Point", "coordinates": [3.0440189, 36.7476751]}, "properties": {"name": "Chateau", "type": "castle", "wilaya_code": "16", "source": "OpenStreetMap", "osm_id": 5134771322, "id": 330}}, {"type": "Feature", "geometry": {"type": "Point", "coordinates": [2.9962332, 36.7301201]}, "properties": {"name": "Château de Draria", "type": "castle", "wilaya_code": "16", "source": "OpenStreetMap", "osm_id": 3317692, "id": 331}}, {"type": "Feature", "geometry": {"type": "Point", "coordinates": [3.0614463, 36.7858984]}, "properties": {"name": "Dar Ahmed Pacha", "name_ar": "دار أحمد باشا", "type": "castle", "wilaya_code": "16", "source": "OpenStreetMap", "osm_id": 1267569904, "id": 332}}, {"type": "Feature", "geometry": {"type": "Point", "coordinates": [3.0679921, 36.7866966]}, "properties": {"name": "Ex-Palais du Oukil El Hardj القصر السابق لوكيل الحرج", "name_ar": "القصر السابق لوكيل الحرج", "name_fr": "Ex-Palais du Oukil El Hardj", "type": "castle", "wilaya_code": "16", "source": "OpenStreetMap", "osm_id": 431479271, "id": 333}}, {"type": "Feature", "geometry": {"type": "Point", "coordinates": [3.061475, 36.7861525]}, "properties": {"name": "Le Vieux Palais", "type": "castle", "wilaya_code": "16", "source": "OpenStreetMap", "osm_id": 17680960, "id": 334}}, {"type": "Feature", "geometry": {"type": "Point", "coordinates": [3.0463803, 36.7603824]}, "properties": {"name": "Musée National du Bardo", "name_ar": "المتحف الوطني باردو", "name_fr": "Musée Public National du Bardo", "type": "castle", "wikipedia": "fr:Musée national du Bardo (Algérie)", "wikidata": "Q3330730", "wilaya_code": "16", "source": "OpenStreetMap", "osm_id": 18668624, "id": 335}}, {"type": "Feature", "geometry": {"type": "Point", "coordinates": [3.0482966, 36.7570903]}, "properties": {"name": "Palais Mustapha Pacha قصر مصطفى باشا", "name_ar": "قصر مصطفى باشا", "name_fr": "Palais Mustapha Pacha", "type": "castle", "wilaya_code": "16", "source": "OpenStreetMap", "osm_id": 537418651, "id": 336}}, {"type": "Feature", "geometry": {"type": "Point", "coordinates": [3.0461118, 36.7589351]}, "properties": {"name": "Palais du Peuple", "type": "castle", "wilaya_code": "16", "source": "OpenStreetMap", "osm_id": 273506719, "id": 337}}, {"type": "Feature", "geometry": {"type": "Point", "coordinates": [2.846914, 36.764235]}, "properties": {"name": "Sidi Fredj", "type": "castle", "wilaya_code": "16", "source": "OpenStreetMap", "osm_id": 268696772, "id": 338}}, {"type": "Feature", "geometry": {"type": "Point", "coordinates": [3.0731079, 36.7447485]}, "properties": {"name": "Villa Abdelatif", "name_ar": "دار عبد اللطيف", "name_fr": "Villa Abdelatif", "type": "castle", "wikipedia": "fr:Villa Abd-el-Tif", "wikidata": "Q3558439", "wilaya_code": "16", "source": "OpenStreetMap", "osm_id": 273321488, "id": 339}}, {"type": "Feature", "geometry": {"type": "Point", "coordinates": [3.062233, 36.7874546]}, "properties": {"name": "دار الحمراء", "type": "castle", "wilaya_code": "16", "source": "OpenStreetMap", "osm_id": 11925189575, "id": 340}}, {"type": "Feature", "geometry": {"type": "Point", "coordinates": [3.0609196, 36.7852564]}, "properties": {"name": "دار حسن باشا", "name_ar": "دار حسن باشا", "name_fr": "Dar Hassan Pacha", "type": "castle", "wilaya_code": "16", "source": "OpenStreetMap", "osm_id": 20325219, "id": 341}}, {"type": "Feature", "geometry": {"type": "Point", "coordinates": [3.055111, 36.7845463]}, "properties": {"name": "قصر الداي", "name_ar": "قصر الداي", "name_fr": "Palais du Dey", "type": "castle", "wikipedia": "ar:قصر الداي", "wikidata": "Q12232990", "wilaya_code": "16", "source": "OpenStreetMap", "osm_id": 11931096136, "id": 342}}, {"type": "Feature", "geometry": {"type": "Point", "coordinates": [3.0639774, 36.7882833]}, "properties": {"name": "قصر رياس البحر", "name_ar": "قصر رياس البحر", "name_fr": "Palais Côtier du Raïs", "type": "castle", "wikipedia": "fr:Palais des Raïs", "wikidata": "Q3361082", "wilaya_code": "16", "source": "OpenStreetMap", "osm_id": 6724867, "id": 343}}, {"type": "Feature", "geometry": {"type": "Point", "coordinates": [5.7727747, 36.8192168]}, "properties": {"name": "Fort Duquesne", "type": "castle", "wilaya_code": "18", "source": "OpenStreetMap", "osm_id": 437738331, "id": 344}}, {"type": "Feature", "geometry": {"type": "Point", "coordinates": [5.9860307, 36.8332334]}, "properties": {"name": "منزل لورغي", "name_ar": "منزل لورغي", "name_fr": "Maison Lourghi", "type": "castle", "wilaya_code": "18", "source": "OpenStreetMap", "osm_id": 5214720121, "id": 345}}, {"type": "Feature", "geometry": {"type": "Point", "coordinates": [5.453056, 36.1482686]}, "properties": {"name": "el yasmine", "type": "castle", "wilaya_code": "19", "source": "OpenStreetMap", "osm_id": 4370204864, "id": 346}}, {"type": "Feature", "geometry": {"type": "Point", "coordinates": [0.1523435, 34.8353833]}, "properties": {"name": "Djeladjel Hamid", "name_fr": "Djeladjel Hamid", "type": "castle", "wilaya_code": "20", "source": "OpenStreetMap", "osm_id": 4517689090, "id": 347}}, {"type": "Feature", "geometry": {"type": "Point", "coordinates": [6.8993685, 36.5989653]}, "properties": {"name": "BELGAHRI.Sebti", "name_fr": "BELGAHRI.Sebti", "type": "castle", "wilaya_code": "21", "source": "OpenStreetMap", "osm_id": 4463085589, "id": 348}}, {"type": "Feature", "geometry": {"type": "Point", "coordinates": [6.6330909, 36.6287515]}, "properties": {"name": "Dar", "name_fr": "Dar", "type": "castle", "wilaya_code": "21", "source": "OpenStreetMap", "osm_id": 4872871021, "id": 349}}, {"type": "Feature", "geometry": {"type": "Point", "coordinates": [6.8971381, 36.8865648]}, "properties": {"name": "Palais Meriem (Chateau Bengana)", "type": "castle", "wilaya_code": "21", "source": "OpenStreetMap", "osm_id": 352694110, "id": 350}}, {"type": "Feature", "geometry": {"type": "Point", "coordinates": [-0.6788162, 35.1896666]}, "properties": {"name": "Chateau Perrin", "type": "castle", "wilaya_code": "22", "source": "OpenStreetMap", "osm_id": 219390764, "id": 351}}, {"type": "Feature", "geometry": {"type": "Point", "coordinates": [6.6162393, 36.3136454]}, "properties": {"name": "Dar", "name_fr": "Dar", "type": "castle", "wilaya_code": "25", "source": "OpenStreetMap", "osm_id": 7258949585, "id": 352}}, {"type": "Feature", "geometry": {"type": "Point", "coordinates": [6.6115537, 36.3678005]}, "properties": {"name": "Palais du Bey", "name_ar": "قصر الباي", "name_fr": "Palais du Bey", "type": "castle", "wilaya_code": "25", "source": "OpenStreetMap", "osm_id": 312325317, "id": 353}}, {"type": "Feature", "geometry": {"type": "Point", "coordinates": [0.0906989, 35.9197968]}, "properties": {"name": "Cité zagheloul f", "type": "castle", "wilaya_code": "27", "source": "OpenStreetMap", "osm_id": 6950569986, "id": 354}}, {"type": "Feature", "geometry": {"type": "Point", "coordinates": [0.0964291, 35.9342815]},