{"type": "FeatureCollection", "features": [{"type": "Feature", "geometry": {"type": "Point", "coordinates": [-0.2620846, 28.4162728]}, "properties": {"name": "عريان الراس", "name_ar": "عريان الراس تسابيت", "type": "alpine_hut", "wilaya_code": "01", "source": "OpenStreetMap", "osm_id": 8107956617, "id": 1, "lat": 28.4162728, "lng": -0.2620846}}, {"type": "Feature", "geometry": {"type": "Point", "coordinates": [1.0769369, 26.9792583]}, "properties": {"name": "داري في اولف", "type": "apartment", "wilaya_code": "01", "source": "OpenStreetMap", "osm_id": 8754034217, "id": 2, "lat": 26.9792583, "lng": 1.0769369}}, {"type": "Feature", "geometry": {"type": "Point", "coordinates": [-0.2380453, 28.3996497]}, "properties": {"name": "زقاق بلة", "name_ar": "زقاق بلة", "type": "apartment", "wilaya_code": "01", "source": "OpenStreetMap", "osm_id": 5599246824, "id": 3, "lat": 28.3996497, "lng": -0.2380453}}, {"type": "Feature", "geometry": {"type": "Point", "coordinates": [0.4285365, 27.8187522]}, "properties": {"name": "حاسي لاتو", "name_ar": "حاسي لاتو", "type": "chalet", "wilaya_code": "01", "source": "OpenStreetMap", "osm_id": 6232826885, "id": 4, "lat": 27.8187522, "lng": 0.4285365}}, {"type": "Feature", "geometry": {"type": "Point", "coordinates": [-0.311933, 27.8748356]}, "properties": {"name": "الشيخ دلا", "type": "guest_house", "wilaya_code": "01", "source": "OpenStreetMap", "osm_id": 9221300717, "id": 5, "lat": 27.8748356, "lng": -0.311933}}, {"type": "Feature", "geometry": {"type": "Point", "coordinates": [0.1336967, 26.7499533]}, "properties": {"name": "قرية النفيس", "name_ar": "قرية النفيس", "type": "guest_house", "wilaya_code": "01", "source": "OpenStreetMap", "osm_id": 4428713392, "id": 6, "lat": 26.7499533, "lng": 0.1336967}}, {"type": "Feature", "geometry": {"type": "Point", "coordinates": [0.1305933, 26.749494]}, "properties": {"name": "قصر النفيس", "name_ar": "قصر النفيس", "type": "guest_house", "wilaya_code": "01", "source": "OpenStreetMap", "osm_id": 4424199892, "id": 7, "lat": 26.749494, "lng": 0.1305933}}, {"type": "Feature", "geometry": {"type": "Point", "coordinates": [1.0858916, 26.9762605]}, "properties": {"name": "Maison de Jeunes", "name_ar": "بيت الشباب", "type": "hostel", "wilaya_code": "01", "source": "OpenStreetMap", "osm_id": 6418599, "id": 8, "lat": 26.9762605, "lng": 1.0858916}}, {"type": "Feature", "geometry": {"type": "Point", "coordinates": [1.0871206, 26.9583556]}, "properties": {"name": "Maison de Jeunes", "type": "hostel", "wilaya_code": "01", "source": "OpenStreetMap", "osm_id": 6419764, "id": 9, "lat": 26.9583556, "lng": 1.0871206}}, {"type": "Feature", "geometry": {"type": "Point", "coordinates": [-0.2792621, 27.8678657]}, "properties": {"name": "Maison des Jeunes Houari Boumedien", "type": "hostel", "wilaya_code": "01", "source": "OpenStreetMap", "osm_id": 432711200, "id": 10, "lat": 27.8678657, "lng": -0.2792621}}, {"type": "Feature", "geometry": {"type": "Point", "coordinates": [1.088649, 26.9720945]}, "properties": {"name": "بيت الشباب", "name_ar": "بيت الشباب", "type": "hostel", "wilaya_code": "01", "source": "OpenStreetMap", "osm_id": 299131991, "id": 11, "lat": 26.9720945, "lng": 1.088649}}, {"type": "Feature", "geometry": {"type": "Point", "coordinates": [-0.2804635, 27.8827653]}, "properties": {"name": "بيت الشباب", "name_ar": "بيت الشباب", "type": "hostel", "wilaya_code": "01", "source": "OpenStreetMap", "osm_id": 390580008, "id": 12, "lat": 27.8827653, "lng": -0.2804635}}, {"type": "Feature", "geometry": {"type": "Point", "coordinates": [-0.293718, 27.871895]}, "properties": {"name": "مرقد لتلاميذ المسجد", "name_ar": "مرقد لتلاميذ المسجد", "type": "hostel", "wilaya_code": "01", "source": "OpenStreetMap", "osm_id": 314935848, "id": 13, "lat": 27.871895, "lng": -0.293718}}, {"type": "Feature", "geometry": {"type": "Point", "coordinates": [-0.2734576, 27.872321]}, "properties": {"name": "Hotel", "type": "hotel", "wilaya_code": "01", "source": "OpenStreetMap", "osm_id": 432710540, "id": 14, "lat": 27.872321, "lng": -0.2734576}}, {"type": "Feature", "geometry": {"type": "Point", "coordinates": [-0.286805, 27.8841398]}, "properties": {"name": "HÔTEL TOUATE SONATRACH", "type": "hotel", "wilaya_code": "01", "source": "OpenStreetMap", "osm_id": 5177397723, "id": 15, "lat": 27.8841398, "lng": -0.286805}}, {"type": "Feature", "geometry": {"type": "Point", "coordinates": [-0.2894043, 27.8746252]}, "properties": {"name": "Hôtel Ain Bouda", "type": "hotel", "wilaya_code": "01", "source": "OpenStreetMap", "osm_id": 9574999027, "id": 16, "lat": 27.8746252, "lng": -0.2894043}}, {"type": "Feature", "geometry": {"type": "Point", "coordinates": [-0.2776847, 28.0042369]}, "properties": {"name": "المركب السياحي مراغن", "name_ar": "المركب السياحي مراغن", "name_fr": "Complexe touristique Mraguen", "type": "hotel", "phone": "+213 49 960211;+213 49 967625;+213 49 967629", "website": "https://www.mraguen.com/", "wilaya_code": "01", "source": "OpenStreetMap", "osm_id": 307369332, "id": 17, "lat": 28.0042369, "lng": -0.2776847}}, {"type": "Feature", "geometry": {"type": "Point", "coordinates": [1.0791616, 26.9724126]}, "properties": {"name": "دار الضياف", "name_ar": "دار الضياف", "name_fr": "Maison d'Hôtes", "type": "hotel", "wilaya_code": "01", "source": "OpenStreetMap", "osm_id": 4393615158, "id": 18, "lat": 26.9724126, "lng": 1.0791616}}, {"type": "Feature", "geometry": {"type": "Point", "coordinates": [-0.284837, 27.8853977]}, "properties": {"name": "فندق الجامعة الأفريقية", "name_ar": "فندق الجامعة الأفريقية", "name_fr": "Hôtel de l'Université Africainne", "type": "hotel", "wilaya_code": "01", "source": "OpenStreetMap", "osm_id": 4700333889, "id": 19, "lat": 27.8853977, "lng": -0.284837}}, {"type": "Feature", "geometry": {"type": "Point", "coordinates": [-0.2857114, 27.8730352]}, "properties": {"name": "فندق توات", "name_ar": "فندق توات", "name_fr": "Hôtel Touat", "type": "hotel", "wilaya_code": "01", "source": "OpenStreetMap", "osm_id": 475167337, "id": 20, "lat": 27.8730352, "lng": -0.2857114}}, {"type": "Feature", "geometry": {"type": "Point", "coordinates": [-0.2849202, 27.8850244]}, "properties": {"name": "فندق توات سوناطراك", "name_ar": "فندق توات سوناطراك", "name_fr": "HÔTEL TOUAT SONATRCH", "type": "hotel", "wilaya_code": "01", "source": "OpenStreetMap", "osm_id": 5181860221, "id": 21, "lat": 27.8850244, "lng": -0.2849202}}, {"type": "Feature", "geometry": {"type": "Point", "coordinates": [0.9431033, 36.1571857]}, "properties": {"name": "أولاد عين الناس", "name_ar": "أولاد عين الناس", "type": "alpine_hut", "wilaya_code": "02", "source": "OpenStreetMap", "osm_id": 7778783685, "id": 22, "lat": 36.1571857, "lng": 0.9431033}}, {"type": "Feature", "geometry": {"type": "Point", "coordinates": [0.9827748, 36.1322228]}, "properties": {"name": "العبادلية", "name_ar": "العبادلية", "type": "alpine_hut", "wilaya_code": "02", "source": "OpenStreetMap", "osm_id": 5620792221, "id": 23, "lat": 36.1322228, "lng": 0.9827748}}, {"type": "Feature", "geometry": {"type": "Point", "coordinates": [0.9832663, 36.1448182]}, "properties": {"name": "حي المنكوبين", "name_ar": "حي المنكوبين", "type": "alpine_hut", "wilaya_code": "02", "source": "OpenStreetMap", "osm_id": 7472265586, "id": 24, "lat": 36.1448182, "lng": 0.9832663}}, {"type": "Feature", "geometry": {"type": "Point", "coordinates": [1.1240985, 36.0524985]}, "properties": {"name": "أعوج", "name_ar": "أعوج", "type": "apartment", "wilaya_code": "02", "source": "OpenStreetMap", "osm_id": 8108011917, "id": 25, "lat": 36.0524985, "lng": 1.1240985}}, {"type": "Feature", "geometry": {"type": "Point", "coordinates": [1.4766398, 36.2189895]}, "properties": {"name": "AIMEUR KARIM", "type": "guest_house", "wilaya_code": "02", "source": "OpenStreetMap", "osm_id": 5689083521, "id": 26, "lat": 36.2189895, "lng": 1.4766398}}, {"type": "Feature", "geometry": {"type": "Point", "coordinates": [1.1234787, 36.0522325]}, "properties": {"name": "Hotel", "type": "guest_house", "wilaya_code": "02", "source": "OpenStreetMap", "osm_id": 8108012117, "id": 27, "lat": 36.0522325, "lng": 1.1234787}}, {"type": "Feature", "geometry": {"type": "Point", "coordinates": [1.23926, 36.4236456]}, "properties": {"name": "kaloul", "type": "guest_house", "wilaya_code": "02", "source": "OpenStreetMap", "osm_id": 5652403922, "id": 28, "lat": 36.4236456, "lng": 1.23926}}, {"type": "Feature", "geometry": {"type": "Point", "coordinates": [1.3396728, 36.1635012]}, "properties": {"name": "Auberge de jeunesse", "name_ar": "دار الشباب", "type": "hostel", "wilaya_code": "02", "source": "OpenStreetMap", "osm_id": 4583252990, "id": 29, "lat": 36.1635012, "lng": 1.3396728}}, {"type": "Feature", "geometry": {"type": "Point", "coordinates": [1.3386792, 36.1648055]}, "properties": {"name": "Grand hôtel", "type": "hotel", "wilaya_code": "02", "source": "OpenStreetMap", "osm_id": 12143015571, "id": 30, "lat": 36.1648055, "lng": 1.3386792}}, {"type": "Feature", "geometry": {"type": "Point", "coordinates": [1.3362984, 36.1694297]}, "properties": {"name": "HOTEL CASTELLUM", "type": "hotel", "wilaya_code": "02", "source": "OpenStreetMap", "osm_id": 518660675, "id": 31, "lat": 36.1694297, "lng": 1.3362984}}, {"type": "Feature", "geometry": {"type": "Point", "coordinates": [1.3426748, 36.1655657]}, "properties": {"name": "Hotel les Orangers", "type": "hotel", "wilaya_code": "02", "source": "OpenStreetMap", "osm_id": 9295404145, "id": 32, "lat": 36.1655657, "lng": 1.3426748}}, {"type": "Feature", "geometry": {"type": "Point", "coordinates": [1.3075741, 36.5078678]}, "properties": {"name": "Hôtel des Arts", "name_ar": "فندق الفنون", "name_fr": "Hôtel des Arts", "type": "hotel", "wilaya_code": "02", "source": "OpenStreetMap", "osm_id": 3925796537, "id": 33, "lat": 36.5078678, "lng": 1.3075741}}, {"type": "Feature", "geometry": {"type": "Point", "coordinates": [1.5253267, 36.185929]}, "properties": {"name": "Hôtel des Platanes", "type": "hotel", "address": "N4", "wilaya_code": "02", "source": "OpenStreetMap", "osm_id": 2178973121, "id": 34, "lat": 36.185929, "lng": 1.5253267}}, {"type": "Feature", "geometry": {"type": "Point", "coordinates": [1.3448136, 36.1735549]}, "properties": {"name": "Hôtel la vallée", "name_ar": "فندق الوادي", "type": "hotel", "address": "Entrée Est de Chlef", "wilaya_code": "02", "source": "OpenStreetMap", "osm_id": 427471238, "id": 35, "lat": 36.1735549, "lng": 1.3448136}}, {"type": "Feature", "geometry": {"type": "Point", "coordinates": [1.3409876, 36.1670839]}, "properties": {"name": "Mirador", "name_fr": "Miredore palace chlef", "type": "hotel", "phone": "027779469", "wilaya_code": "02", "source": "OpenStreetMap", "osm_id": 4882304821, "id": 36, "lat": 36.1670839, "lng": 1.3409876}}, {"type": "Feature", "geometry": {"type": "Point", "coordinates": [1.3362916, 36.1694852]}, "properties": {"name": "hotel CASTELLUM", "name_ar": "فندق كاستلوم", "type": "hotel", "wilaya_code": "02", "source": "OpenStreetMap", "osm_id": 4569339492, "id": 37, "lat": 36.1694852, "lng": 1.3362916}}, {"type": "Feature", "geometry": {"type": "Point", "coordinates": [1.332746, 36.1668901]}, "properties": {"name": "فندق الونشريس", "name_ar": "فندق الونشريس", "name_fr": "Hôtel El Ouancheris", "type": "hotel", "phone": "+213 27 77 86 80", "address": "Place Ettadhamoun", "wilaya_code": "02", "source": "OpenStreetMap", "osm_id": 427550033, "id": 38, "lat": 36.1668901, "lng": 1.332746}}, {"type": "Feature", "geometry": {"type": "Point", "coordinates": [1.1388314, 36.0695576]}, "properties": {"name": "El Quods", "type": "motel", "wilaya_code": "02", "source": "OpenStreetMap", "osm_id": 3385998323, "id": 39, "lat": 36.0695576, "lng": 1.1388314}}, {"type": "Feature", "geometry": {"type": "Point", "coordinates": [2.8721128, 33.8184936]}, "properties": {"name": "حي 38 سكن الاغواط", "name_ar": "حي 38 سكن الاغواط", "type": "apartment", "wilaya_code": "03", "source": "OpenStreetMap", "osm_id": 6016307685, "id": 40, "lat": 33.8184936, "lng": 2.8721128}}, {"type": "Feature", "geometry": {"type": "Point", "coordinates": [3.2608913, 32.9474395]}, "properties": {"name": "base de cossider", "type": "chalet", "wilaya_code": "03", "source": "OpenStreetMap", "osm_id": 363624027, "id": 41, "lat": 32.9474395, "lng": 3.2608913}}, {"type": "Feature", "geometry": {"type": "Point", "coordinates": [2.8820746, 33.8069365]}, "properties": {"name": "Villa d'Hôtes de la Wilaya", "type": "guest_house", "wilaya_code": "03", "source": "OpenStreetMap", "osm_id": 43230179, "id": 42, "lat": 33.8069365, "lng": 2.8820746}}, {"type": "Feature", "geometry": {"type": "Point", "coordinates": [2.8686868, 33.8081743]}, "properties": {"name": "اقامة الولاية", "type": "guest_house", "wilaya_code": "03", "source": "OpenStreetMap", "osm_id": 13340867001, "id": 43, "lat": 33.8081743, "lng": 2.8686868}}, {"type": "Feature", "geometry": {"type": "Point", "coordinates": [2.8709423, 33.8121987]}, "properties": {"name": "Auberge de jeunes", "type": "hostel", "wilaya_code": "03", "source": "OpenStreetMap", "osm_id": 43224976, "id": 44, "lat": 33.8121987, "lng": 2.8709423}}, {"type": "Feature", "geometry": {"type": "Point", "coordinates": [3.1447615, 33.7883731]}, "properties": {"name": "دارالشباب قصر الحيران ب ع", "name_ar": "دارالشباب قصر الحيران ب ع", "type": "hostel", "wilaya_code": "03", "source": "OpenStreetMap", "osm_id": 4575673089, "id": 45, "lat": 33.7883731, "lng": 3.1447615}}, {"type": "Feature", "geometry": {"type": "Point", "coordinates": [2.8582199, 33.8021944]}, "properties": {"name": "Hotel El Boustane", "name_ar": "فندق البستان", "type": "hotel", "stars": 3, "wilaya_code": "03", "source": "OpenStreetMap", "osm_id": 539149760, "id": 46, "lat": 33.8021944, "lng": 2.8582199}}, {"type": "Feature", "geometry": {"type": "Point", "coordinates": [2.8831491, 33.8084307]}, "properties": {"name": "Hôtel Marhaba", "name_ar": "فندق مرحبا", "name_fr": "Hôtel Marhaba", "type": "hotel", "stars": 3, "wilaya_code": "03", "source": "OpenStreetMap", "osm_id": 539149763, "id": 47, "lat": 33.8084307, "lng": 2.8831491}}, {"type": "Feature", "geometry": {"type": "Point", "coordinates": [2.8739273, 33.7982844]}, "properties": {"name": "Hôtel Militaire", "type": "hotel", "wilaya_code": "03", "source": "OpenStreetMap", "osm_id": 43582543, "id": 48, "lat": 33.7982844, "lng": 2.8739273}}, {"type": "Feature", "geometry": {"type": "Point", "coordinates": [2.8854332, 33.8099034]}, "properties": {"name": "Hôtel Riad El Sotane", "type": "hotel", "wilaya_code": "03", "source": "OpenStreetMap", "osm_id": 11368685400, "id": 49, "lat": 33.8099034, "lng": 2.8854332}}, {"type": "Feature", "geometry": {"type": "Point", "coordinates": [2.8688539, 33.8136029]}, "properties": {"name": "Hôtel Sahraoui", "type": "hotel", "wilaya_code": "03", "source": "OpenStreetMap", "osm_id": 429391044, "id": 50, "lat": 33.8136029, "lng": 2.8688539}}, {"type": "Feature", "geometry": {"type": "Point", "coordinates": [2.8454044, 33.7900732]}, "properties": {"name": "الإقامة الجامعية 3000 سرير", "name_ar": "الإقامة الجامعية 3000 سرير", "name_fr": "Cité Universitaire 3000 Lits", "type": "hotel", "wilaya_code": "03", "source": "OpenStreetMap", "osm_id": 4964551021, "id": 51, "lat": 33.7900732, "lng": 2.8454044}}, {"type": "Feature", "geometry": {"type": "Point", "coordinates": [2.8718895, 33.8135919]}, "properties": {"name": "فندق رانيا", "name_ar": "فندق رانيا", "name_fr": "Hôtel Rania", "type": "hotel", "address": "Emir Khaled", "wilaya_code": "03", "source": "OpenStreetMap", "osm_id": 5167324921, "id": 52, "lat": 33.8135919, "lng": 2.8718895}}, {"type": "Feature", "geometry": {"type": "Point", "coordinates": [2.8586391, 33.8027706]}, "properties": {"name": "فندق سيشال", "name_ar": "فندق سيشال", "name_fr": "Hôtel Sechel", "type": "hotel", "phone": "+213 29 116 673", "website": "http://www.Facebook.com/hotelsechel", "address": "Route nationale n°1 maamourah laghouat", "wilaya_code": "03", "source": "OpenStreetMap", "osm_id": 703723020, "id": 53, "lat": 33.8027706, "lng": 2.8586391}}, {"type": "Feature", "geometry": {"type": "Point", "coordinates": [2.873867, 33.8131546]}, "properties": {"name": "مڨاطع", "type": "hotel", "wilaya_code": "03", "source": "OpenStreetMap", "osm_id": 10700624905, "id": 54, "lat": 33.8131546, "lng": 2.873867}}, {"type": "Feature", "geometry": {"type": "Point", "coordinates": [7.3779595, 35.7904077]}, "properties": {"name": "Domicile", "type": "guest_house", "wilaya_code": "04", "source": "OpenStreetMap", "osm_id": 8222505912, "id": 55, "lat": 35.7904077, "lng": 7.3779595}}, {"type": "Feature", "geometry": {"type": "Point", "coordinates": [6.5836111, 36.0330336]}, "properties": {"name": "Sale du fétt", "type": "guest_house", "wilaya_code": "04", "source": "OpenStreetMap", "osm_id": 6739824285, "id": 56, "lat": 36.0330336, "lng": 6.5836111}}, {"type": "Feature", "geometry": {"type": "Point", "coordinates": [7.1086054, 35.8769716]}, "properties": {"name": "auberge OEB", "name_ar": "مبيت الشباب", "type": "hostel", "wilaya_code": "04", "source": "OpenStreetMap", "osm_id": 310964799, "id": 57, "lat": 35.8769716, "lng": 7.1086054}}, {"type": "Feature", "geometry": {"type": "Point", "coordinates": [6.5768753, 36.0316311]}, "properties": {"name": "Hotel Frères Bouali", "name_fr": "Hotel Frères Bouali", "type": "hotel", "wilaya_code": "04", "source": "OpenStreetMap", "osm_id": 4971795223, "id": 58, "lat": 36.0316311, "lng": 6.5768753}}, {"type": "Feature", "geometry": {"type": "Point", "coordinates": [6.5733113, 36.0321506]}, "properties": {"name": "Hôtel Mosbah Kamel", "type": "hotel", "wilaya_code": "04", "source": "OpenStreetMap", "osm_id": 4327679897, "id": 59, "lat": 36.0321506, "lng": 6.5733113}}, {"type": "Feature", "geometry": {"type": "Point", "coordinates": [7.1047736, 35.8764682]}, "properties": {"name": "Hôtel Oum El Bouaghi", "type": "hotel", "wilaya_code": "04", "source": "OpenStreetMap", "osm_id": 315391681, "id": 60, "lat": 35.8764682, "lng": 7.1047736}}, {"type": "Feature", "geometry": {"type": "Point", "coordinates": [7.1048531, 35.8765146]}, "properties": {"name": "Hôtel Oum El Bouaghi", "type": "hotel", "wilaya_code": "04", "source": "OpenStreetMap", "osm_id": 988503967, "id": 61, "lat": 35.8765146, "lng": 7.1048531}}, {"type": "Feature", "geometry": {"type": "Point", "coordinates": [7.1037361, 35.8758231]}, "properties": {"name": "Marhaba", "type": "hotel", "address": "نهج أول نوفمبر 1954", "wilaya_code": "04", "source": "OpenStreetMap", "osm_id": 317003692, "id": 62, "lat": 35.8758231, "lng": 7.1037361}}, {"type": "Feature", "geometry": {"type": "Point", "coordinates": [7.0995321, 35.8789923]}, "properties": {"name": "auberge sportive USC -football-", "name_ar": "نزل اتحاد الشاوية - عنتر بوزيد", "type": "hotel", "wilaya_code": "04", "source": "OpenStreetMap", "osm_id": 315379536, "id": 63, "lat": 35.8789923, "lng": 7.0995321}}, {"type": "Feature", "geometry": {"type": "Point", "coordinates": [7.1092508, 35.8710614]}, "properties": {"name": "فندق السندباد", "name_ar": "Hôtel el sindibad", "name_fr": "Sandibad", "type": "hotel", "wilaya_code": "04", "source": "OpenStreetMap", "osm_id": 4326050012, "id": 64, "lat": 35.8710614, "lng": 7.1092508}}, {"type": "Feature", "geometry": {"type": "Point", "coordinates": [7.109367, 35.8711921]}, "properties": {"name": "فندق السندباد", "name_ar": "Hôtel el sindibad", "name_fr": "Sandibad", "type": "hotel", "wilaya_code": "04", "source": "OpenStreetMap", "osm_id": 310796801, "id": 65, "lat": 35.8711921, "lng": 7.109367}}, {"type": "Feature", "geometry": {"type": "Point", "coordinates": [7.1091835, 35.8711309]}, "properties": {"name": "فندق السندباد", "name_ar": "Hôtel el sindibad", "name_fr": "Sandibad", "type": "hotel", "wilaya_code": "04", "source": "OpenStreetMap", "osm_id": 310796802, "id": 66, "lat": 35.8711309, "lng": 7.1091835}}, {"type": "Feature", "geometry": {"type": "Point", "coordinates": [7.1177668, 35.8778085]}, "properties": {"name": "فندق الشرفاء", "name_ar": "فندق الشرفاء", "name_fr": "hôtel achorafaa", "type": "hotel", "stars": 2, "wilaya_code": "04", "source": "OpenStreetMap", "osm_id": 310852737, "id": 67, "lat": 35.8778085, "lng": 7.1177668}}, {"type": "Feature", "geometry": {"type": "Point", "coordinates": [7.3730989, 35.8013225]}, "properties": {"name": "فندق سيدي ابراهيم", "name_ar": "فندق سيدي ابراهيم", "name_fr": "Hôtel Sidi Brahim", "type": "hotel", "wilaya_code": "04", "source": "OpenStreetMap", "osm_id": 4353225960, "id": 68, "lat": 35.8013225, "lng": 7.3730989}}, {"type": "Feature", "geometry": {"type": "Point", "coordinates": [7.1168708, 35.875405]}, "properties": {"name": "فندق ماجيدس 2", "name_ar": "فندق ماجيدس 2", "type": "hotel", "wilaya_code": "04", "source": "OpenStreetMap", "osm_id": 524636127, "id": 69, "lat": 35.875405, "lng": 7.1168708}}, {"type": "Feature", "geometry": {"type": "Point", "coordinates": [7.1243379, 35.872989]}, "properties": {"name": "فندق مجيدس", "type": "hotel", "stars": 2, "address": "Rue Zerdani Hassouna", "wilaya_code": "04", "source": "OpenStreetMap", "osm_id": 310852738, "id": 70, "lat": 35.872989, "lng": 7.1243379}}, {"type": "Feature", "geometry": {"type": "Point", "coordinates": [7.3904048, 35.7940237]}, "properties": {"name": "نزل", "name_ar": "نزل", "type": "hotel", "wilaya_code": "04", "source": "OpenStreetMap", "osm_id": 4293444691, "id": 71, "lat": 35.7940237, "lng": 7.3904048}}, {"type": "Feature", "geometry": {"type": "Point", "coordinates": [7.3945995, 35.7957945]}, "properties": {"name": "نزل الحراكته", "name_ar": "نزل الحراكته", "name_fr": "Hotel Hrakta", "type": "hotel", "wilaya_code": "04", "source": "OpenStreetMap", "osm_id": 3719908604, "id": 72, "lat": 35.7957945, "lng": 7.3945995}}, {"type": "Feature", "geometry": {"type": "Point", "coordinates": [6.5065475, 35.2765065]}, "properties": {"name": "Tajra", "type": "alpine_hut", "wilaya_code": "05", "source": "OpenStreetMap", "osm_id": 8734567717, "id": 73, "lat": 35.2765065, "lng": 6.5065475}}, {"type": "Feature", "geometry": {"type": "Point", "coordinates": [5.8917434, 35.3733146]}, "properties": {"name": "الحاج محمد زكور", "name_ar": "الحاج محمد زكور", "type": "alpine_hut", "wilaya_code": "05", "source": "OpenStreetMap", "osm_id": 5704784422, "id": 74, "lat": 35.3733146, "lng": 5.8917434}}, {"type": "Feature", "geometry": {"type": "Point", "coordinates": [5.8915617, 35.3732446]}, "properties": {"name": "منزل الحاج محمد زكور", "name_ar": "منزل الحاج محمد زكور", "type": "alpine_hut", "wilaya_code": "05", "source": "OpenStreetMap", "osm_id": 5733890721, "id": 75, "lat": 35.3732446, "lng": 5.8915617}}, {"type": "Feature", "geometry": {"type": "Point", "coordinates": [6.3024072, 35.6604868]}, "properties": {"name": "80 مسكن وظيفي جامعة باتنة", "type": "apartment", "wilaya_code": "05", "source": "OpenStreetMap", "osm_id": 7467422885, "id": 76, "lat": 35.6604868, "lng": 6.3024072}}, {"type": "Feature", "geometry": {"type": "Point", "coordinates": [6.2030561, 35.5391498]}, "properties": {"name": "Home", "type": "apartment", "wilaya_code": "05", "source": "OpenStreetMap", "osm_id": 8734567517, "id": 77, "lat": 35.5391498, "lng": 6.2030561}}, {"type": "Feature", "geometry": {"type": "Point", "coordinates": [6.1754299, 35.5552709]}, "properties": {"name": "الدار", "type": "apartment", "wilaya_code": "05", "source": "OpenStreetMap", "osm_id": 5825499654, "id": 78, "lat": 35.5552709, "lng": 6.1754299}}, {"type": "Feature", "geometry": {"type": "Point", "coordinates": [6.3758816, 35.6233776]}, "properties": {"name": "حي 100 مسكن تساهمي", "name_ar": "حي 100 مسكن تساهمي", "type": "apartment", "wilaya_code": "05", "source": "OpenStreetMap", "osm_id": 5307147521, "id": 79, "lat": 35.6233776, "lng": 6.3758816}}, {"type": "Feature", "geometry": {"type": "Point", "coordinates": [6.3762405, 35.6243532]}, "properties": {"name": "حي 20 مسكن تساهمي", "name_ar": "حي 20 مسكن تساهمي", "type": "apartment", "wilaya_code": "05", "source": "OpenStreetMap", "osm_id": 5307133121, "id": 80, "lat": 35.6243532, "lng": 6.3762405}}, {"type": "Feature", "geometry": {"type": "Point", "coordinates": [6.3762007, 35.6239855]}, "properties": {"name": "حي 40 مسكن تساهمي", "name_ar": "حي 40 مسكن تساهمي", "type": "apartment", "wilaya_code": "05", "source": "OpenStreetMap", "osm_id": 5307133221, "id": 81, "lat": 35.6239855, "lng": 6.3762007}}, {"type": "Feature", "geometry": {"type": "Point", "coordinates": [6.3766081, 35.6247096]}, "properties": {"name": "حي 50 مسكن اجتماعي", "type": "apartment", "wilaya_code": "05", "source": "OpenStreetMap", "osm_id": 5307147721, "id": 82, "lat": 35.6247096, "lng": 6.3766081}}, {"type": "Feature", "geometry": {"type": "Point", "coordinates": [6.3751021, 35.6254376]}, "properties": {"name": "حي 80 مسكن اجتماعي", "type": "apartment", "wilaya_code": "05", "source": "OpenStreetMap", "osm_id": 5307147621, "id": 83, "lat": 35.6254376, "lng": 6.3751021}}, {"type": "Feature", "geometry": {"type": "Point", "coordinates": [6.3502165, 35.2577346]}, "properties": {"name": "Cité communale centre ville", "type": "chalet", "wilaya_code": "05", "source": "OpenStreetMap", "osm_id": 5133255321, "id": 84, "lat": 35.2577346, "lng": 6.3502165}}, {"type": "Feature", "geometry": {"type": "Point", "coordinates": [6.4217513, 35.1682805]}, "properties": {"name": "الصفصافة", "name_ar": "الصفصافة", "type": "chalet", "wilaya_code": "05", "source": "OpenStreetMap", "osm_id": 6710747586, "id": 85, "lat": 35.1682805, "lng": 6.4217513}}, {"type": "Feature", "geometry": {"type": "Point", "coordinates": [6.4206806, 35.1584629]}, "properties": {"name": "بوداود", "name_ar": "بوداود", "type": "chalet", "wilaya_code": "05", "source": "OpenStreetMap", "osm_id": 6710747585, "id": 86, "lat": 35.1584629, "lng": 6.4206806}}, {"type": "Feature", "geometry": {"type": "Point", "coordinates": [6.4291845, 35.1433859]}, "properties": {"name": "خليفة انفيف", "name_ar": "خليفة انفيف", "type": "chalet", "wilaya_code": "05", "source": "OpenStreetMap", "osm_id": 6710739086, "id": 87, "lat": 35.1433859, "lng": 6.4291845}}, {"type": "Feature", "geometry": {"type": "Point", "coordinates": [6.4519358, 35.1954933]}, "properties": {"name": "دار الكابران", "name_ar": "دار الكابران", "type": "chalet", "wilaya_code": "05", "source": "OpenStreetMap", "osm_id": 6710739787, "id": 88, "lat": 35.1954933, "lng": 6.4519358}}, {"type": "Feature", "geometry": {"type": "Point", "coordinates": [6.432285, 35.128778]}, "properties": {"name": "دار الكحاحلة الوسطية", "name_ar": "دار الكحاحلة الوسطية", "type": "chalet", "wilaya_code": "05", "source": "OpenStreetMap", "osm_id": 6710740186, "id": 89, "lat": 35.128778, "lng": 6.432285}}, {"type": "Feature", "geometry": {"type": "Point", "coordinates": [6.4446913, 35.1967435]}, "properties": {"name": "دار المطرق تاورطة", "name_ar": "دار المطرق تاورطة", "type": "chalet", "wilaya_code": "05", "source": "OpenStreetMap", "osm_id": 6710739887, "id": 90, "lat": 35.1967435, "lng": 6.4446913}}, {"type": "Feature", "geometry": {"type": "Point", "coordinates": [6.4331577, 35.1289424]}, "properties": {"name": "دار حمة عمر الوسطية", "name_ar": "دار حمة عمر الوسطية", "type": "chalet", "wilaya_code": "05", "source": "OpenStreetMap", "osm_id": 6710740785, "id": 91, "lat": 35.1289424, "lng": 6.4331577}}, {"type": "Feature", "geometry": {"type": "Point", "coordinates": [6.430692, 35.1281596]}, "properties": {"name": "دار لخضر بن علي الوسطية", "name_ar": "دار لخضر بن علي الوسطية", "type": "chalet", "wilaya_code": "05", "source": "OpenStreetMap", "osm_id": 6710746185, "id": 92, "lat": 35.1281596, "lng": 6.430692}}, {"type": "Feature", "geometry": {"type": "Point", "coordinates": [6.4283994, 35.1278537]}, "properties": {"name": "دار لروي الوسطية", "name_ar": "دار لروي الوسطية", "type": "chalet", "wilaya_code": "05", "source": "OpenStreetMap", "osm_id": 6710746186, "id": 93, "lat": 35.1278537, "lng": 6.4283994}}, {"type": "Feature", "geometry": {"type": "Point", "coordinates": [6.4292963, 35.1269525]}, "properties": {"name": "دار معيوف و رقية", "name_ar": "دار معيوف و رقية", "type": "chalet", "wilaya_code": "05", "source": "OpenStreetMap", "osm_id": 6710739786, "id": 94, "lat": 35.1269525, "lng": 6.4292963}}, {"type": "Feature", "geometry": {"type": "Point", "coordinates": [6.3543369, 35.2505294]}, "properties": {"name": "Cité participatif Menzer sanef", "type": "guest_house", "wilaya_code": "05", "source": "OpenStreetMap", "osm_id": 5075369822, "id": 95, "lat": 35.2505294, "lng": 6.3543369}}, {"type": "Feature", "geometry": {"type": "Point", "coordinates": [6.1961555, 35.5637851]}, "properties": {"name": "Maison", "type": "guest_house", "wilaya_code": "05", "source": "OpenStreetMap", "osm_id": 4823031026, "id": 96, "lat": 35.5637851, "lng": 6.1961555}}, {"type": "Feature", "geometry": {"type": "Point", "coordinates": [6.3797563, 35.629237]}, "properties": {"name": "دار باديس", "name_ar": "دار باديس", "type": "guest_house", "wilaya_code": "05", "source": "OpenStreetMap", "osm_id": 5014837522, "id": 97, "lat": 35.629237, "lng": 6.3797563}}, {"type": "Feature", "geometry": {"type": "Point", "coordinates": [6.157829, 35.5500929]}, "properties": {"name": "دار خالي رشيد", "type": "guest_house", "wilaya_code": "05", "source": "OpenStreetMap", "osm_id": 8493066719, "id": 98, "lat": 35.5500929, "lng": 6.157829}}, {"type": "Feature", "geometry": {"type": "Point", "coordinates": [6.110498, 35.2192498]}, "properties": {"name": "منزلي", "name_ar": "منزلي", "type": "guest_house", "wilaya_code": "05", "source": "OpenStreetMap", "osm_id": 8068135087, "id": 99, "lat": 35.2192498, "lng": 6.110498}}, {"type": "Feature", "geometry": {"type": "Point", "coordinates": [6.4677897, 35.4908011]}, "properties": {"name": "Albergue de Jeunesse Timgad", "type": "hostel", "wilaya_code": "05", "source": "OpenStreetMap", "osm_id": 5434161178, "id": 100, "lat": 35.4908011, "lng": 6.4677897}}, {"type": "Feature", "geometry": {"type": "Point", "coordinates": [6.3598235, 35.2533814]}, "properties": {"name": "Auberge de jeunesse", "type": "hostel", "wilaya_code": "05", "source": "OpenStreetMap", "osm_id": 344014712, "id": 101, "lat": 35.2533814, "lng": 6.3598235}}, {"type": "Feature", "geometry": {"type": "Point", "coordinates": [6.1691165, 35.5487199]}, "properties": {"name": "Auberge de jeunesse", "name_ar": "بيت الشباب", "type": "hostel", "wilaya_code": "05", "source": "OpenStreetMap", "osm_id": 534895985, "id": 102, "lat": 35.5487199, "lng": 6.1691165}}, {"type": "Feature", "geometry": {"type": "Point", "coordinates": [6.1757317, 35.5540493]}, "properties": {"name": "Hotel el Hayat", "name_ar": "الحياة Hotel alhayat", "type": "hostel", "wilaya_code": "05", "source": "OpenStreetMap", "osm_id": 5213025421, "id": 103, "lat": 35.5540493, "lng": 6.1757317}}, {"type": "Feature", "geometry": {"type": "Point", "coordinates": [6.5426273, 35.2175751]}, "properties": {"name": "باطيمات سيدي علي كيمل", "name_ar": "باطيمات سيدي علي كيمل", "type": "hostel", "wilaya_code": "05", "source": "OpenStreetMap", "osm_id": 6710746189, "id": 104, "lat": 35.2175751, "lng": 6.5426273}}, {"type": "Feature", "geometry": {"type": "Point", "coordinates": [6.6423212, 35.665624]}, "properties": {"name": "بيت الشباب الشمرة", "name_ar": "بيت الشباب الشمرة", "type": "hostel", "wilaya_code": "05", "source": "OpenStreetMap", "osm_id": 4768948127, "id": 105, "lat": 35.665624, "lng": 6.6423212}}, {"type": "Feature", "geometry": {"type": "Point", "coordinates": [6.165325, 35.0579492]}, "properties": {"name": "بيت الشباب غوفي", "name_ar": "بيت الشباب غوفي", "type": "hostel", "wilaya_code": "05", "source": "OpenStreetMap", "osm_id": 4807652322, "id": 106, "lat": 35.0579492, "lng": 6.165325}}, {"type": "Feature", "geometry": {"type": "Point", "coordinates": [5.6313562, 35.5465487]}, "properties": {"name": "بيت الشباب نڨاوس", "name_ar": "بيت الشباب نڨاوس", "type": "hostel", "wilaya_code": "05", "source": "OpenStreetMap", "osm_id": 5564559123, "id": 107, "lat": 35.5465487, "lng": 5.6313562}}, {"type": "Feature", "geometry": {"type": "Point", "coordinates": [6.173815, 35.5577195]}, "properties": {"name": "Hôtel Chélia", "type": "hotel", "stars": 4, "rooms": 71, "phone": "+213 33 80 72 71", "website": "http://www.hotelchelia.com/", "wilaya_code": "05", "source": "OpenStreetMap", "osm_id": 463257885, "id": 108, "lat": 35.5577195, "lng": 6.173815}}, {"type": "Feature", "geometry": {"type": "Point", "coordinates": [6.2471679, 35.6172442]}, "properties": {"name": "Hôtel Fesdis", "name_ar": "فندق فيسديس", "name_fr": "Hôtel Fesdis", "type": "hotel", "address": "Voie Rapide Batna - Constantine", "wilaya_code": "05", "source": "OpenStreetMap", "osm_id": 4424372290, "id": 109, "lat": 35.6172442, "lng": 6.2471679}}, {"type": "Feature", "geometry": {"type": "Point", "coordinates": [6.1749409, 35.5556099]}, "properties": {"name": "Hôtel Karim", "name_ar": "فندق كريم", "name_fr": "Hôtel Karim", "type": "hotel", "wilaya_code": "05", "source": "OpenStreetMap", "osm_id": 3717043290, "id": 110, "lat": 35.5556099, "lng": 6.1749409}}, {"type": "Feature", "geometry": {"type": "Point", "coordinates": [5.9045882, 35.3839648]}, "properties": {"name": "Hôtel d'Or", "name_ar": "نزل الذهب", "name_fr": "Hôtel d'Or", "type": "hotel", "wilaya_code": "05", "source": "OpenStreetMap", "osm_id": 3899991379, "id": 111, "lat": 35.3839648, "lng": 5.9045882}}, {"type": "Feature", "geometry": {"type": "Point", "coordinates": [6.4682697, 35.4897973]}, "properties": {"name": "Trajan Hotel", "name_ar": "Trajan Hotel", "type": "hotel", "phone": "+213 (0)33 211 313;+213 (0)33 211 414;+213 659 143 314", "website": "http://trajan-hotel.com", "address": "rue des Ruines Romaines", "wilaya_code": "05", "source": "OpenStreetMap", "osm_id": 11336596069, "id": 112, "lat": 35.4897973, "lng": 6.4682697}}, {"type": "Feature", "geometry": {"type": "Point", "coordinates": [6.1980533, 35.5838551]}, "properties": {"name": "فندق الياسمين", "name_ar": "فندق الياسمين", "name_fr": "Hotel les Jasmines", "type": "hotel", "wilaya_code": "05", "source": "OpenStreetMap", "osm_id": 5667247621, "id": 113, "lat": 35.5838551, "lng": 6.1980533}}, {"type": "Feature", "geometry": {"type": "Point", "coordinates": [6.1472727, 35.5543637]}, "properties": {"name": "فندق براهيمي", "name_ar": "فندق براهيمي", "name_fr": "Hôtel Brahimi", "type": "hotel", "wilaya_code": "05", "source": "OpenStreetMap", "osm_id": 6057007285, "id": 114, "lat": 35.5543637, "lng": 6.1472727}}, {"type": "Feature", "geometry": {"type": "Point", "coordinates": [6.1541362, 35.530838]}, "properties": {"name": "فندق بن يحي", "name_fr": "Hôtel Ben Yahia", "type": "hotel", "wilaya_code": "05", "source": "OpenStreetMap", "osm_id": 6152733485, "id": 115, "lat": 35.530838, "lng": 6.1541362}}, {"type": "Feature", "geometry": {"type": "Point", "coordinates": [6.1790285, 35.5565322]}, "properties": {"name": "فندق تيمغاد حزام", "name_ar": "فندق تيمغاد حزام", "name_fr": "TIMGAD HOTEL HAZEM", "type": "hotel", "phone": "+21333852423", "website": "https://www.facebook.com/timgadhotel/", "address": "شارع ابن باديس", "wilaya_code": "05", "source": "OpenStreetMap", "osm_id": 5853958785, "id": 116, "lat": 35.5565322, "lng": 6.1790285}}, {"type": "Feature", "geometry": {"type": "Point", "coordinates": [6.1788492, 35.5566809]}, "properties": {"name": "فندق حازم", "name_ar": "فندق حازم", "name_fr": "Hôtel Hazzem", "type": "hotel", "address": "شارع ابن باديس", "wilaya_code": "05", "source": "OpenStreetMap", "osm_id": 3048741940, "id": 117, "lat": 35.5566809, "lng": 6.1788492}}, {"type": "Feature", "geometry": {"type": "Point", "coordinates": [6.1487391, 35.5349007]}, "properties": {"name": "فندق سليم", "name_ar": "فندق سليم", "name_fr": "Hôtel SALIM", "type": "hotel", "wilaya_code": "05", "source": "OpenStreetMap", "osm_id": 482128656, "id": 118, "lat": 35.5349007, "lng": 6.1487391}}, {"type": "Feature", "geometry": {"type": "Point", "coordinates": [6.1474786, 35.534592]}, "properties": {"name": "فندق مسعودي", "type": "hotel", "wilaya_code": "05", "source": "OpenStreetMap", "osm_id": 6797263587, "id": 119, "lat": 35.534592, "lng": 6.1474786}}, {"type": "Feature", "geometry": {"type": "Point", "coordinates": [6.4677139, 35.4901541]}, "properties": {"name": "نزل الكاهنة - Hôtel Elkahina", "type": "hotel", "wilaya_code": "05", "source": "OpenStreetMap", "osm_id": 5434161193, "id": 120, "lat": 35.4901541, "lng": 6.4677139}}, {"type": "Feature", "geometry": {"type": "Point", "coordinates": [6.1797156, 35.5465807]}, "properties": {"name": "نزل قطافي", "name_ar": "نزلت القطافي", "name_fr": "Hôtel Guettafi", "type": "hotel", "wilaya_code": "05", "source": "OpenStreetMap", "osm_id": 4657052089, "id": 121, "lat": 35.5465807, "lng": 6.1797156}}, {"type": "Feature", "geometry": {"type": "Point", "coordinates": [6.1906054, 35.5393115]}, "properties": {"name": "Hasan El Banaa", "type": "motel", "wilaya_code": "05", "source": "OpenStreetMap", "osm_id": 385695967, "id": 122, "lat": 35.5393115, "lng": 6.1906054}}, {"type": "Feature", "geometry": {"type": "Point", "coordinates": [5.8931299, 35.3776793]}, "properties": {"name": "مرقد أمين", "name_ar": "مرقد", "type": "motel", "wilaya_code": "05", "source": "OpenStreetMap", "osm_id": 4419423691, "id": 123, "lat": 35.3776793, "lng": 5.8931299}}, {"type": "Feature", "geometry": {"type": "Point", "coordinates": [4.3790442, 36.4257124]}, "properties": {"name": "akham n Da Ali louiza", "type": "apartment", "wilaya_code": "06", "source": "OpenStreetMap", "osm_id": 8021744185, "id": 124, "lat": 36.4257124, "lng": 4.3790442}}, {"type": "Feature", "geometry": {"type": "Point", "coordinates": [4.9843367, 36.8121599]}, "properties": {"name": "Centre de vacance Bleu Marine", "type": "chalet", "wilaya_code": "06", "source": "OpenStreetMap", "osm_id": 1180339293, "id": 125, "lat": 36.8121599, "lng": 4.9843367}}, {"type": "Feature", "geometry": {"type": "Point", "coordinates": [4.3731286, 36.3677448]}, "properties": {"name": "Impasse Talbi", "type": "chalet", "wilaya_code": "06", "source": "OpenStreetMap", "osm_id": 7691993486, "id": 126, "lat": 36.3677448, "lng": 4.3731286}}, {"type": "Feature", "geometry": {"type": "Point", "coordinates": [4.9100358, 36.6427165]}, "properties": {"name": "cité des 40 logements c", "type": "chalet", "wilaya_code": "06", "source": "OpenStreetMap", "osm_id": 4760039291, "id": 127, "lat": 36.6427165, "lng": 4.9100358}}, {"type": "Feature", "geometry": {"type": "Point", "coordinates": [4.9105524, 36.6414958]}, "properties": {"name": "cité du personnel CFPA d'Amizour", "type": "chalet", "wilaya_code": "06", "source": "OpenStreetMap", "osm_id": 4762799813, "id": 128, "lat": 36.6414958, "lng": 4.9105524}}, {"type": "Feature", "geometry": {"type": "Point", "coordinates": [4.6812906, 36.6121945]}, "properties": {"name": "Habitation ABDELLI Md Laid", "type": "guest_house", "wilaya_code": "06", "source": "OpenStreetMap", "osm_id": 13953112101, "id": 129, "lat": 36.6121945, "lng": 4.6812906}}, {"type": "Feature", "geometry": {"type": "Point", "coordinates": [4.6022012, 36.6325271]}, "properties": {"name": "Habitation HADJAR Mokhtar", "type": "guest_house", "wilaya_code": "06", "source": "OpenStreetMap", "osm_id": 13953587901, "id": 130, "lat": 36.6325271, "lng": 4.6022012}}, {"type": "Feature", "geometry": {"type": "Point", "coordinates": [4.6005614, 36.6329218]}, "properties": {"name": "Habitation MOUALDI Khlifa", "type": "guest_house", "wilaya_code": "06", "source": "OpenStreetMap", "osm_id": 13953486801, "id": 131, "lat": 36.6329218, "lng": 4.6005614}}, {"type": "Feature", "geometry": {"type": "Point", "coordinates": [4.6220561, 36.6295846]}, "properties": {"name": "Habitation YAHOUNI Hocine", "type": "guest_house", "wilaya_code": "06", "source": "OpenStreetMap", "osm_id": 13953142901, "id": 132, "lat": 36.6295846, "lng": 4.6220561}}, {"type": "Feature", "geometry": {"type": "Point", "coordinates": [5.2739637, 36.4943711]}, "properties": {"name": "Auberge de Jeunesse Messali Ali", "type": "hostel", "wilaya_code": "06", "source": "OpenStreetMap", "osm_id": 9674084744, "id": 133, "lat": 36.4943711, "lng": 5.2739637}}, {"type": "Feature", "geometry": {"type": "Point", "coordinates": [5.1551824, 36.6691533]}, "properties": {"name": "Auberge de jeunes de Tichy", "type": "hostel", "wilaya_code": "06", "source": "OpenStreetMap", "osm_id": 360693665, "id": 134, "lat": 36.6691533, "lng": 5.1551824}}, {"type": "Feature", "geometry": {"type": "Point", "coordinates": [5.0746361, 36.7572226]}, "properties": {"name": "Auberge de jeunesse Frères Soumari", "type": "hostel", "wilaya_code": "06", "source": "OpenStreetMap", "osm_id": 297161089, "id": 135, "lat": 36.7572226, "lng": 5.0746361}}, {"type": "Feature", "geometry": {"type": "Point", "coordinates": [5.3341084, 36.6309198]}, "properties": {"name": "Auberge de jeunesse Souk-El-Tenine", "name_ar": "بيت الشباب سوق الاثنين", "type": "hostel", "wilaya_code": "06", "source": "OpenStreetMap", "osm_id": 6467645891, "id": 136, "lat": 36.6309198, "lng": 5.3341084}}, {"type": "Feature", "geometry": {"type": "Point", "coordinates": [5.2566283, 36.6392973]}, "properties": {"name": "CRF Police Nationale", "type": "hostel", "wilaya_code": "06", "source": "OpenStreetMap", "osm_id": 268611588, "id": 137, "lat": 36.6392973, "lng": 5.2566283}}, {"type": "Feature", "geometry": {"type": "Point", "coordinates": [4.5341014, 36.4649367]}, "properties": {"name": "Chambres Dortoirs et douches", "type": "hostel", "wilaya_code": "06", "source": "OpenStreetMap", "osm_id": 6807916720, "id": 138, "lat": 36.4649367, "lng": 4.5341014}}, {"type": "Feature", "geometry": {"type": "Point", "coordinates": [5.0771038, 36.7585497]}, "properties": {"name": "Maison De Jeunes Fatima Ramtani", "name_ar": "بيت الشباب فطيمة رمطاني", "type": "hostel", "wilaya_code": "06", "source": "OpenStreetMap", "osm_id": 4420147089, "id": 139, "lat": 36.7585497, "lng": 5.0771038}}, {"type": "Feature", "geometry": {"type": "Point", "coordinates": [4.6669502, 36.6079306]}, "properties": {"name": "Maison de Jeunes Leflaye", "name_ar": "نزل الشباب لفلاي", "type": "hostel", "wilaya_code": "06", "source": "OpenStreetMap", "osm_id": 436843663, "id": 140, "lat": 36.6079306, "lng": 4.6669502}}, {"type": "Feature", "geometry": {"type": "Point", "coordinates": [5.039972, 36.7530626]}, "properties": {"name": "Résidence Universitaire De Targa Ouzemmour", "type": "hostel", "wilaya_code": "06", "source": "OpenStreetMap", "osm_id": 4488531690, "id": 141, "lat": 36.7530626, "lng": 5.039972}}, {"type": "Feature", "geometry": {"type": "Point", "coordinates": [5.2048125, 36.4587505]}, "properties": {"name": "Zerarga Nacir", "type": "hostel", "wilaya_code": "06", "source": "OpenStreetMap", "osm_id": 377297571, "id": 142, "lat": 36.4587505, "lng": 5.2048125}}, {"type": "Feature", "geometry": {"type": "Point", "coordinates": [4.625286, 36.6315009]}, "properties": {"name": "عند فريد", "name_ar": "عند فريد", "type": "hostel", "wilaya_code": "06", "source": "OpenStreetMap", "osm_id": 7475094990, "id": 143, "lat": 36.6315009, "lng": 4.625286}}, {"type": "Feature", "geometry": {"type": "Point", "coordinates": [5.1584413, 36.6446483]}, "properties": {"name": "منزل الجد", "type": "hostel", "wilaya_code": "06", "source": "OpenStreetMap", "osm_id": 8171659217, "id": 144, "lat": 36.6446483, "lng": 5.1584413}}, {"type": "Feature", "geometry": {"type": "Point", "coordinates": [4.9691865, 36.8135516]}, "properties": {"name": "Ach Elbaz", "name_fr": "Ach Elbaz", "type": "hotel", "wilaya_code": "06", "source": "OpenStreetMap", "osm_id": 4092197090, "id": 145, "lat": 36.8135516, "lng": 4.9691865}}, {"type": "Feature", "geometry": {"type": "Point", "coordinates": [5.1548375, 36.6702498]}, "properties": {"name": "Al-Mudayna Hotel", "type": "hotel", "address": "Rue National N9", "wilaya_code": "06", "source": "OpenStreetMap", "osm_id": 3272568303, "id": 146, "lat": 36.6702498, "lng": 5.1548375}}, {"type": "Feature", "geometry": {"type": "Point", "coordinates": [4.5097342, 36.4348311]}, "properties": {"name": "Atlantis", "name_ar": "اطلنطيس", "name_fr": "Atlantis", "type": "hotel", "phone": "+213661602602", "website": "https://atlantishotels-dz.com/", "address": "Route Nationale 26", "wilaya_code": "06", "source": "OpenStreetMap", "osm_id": 405837137, "id": 147, "lat": 36.4348311, "lng": 4.5097342}}, {"type": "Feature", "geometry": {"type": "Point", "coordinates": [4.8564201, 36.8658979]}, "properties": {"name": "Auberge Le Thaïs", "type": "hotel", "wilaya_code": "06", "source": "OpenStreetMap", "osm_id": 4092131068, "id": 148, "lat": 36.8658979, "lng": 4.8564201}}, {"type": "Feature", "geometry": {"type": "Point", "coordinates": [4.7358907, 36.8825728]}, "properties": {"name": "Cap Sigli Iguedlane", "type": "hotel", "wilaya_code": "06", "source": "OpenStreetMap", "osm_id": 4249087538, "id": 149, "lat": 36.8825728, "lng": 4.7358907}}, {"type": "Feature", "geometry": {"type": "Point", "coordinates": [5.2384909, 36.6400304]}, "properties": {"name": "Cap aokas", "name_ar": "رأس أوقاس", "type": "hotel", "phone": "034232300", "wilaya_code": "06", "source": "OpenStreetMap", "osm_id": 4639469690, "id": 150, "lat": 36.6400304, "lng": 5.2384909}}, {"type": "Feature", "geometry": {"type": "Point", "coordinates": [5.1524565, 36.6713013]}, "properties": {"name": "Centre Thalassothérapie", "type": "hotel", "phone": "+213 34 23 58 62", "address": "Rue de la plage Bejaia", "wilaya_code": "06", "source": "OpenStreetMap", "osm_id": 3272568302, "id": 151, "lat": 36.6713013, "lng": 5.1524565}}, {"type": "Feature", "geometry": {"type": "Point", "coordinates": [5.0613331, 36.7540587]}, "properties": {"name": "Cristal", "name_ar": "كريسطال", "name_fr": "Cristal", "type": "hotel", "address": "Rue des Frères Mellali", "wilaya_code": "06", "source": "OpenStreetMap", "osm_id": 1172521185, "id": 152, "lat": 36.7540587, "lng": 5.0613331}}, {"type": "Feature", "geometry": {"type": "Point", "coordinates": [4.6732332, 36.6487902]}, "properties": {"name": "Hammam Sillal", "type": "hotel", "wilaya_code": "06", "source": "OpenStreetMap", "osm_id": 1493507451, "id": 153, "lat": 36.6487902, "lng": 4.6732332}}, {"type": "Feature", "geometry": {"type": "Point", "coordinates": [5.3535604, 36.6408544]}, "properties": {"name": "Hotel", "type": "hotel", "wilaya_code": "06", "source": "OpenStreetMap", "osm_id": 6467747578, "id": 154, "lat": 36.6408544, "lng": 5.3535604}}, {"type": "Feature", "geometry": {"type": "Point", "coordinates": [5.3543061, 36.641457]}, "properties": {"name": "Hotel", "type": "hotel", "wilaya_code": "06", "source": "OpenStreetMap", "osm_id": 6467747579, "id": 155, "lat": 36.641457, "lng": 5.3543061}}, {"type": "Feature", "geometry": {"type": "Point", "coordinates": [5.3555614, 36.6418444]}, "properties": {"name": "Hotel", "type": "hotel", "wilaya_code": "06", "source": "OpenStreetMap", "osm_id": 6467747580, "id": 156, "lat": 36.6418444, "lng": 5.3555614}}, {"type": "Feature", "geometry": {"type": "Point", "coordinates": [5.1531605, 36.671504]}, "properties": {"name": "Hotel Club Alloui", "type": "hotel", "wilaya_code": "06", "source": "OpenStreetMap", "osm_id": 5081990890, "id": 157, "lat": 36.671504, "lng": 5.1531605}}, {"type": "Feature", "geometry": {"type": "Point", "coordinates": [5.1662323, 36.6670678]}, "properties": {"name": "Hotel Golfe Tichy", "type": "hotel", "wilaya_code": "06", "source": "OpenStreetMap", "osm_id": 5083529184, "id": 158, "lat": 36.6670678, "lng": 5.1662323}}, {"type": "Feature", "geometry": {"type": "Point", "coordinates": [5.2466999, 36.6327941]}, "properties": {"name": "Hotel La Roseraie", "type": "hotel", "stars": 3, "phone": "034 84 38 10", "wilaya_code": "06", "source": "OpenStreetMap", "osm_id": 5097045455, "id": 159, "lat": 36.6327941, "lng": 5.2466999}}, {"type": "Feature", "geometry": {"type": "Point", "coordinates": [5.1573206, 36.668249]}, "properties": {"name": "Hotel Raya", "name_ar": "فندق الرايا", "type": "hotel", "phone": "+213 34 81 52 49/50", "wilaya_code": "06", "source": "OpenStreetMap", "osm_id": 5079910174, "id": 160, "lat": 36.668249, "lng": 5.1573206}}, {"type": "Feature", "geometry": {"type": "Point", "coordinates": [4.5875486, 36.4110414]}, "properties": {"name": "Hotel de Sidi Yahia", "type": "hotel", "wilaya_code": "06", "source": "OpenStreetMap", "osm_id": 13657317719, "id": 161, "lat": 36.4110414, "lng": 4.5875486}}, {"type": "Feature", "geometry": {"type": "Point", "coordinates": [5.1663585, 36.6672704]}, "properties": {"name": "Hotel le golfe Tichy plage", "name_ar": "Hotel le golfe Tichy plage", "type": "hotel", "phone": "034815102", "website": "https://golfe-hotel.e-monsite.com/", "address": "Route de la plage", "wilaya_code": "06", "source": "OpenStreetMap", "osm_id": 4632493634, "id": 162, "lat": 36.6672704, "lng": 5.1663585}}, {"type": "Feature", "geometry": {"type": "Point", "coordinates": [5.1445904, 36.673081]}, "properties": {"name": "Hôtel Beau Rivage", "name_ar": "فندق بوه ريفاج", "name_fr": "Hôtel Beau Rivage", "type": "hotel", "wilaya_code": "06", "source": "OpenStreetMap", "osm_id": 3272764321, "id": 163, "lat": 36.673081, "lng": 5.1445904}}, {"type": "Feature", "geometry": {"type": "Point", "coordinates": [4.538405, 36.464225]}, "properties": {"name": "Hôtel Belle Vue", "name_ar": "فندق المنظر الجميل", "type": "hotel", "wilaya_code": "06", "source": "OpenStreetMap", "osm_id": 1935729012, "id": 164, "lat": 36.464225, "lng": 4.538405}}, {"type": "Feature", "geometry": {"type": "Point", "coordinates": [5.0888452, 36.7612171]}, "properties": {"name": "Hôtel Belvedere", "name_ar": "فندق البلفدير", "name_fr": "Hôtel Belvedere", "type": "hotel", "wilaya_code": "06", "source": "OpenStreetMap", "osm_id": 7567139167, "id": 165, "lat": 36.7612171, "lng": 5.0888452}}, {"type": "Feature", "geometry": {"type": "Point", "coordinates": [5.0910252, 36.7606375]}, "properties": {"name": "Hôtel Cap Carbon", "name_ar": "فندق رأس كربون", "name_fr": "Hôtel Cap Carbon", "type": "hotel", "phone": "+213 34 18 63 89", "wilaya_code": "06", "source": "OpenStreetMap", "osm_id": 1172520142, "id": 166, "lat": 36.7606375, "lng": 5.0910252}}, {"type": "Feature", "geometry": {"type": "Point", "coordinates": [5.1526697, 36.671596]}, "properties": {"name": "Hôtel Club Alloui", "type": "hotel", "phone": "+213 34 23 58 62", "website": "https://www.facebook.com/spacluballoui", "address": "Tichy", "wilaya_code": "06", "source": "OpenStreetMap", "osm_id": 320641237, "id": 167, "lat": 36.671596, "lng": 5.1526697}}, {"type": "Feature", "geometry": {"type": "Point", "coordinates": [4.9893203, 36.8102892]}, "properties": {"name": "Hôtel Delphin", "type": "hotel", "wilaya_code": "06", "source": "OpenStreetMap", "osm_id": 297158466, "id": 168, "lat": 36.8102892, "lng": 4.9893203}}, {"type": "Feature", "geometry": {"type": "Point", "coordinates": [5.0722193, 36.7514169]}, "properties": {"name": "Hôtel Gouraya", "type": "hotel", "wilaya_code": "06", "source": "OpenStreetMap", "osm_id": 3397098771, "id": 169, "lat": 36.7514169, "lng": 5.0722193}}, {"type": "Feature", "geometry": {"type": "Point", "coordinates": [5.0567965, 36.7559414]}, "properties": {"name": "Hôtel Le Cristal 2", "type": "hotel", "address": "route de SIDI Ahmed", "wilaya_code": "06", "source": "OpenStreetMap", "osm_id": 1172518647, "id": 170, "lat": 36.7559414, "lng": 5.0567965}}, {"type": "Feature", "geometry": {"type": "Point", "coordinates": [5.0651542, 36.7378276]}, "properties": {"name": "Hôtel Le Sarasin", "name_fr": "Hôtel Le Sarasin", "type": "hotel", "wilaya_code": "06", "source": "OpenStreetMap", "osm_id": 3267379474, "id": 171, "lat": 36.7378276, "lng": 5.0651542}}, {"type": "Feature", "geometry": {"type": "Point", "coordinates": [5.153414, 36.6707919]}, "properties": {"name": "Hôtel Le Syphax", "type": "hotel", "phone": "+213 34 81 65 23/24/25/06", "wilaya_code": "06", "source": "OpenStreetMap", "osm_id": 5097119126, "id": 172, "lat": 36.6707919, "lng": 5.153414}}, {"type": "Feature", "geometry": {"type": "Point", "coordinates": [5.1535025, 36.6712781]}, "properties": {"name": "Hôtel Le Syphax", "type": "hotel", "phone": "+213 34 81 65 23/24/25/06", "wilaya_code": "06", "source": "OpenStreetMap", "osm_id": 5097119127, "id": 173, "lat": 36.6712781, "lng": 5.1535025}}, {"type": "Feature", "geometry": {"type": "Point", "coordinates": [5.0485718, 36.7506927]}, "properties": {"name": "Hôtel Madala", "name_ar": "فندق مادالا", "name_fr": "Hôtel Madala", "type": "hotel", "address": "طريق الجامعة", "wilaya_code": "06", "source": "OpenStreetMap", "osm_id": 2710613204, "id": 174, "lat": 36.7506927, "lng": 5.0485718}}, {"type": "Feature", "geometry": {"type": "Point", "coordinates": [4.5325261, 36.4523309]}, "properties": {"name": "Hôtel Palace", "type": "hotel", "phone": "+21334363241", "website": "https://www.facebook.com/p/h%C3%B4tel-Restaurant-Le-Palace-61554552445365/", "address": "Route Nationale 26", "wilaya_code": "06", "source": "OpenStreetMap", "osm_id": 1936067838, "id": 175, "lat": 36.4523309, "lng": 4.5325261}}, {"type": "Feature", "geometry": {"type": "Point", "coordinates": [4.3964163, 36.3799383]}, "properties": {"name": "Hôtel Rabah Syphax", "type": "hotel", "wilaya_code": "06", "source": "OpenStreetMap", "osm_id": 4078635871, "id": 176, "lat": 36.3799383, "lng": 4.3964163}}, {"type": "Feature", "geometry": {"type": "Point", "coordinates": [5.0729226, 36.7528274]}, "properties": {"name": "Hôtel Restaurant Brahmi", "name_ar": "فندق براهمي", "name_fr": "Hôtel Brahmi", "type": "hotel", "address": "rue de la Liberté", "wilaya_code": "06", "source": "OpenStreetMap", "osm_id": 1172522055, "id": 177, "lat": 36.7528274, "lng": 5.0729226}}, {"type": "Feature", "geometry": {"type": "Point", "coordinates": [5.0413365, 36.7450545]}, "properties": {"name": "Hôtel Royal", "name_ar": "فندق رويال", "name_fr": "Hôtel Royal", "type": "hotel", "wilaya_code": "06", "source": "OpenStreetMap", "osm_id": 1880959384, "id": 178, "lat": 36.7450545, "lng": 5.0413365}}, {"type": "Feature", "geometry": {"type": "Point", "coordinates": [5.3351973, 36.6145727]}, "properties": {"name": "Hôtel SAFSAF", "name_ar": "Hôtel SAFSAF", "type": "hotel", "wilaya_code": "06", "source": "OpenStreetMap", "osm_id": 4518682890, "id": 179, "lat": 36.6145727, "lng": 5.3351973}}, {"type": "Feature", "geometry": {"type": "Point", "coordinates": [5.2592298, 36.6391488]}, "properties": {"name": "Hôtel Sahel", "name_ar": "فندق الساحل", "type": "hotel", "phone": "+213 34 23 23 76", "wilaya_code": "06", "source": "OpenStreetMap", "osm_id": 6485345814, "id": 180, "lat": 36.6391488, "lng": 5.2592298}}, {"type": "Feature", "geometry": {"type": "Point", "coordinates": [5.3234399, 36.6391288]}, "properties": {"name": "Hôtel Tababort", "type": "hotel", "phone": "+213 34 23 78 77", "wilaya_code": "06", "source": "OpenStreetMap", "osm_id": 5569901206, "id": 181, "lat": 36.6391288, "lng": 5.3234399}}, {"type": "Feature", "geometry": {"type": "Point", "coordinates": [5.0526519, 36.7124832]}, "properties": {"name": "Hôtel Tabet", "type": "hotel", "wilaya_code": "06", "source": "OpenStreetMap", "osm_id": 4092196482, "id": 182, "lat": 36.7124832, "lng": 5.0526519}}, {"type": "Feature", "geometry": {"type": "Point", "coordinates": [5.1697679, 36.6645121]}, "properties": {"name": "Hôtel Villa Dest Tichy, Algérie", "type": "hotel", "phone": "+213 34 23 56 67", "wilaya_code": "06", "source": "OpenStreetMap", "osm_id": 3272764356, "id": 183, "lat": 36.6645121, "lng": 5.1697679}}, {"type": "Feature", "geometry": {"type": "Point", "coordinates": [5.0852305, 36.7523085]}, "properties": {"name": "Hôtel de l'Étoile", "name_ar": "فندق النجمة", "name_fr": "Hôtel de l'Étoile", "type": "hotel", "address": "ساحة 1 نوفبر 1954", "wilaya_code": "06", "source": "OpenStreetMap", "osm_id": 4235352706, "id": 184, "lat": 36.7523085, "lng": 5.0852305}}, {"type": "Feature", "geometry": {"type": "Point", "coordinates": [4.5586933, 36.4828126]}, "properties": {"name": "Hôtel de la Zone", "name_ar": "فندق منطقة النشاطات", "name_fr": "Hôtel de la zone", "type": "hotel", "address": "RN 26 Taharacht", "wilaya_code": "06", "source": "OpenStreetMap", "osm_id": 1938917296, "id": 185, "lat": 36.4828126, "lng": 4.5586933}}, {"type": "Feature", "geometry": {"type": "Point", "coordinates": [5.0804611, 36.7551409]}, "properties": {"name": "Hôtel du Nord", "name_ar": "فتدق الشمال", "type": "hotel", "wilaya_code": "06", "source": "OpenStreetMap", "osm_id": 423437210, "id": 186, "lat": 36.7551409, "lng": 5.0804611}}, {"type": "Feature", "geometry": {"type": "Point", "coordinates": [5.1700174, 36.6645038]}, "properties": {"name": "Hôtel les 2 rochers", "type": "hotel", "wilaya_code": "06", "source": "OpenStreetMap", "osm_id": 4316945090, "id": 187, "lat": 36.6645038, "lng": 5.1700174}}, {"type": "Feature", "geometry": {"type": "Point", "coordinates": [5.1467661, 36.6735253]}, "properties": {"name": "Hôtel les Hammadites Bejaia", "type": "hotel", "phone": "+213 34 23 57", "website": "http://www.hotelhammadites.com/", "address": "Route nationale N° 09 Tichy", "wilaya_code": "06", "source": "OpenStreetMap", "osm_id": 7543801, "id": 188, "lat": 36.6735253, "lng": 5.1467661}}, {"type": "Feature", "geometry": {"type": "Point", "coordinates": [4.8668384, 36.8579392]}, "properties": {"name": "L'Horizon Bleu", "name_fr": "L'Horizon Bleu", "type": "hotel", "wilaya_code": "06", "source": "OpenStreetMap", "osm_id": 4587499952, "id": 189, "lat": 36.8579392, "lng": 4.8668384}}, {"type": "Feature", "geometry": {"type": "Point", "coordinates": [5.1674713, 36.6659159]}, "properties": {"name": "La Grande Terrasse Tichy, Algérie", "type": "hotel", "phone": "+213 34 23 53 13", "wilaya_code": "06", "source": "OpenStreetMap", "osm_id": 320657144, "id": 190, "lat": 36.6659159, "lng": 5.1674713}}, {"type": "Feature", "geometry": {"type": "Point", "coordinates": [4.5568671, 36.4763527]}, "properties": {"name": "Le Majestic", "name_ar": "الماجيستيك", "name_fr": "Le Majestic", "type": "hotel", "wilaya_code": "06", "source": "OpenStreetMap", "osm_id": 4151425719, "id": 191, "lat": 36.4763527, "lng": 4.5568671}}, {"type": "Feature", "geometry": {"type": "Point", "coordinates": [4.9843391, 36.8099889]}, "properties": {"name": "Le Thaïs", "type": "hotel", "address": "Le Thais Boulimat", "wilaya_code": "06", "source": "OpenStreetMap", "osm_id": 3265279744, "id": 192, "lat": 36.8099889, "lng": 4.9843391}}, {"type": "Feature", "geometry": {"type": "Point", "coordinates": [5.0507452, 36.7465046]}, "properties": {"name": "Le Zéphyr", "name_ar": "الزفير", "type": "hotel", "phone": "+34.22.66.11", "wilaya_code": "06", "source": "OpenStreetMap", "osm_id": 1323288942, "id": 193, "lat": 36.7465046, "lng": 5.0507452}}, {"type": "Feature", "geometry": {"type": "Point", "coordinates": [4.9875606, 36.8140332]}, "properties": {"name": "Le petit marin homestay", "type": "hotel", "wilaya_code": "06", "source": "OpenStreetMap", "osm_id": 878397777, "id": 194, "lat": 36.8140332, "lng": 4.9875606}}, {"type": "Feature", "geometry": {"type": "Point", "coordinates": [5.1775525, 36.6619386]}, "properties": {"name": "Mersel hotel", "type": "hotel", "wilaya_code": "06", "source": "OpenStreetMap", "osm_id": 5088098242, "id": 195, "lat": 36.6619386, "lng": 5.1775525}}, {"type": "Feature", "geometry": {"type": "Point", "coordinates": [4.599819, 36.5256878]}, "properties": {"name": "Mimosa", "type": "hotel", "wilaya_code": "06", "source": "OpenStreetMap", "osm_id": 4151425718, "id": 196, "lat": 36.5256878, "lng": 4.599819}}, {"type": "Feature", "geometry": {"type": "Point", "coordinates": [5.0456038, 36.7529291]}, "properties": {"name": "Providencia", "name_ar": "بروفيدنسيا", "name_fr": "Providencia", "type": "hotel", "address": "طريق تالة مرخا 2", "wilaya_code": "06", "source": "OpenStreetMap", "osm_id": 1172518156, "id": 197, "lat": 36.7529291, "lng": 5.0456038}}, {"type": "Feature", "geometry": {"type": "Point", "coordinates": [4.8340929, 36.8700642]}, "properties": {"name": "Residence Alpha", "type": "hotel", "wilaya_code": "06", "source": "OpenStreetMap", "osm_id": 2990946001, "id": 198, "lat": 36.8700642, "lng": 4.8340929}}, {"type": "Feature", "geometry": {"type": "Point", "coordinates": [5.2241731, 36.6435474]}, "properties": {"name": "Résidence Bel-Air", "type": "hotel", "address": "Aoukas", "wilaya_code": "06", "source": "OpenStreetMap", "osm_id": 5827060201, "id": 199, "lat": 36.6435474, "lng": 5.2241731}}, {"type": "Feature", "geometry": {"type": "Point", "coordinates": [5.0537591, 36.7485903]}, "properties": {"name": "Résidence Chréa", "name_ar": "إقامة الشريعة", "name_fr": "Résidence Chréa", "type": "hotel", "wilaya_code": "06", "source": "OpenStreetMap", "osm_id": 1881000090, "id": 200, "lat": 36.7485903, "lng": 5.0537591}}, {"type": "Feature", "geometry": {"type": "Point", "coordinates": [5.316108, 36.6243014]}, "properties": {"name": "Résidence L'Oliverie", "type": "hotel", "wilaya_code": "06", "source": "OpenStreetMap", "osm_id": 4516073490, "id": 201, "lat": 36.6243014, "lng": 5.316108}}, {"type": "Feature", "geometry": {"type": "Point", "coordinates": [5.1688511, 36.6653888]}, "properties": {"name": "Résidence Saphir Bleu", "name_ar": "إقامة السفير الأزرق", "type": "hotel", "wilaya_code": "06", "source": "OpenStreetMap", "osm_id": 3272764355, "id": 202, "lat": 36.6653888, "lng": 5.1688511}}, {"type": "Feature", "geometry": {"type": "Point", "coordinates": [4.8552445, 36.6879224]}, "properties": {"name": "Résidence le phare 2", "type": "hotel", "wilaya_code": "06", "source": "OpenStreetMap", "osm_id": 4713701876, "id": 203, "lat": 36.6879224, "lng": 4.8552445}}, {"type": "Feature", "geometry": {"type": "Point", "coordinates": [5.0886847, 36.7552094]}, "properties": {"name": "Saldae", "type": "hotel", "wilaya_code": "06", "source": "OpenStreetMap", "osm_id": 12439568689, "id": 204, "lat": 36.7552094, "lng": 5.0886847}}, {"type": "Feature", "geometry": {"type": "Point", "coordinates": [5.0626296, 36.7221166]}, "properties": {"name": "Sophotel", "name_ar": "فندق صوفوتال", "name_fr": "Sophotel", "type": "hotel", "phone": "+213 34 18 01 01", "wilaya_code": "06", "source": "OpenStreetMap", "osm_id": 1208860020, "id": 205, "lat": 36.7221166, "lng": 5.0626296}}, {"type": "Feature", "geometry": {"type": "Point", "coordinates": [5.2754783, 36.4938792]}, "properties": {"name": "TabaBoorTh", "type": "hotel", "wilaya_code": "06", "source": "OpenStreetMap", "osm_id": 9674084753, "id": 206, "lat": 36.4938792, "lng": 5.2754783}}, {"type": "Feature", "geometry": {"type": "Point", "coordinates": [5.059328, 36.740767]}, "properties": {"name": "Thiziri", "name_ar": "ثيزيري", "name_fr": "Thiziri", "type": "hotel", "wilaya_code": "06", "source": "OpenStreetMap", "osm_id": 3876320572, "id": 207, "lat": 36.740767, "lng": 5.059328}}, {"type": "Feature", "geometry": {"type": "Point", "coordinates": [5.1644118, 36.666245]}, "properties": {"name": "إقامة شوف نور الدين", "name_ar": "إقامة شوف نور الدين", "name_fr": "Residence CHOUF Nordine", "type": "hotel", "phone": "034815312", "wilaya_code": "06", "source": "OpenStreetMap", "osm_id": 4958033821, "id": 208, "lat": 36.666245, "lng": 5.1644118}}, {"type": "Feature", "geometry": {"type": "Point", "coordinates": [5.0716084, 36.7465021]}, "properties": {"name": "Dortoir l'oriental", "type": "motel", "wilaya_code": "06", "source": "OpenStreetMap", "osm_id": 13847169501, "id": 209, "lat": 36.7465021, "lng": 5.0716084}}, {"type": "Feature", "geometry": {"type": "Point", "coordinates": [5.2400292, 36.6421973]}, "properties": {"name": "Hotel Sable d'Or", "name_ar": "فندق الرمال الذهبية", "type": "motel", "wilaya_code": "06", "source": "OpenStreetMap", "osm_id": 6532590802, "id": 210, "lat": 36.6421973, "lng": 5.2400292}}, {"type": "Feature", "geometry": {"type": "Point", "coordinates": [5.6988428, 34.8812675]}, "properties": {"name": "400مسكن عدل", "type": "alpine_hut", "wilaya_code": "07", "source": "OpenStreetMap", "osm_id": 10264555509, "id": 211, "lat": 34.8812675, "lng": 5.6988428}}, {"type": "Feature", "geometry": {"type": "Point", "coordinates": [5.4698918, 34.7081181]}, "properties": {"name": "Antar rmc", "type": "guest_house", "wilaya_code": "07", "source": "OpenStreetMap", "osm_id": 6511572988, "id": 212, "lat": 34.7081181, "lng": 5.4698918}}, {"type": "Feature", "geometry": {"type": "Point", "coordinates": [5.6980951, 34.8456811]}, "properties": {"name": "دارنا", "type": "guest_house", "wilaya_code": "07", "source": "OpenStreetMap", "osm_id": 9861674618, "id": 213, "lat": 34.8456811, "lng": 5.6980951}}, {"type": "Feature", "geometry": {"type": "Point", "coordinates": [5.3946998, 34.727231]}, "properties": {"name": "Auberge de jeunesse", "name_ar": "Auberge de jeunesse", "type": "hostel", "wilaya_code": "07", "source": "OpenStreetMap", "osm_id": 5009603221, "id": 214, "lat": 34.727231, "lng": 5.3946998}}, {"type": "Feature", "geometry": {"type": "Point", "coordinates": [5.3869456, 34.7280437]}, "properties": {"name": "Maison de jeunes Abdelkader Serai", "type": "hostel", "wilaya_code": "07", "source": "OpenStreetMap", "osm_id": 4589166489, "id": 215, "lat": 34.7280437, "lng": 5.3869456}}, {"type": "Feature", "geometry": {"type": "Point", "coordinates": [5.3946817, 34.7272533]}, "properties": {"name": "بيت الشباب", "name_ar": "بيت الشباب", "type": "hostel", "wilaya_code": "07", "source": "OpenStreetMap", "osm_id": 5041939222, "id": 216, "lat": 34.7272533, "lng": 5.3946817}}, {"type": "Feature", "geometry": {"type": "Point", "coordinates": [5.7135659, 34.8627497]}, "properties": {"name": "بيت الشباب 19 مارس", "name_ar": "بيت الشباب 19 مارس", "type": "hostel", "wilaya_code": "07", "source": "OpenStreetMap", "osm_id": 338093554, "id": 217, "lat": 34.8627497, "lng": 5.7135659}}, {"type": "Feature", "geometry": {"type": "Point", "coordinates": [5.9495575, 34.8012974]}, "properties": {"name": "جلال العمري", "name_ar": "جلال العمري", "type": "hostel", "wilaya_code": "07", "source": "OpenStreetMap", "osm_id": 7499527473, "id": 218, "lat": 34.8012974, "lng": 5.9495575}}, {"type": "Feature", "geometry": {"type": "Point", "coordinates": [5.381001, 34.7283399]}, "properties": {"name": "نادي الشباب", "name_ar": "نادي الشباب", "type": "hostel", "wilaya_code": "07", "source": "OpenStreetMap", "osm_id": 6276960485, "id": 219, "lat": 34.7283399, "lng": 5.381001}}, {"type": "Feature", "geometry": {"type": "Point", "coordinates": [5.7299407, 34.850663]}, "properties": {"name": "AN Hotel", "type": "hotel", "phone": "+21333535144;+213561365245", "wilaya_code": "07", "source": "OpenStreetMap", "osm_id": 13760485701, "id": 220, "lat": 34.850663, "lng": 5.7299407}}, {"type": "Feature", "geometry": {"type": "Point", "coordinates": [5.7143268, 34.8675036]}, "properties": {"name": "Hotel BAB SAHARA", "type": "hotel", "wilaya_code": "07", "source": "OpenStreetMap", "osm_id": 1076528659, "id": 221, "lat": 34.8675036, "lng": 5.7143268}}, {"type": "Feature", "geometry": {"type": "Point", "coordinates": [5.7054028, 34.8450902]}, "properties": {"name": "Hotel El Qods", "name_ar": "نزل القدس", "type": "hotel", "wilaya_code": "07", "source": "OpenStreetMap", "osm_id": 337912693, "id": 222, "lat": 34.8450902, "lng": 5.7054028}}, {"type": "Feature", "geometry": {"type": "Point", "coordinates": [5.7418349, 34.8583155]}, "properties": {"name": "Hotel Selami", "name_ar": "نزل سلامي", "type": "hotel", "wilaya_code": "07", "source": "OpenStreetMap", "osm_id": 338159932, "id": 223, "lat": 34.8583155, "lng": 5.7418349}}, {"type": "Feature", "geometry": {"type": "Point", "coordinates": [5.7405963, 34.8527708]}, "properties": {"name": "Hôtel Dar Elmoualim", "name_ar": "دار المعلم", "type": "hotel", "wilaya_code": "07", "source": "OpenStreetMap", "osm_id": 339266478, "id": 224, "lat": 34.8527708, "lng": 5.7405963}}, {"type": "Feature", "geometry": {"type": "Point", "coordinates": [5.7084966, 34.8565938]}, "properties": {"name": "Hôtel Nakhil", "name_ar": "فندق النخيل", "type": "hotel", "wilaya_code": "07", "source": "OpenStreetMap", "osm_id": 335264403, "id": 225, "lat": 34.8565938, "lng": 5.7084966}}, {"type": "Feature", "geometry": {"type": "Point", "coordinates": [5.69423, 34.8648577]}, "properties": {"name": "Hôtel Sidi Yahia", "type": "hotel", "wilaya_code": "07", "source": "OpenStreetMap", "osm_id": 578583532, "id": 226, "lat": 34.8648577, "lng": 5.69423}}, {"type": "Feature", "geometry": {"type": "Point", "coordinates": [5.7274992, 34.853569]}, "properties": {"name": "JB Hotel", "type": "hotel", "phone": "+21333619696", "website": "https://www.facebook.com/JB-Hotel-Biskra-106280655365512/", "address": "شارع الأمير عبد القادر", "wilaya_code": "07", "source": "OpenStreetMap", "osm_id": 1076543159, "id": 227, "lat": 34.853569, "lng": 5.7274992}}, {"type": "Feature", "geometry": {"type": "Point", "coordinates": [5.7083524, 34.8579859]}, "properties": {"name": "المركب المعدني حمام الصالحين", "name_ar": "المركب المعدني حمام الصالحين", "name_fr": "Complexe Thermal Hammam Salehine", "type": "hotel", "phone": "+21333759026", "wilaya_code": "07", "source": "OpenStreetMap", "osm_id": 263393567, "id": 228, "lat": 34.8579859, "lng": 5.7083524}}, {"type": "Feature", "geometry": {"type": "Point", "coordinates": [5.7307204, 34.8548449]}, "properties": {"name": "بالاس", "name_fr": "PALACE", "type": "hotel", "wilaya_code": "07", "source": "OpenStreetMap", "osm_id": 9492930417, "id": 229, "lat": 34.8548449, "lng": 5.7307204}}, {"type": "Feature", "geometry": {"type": "Point", "coordinates": [6.7007046, 34.7992034]}, "properties": {"name": "بيت الشباب :خنقة سيدي ناجي", "type": "hotel", "address": "الطريق الوطني رقم 83", "wilaya_code": "07", "source": "OpenStreetMap", "osm_id": 11282415569, "id": 230, "lat": 34.7992034, "lng": 6.7007046}}, {"type": "Feature", "geometry": {"type": "Point", "coordinates": [5.3873419, 34.7272481]}, "properties": {"name": "فندق - دار الضياف ( في طريق الانجاز)", "name_ar": "فندق - دار الضياف ( في طريق الانجاز)", "name_fr": "Hôtel- dar dhiaf ( En construction)", "type": "hotel", "wilaya_code": "07", "source": "OpenStreetMap", "osm_id": 5009629024, "id": 231, "lat": 34.7272481, "lng": 5.3873419}}, {"type": "Feature", "geometry": {"type": "Point", "coordinates": [5.7087157, 34.8599857]}, "properties": {"name": "فندق البريد و المواصلات", "name_ar": "فندق البريد و المواصلات", "name_fr": "hotel PTT", "type": "hotel", "wilaya_code": "07", "source": "OpenStreetMap", "osm_id": 320031406, "id": 232, "lat": 34.8599857, "lng": 5.7087157}}, {"type": "Feature", "geometry": {"type": "Point", "coordinates": [5.7356668, 34.8420257]}, "properties": {"name": "فندق الزيبان", "name_ar": "فندق الزيبان", "name_fr": "Hôtel Des Zibans", "type": "hotel", "wilaya_code": "07", "source": "OpenStreetMap", "osm_id": 263406191, "id": 233, "lat": 34.8420257, "lng": 5.7356668}}, {"type": "Feature", "geometry": {"type": "Point", "coordinates": [5.7094796, 34.8588841]}, "properties": {"name": "فندق حمام الصالحين", "name_ar": "فندق حمام الصالحين", "name_fr": "Hôtel Hammam Salehine", "type": "hotel", "phone": "+21333759632", "website": "https://www.hammam-salihine.com/", "wilaya_code": "07", "source": "OpenStreetMap", "osm_id": 320031407, "id": 234, "lat": 34.8588841, "lng": 5.7094796}}, {"type": "Feature", "geometry": {"type": "Point", "coordinates": [5.725979, 34.8573475]}, "properties": {"name": "فندق فكتوريا", "name_ar": "فندق فكتوريا", "name_fr": "Hotel Victoria", "type": "hotel", "wilaya_code": "07", "source": "OpenStreetMap", "osm_id": 338358051, "id": 235, "lat": 34.8573475, "lng": 5.725979}}, {"type": "Feature", "geometry": {"type": "Point", "coordinates": [5.7188333, 34.8711214]}, "properties": {"name": "فندق نايل زكريا", "name_fr": "Hotel Nail Zakaria", "type": "hotel", "wilaya_code": "07", "source": "OpenStreetMap", "osm_id": 1076527595, "id": 236, "lat": 34.8711214, "lng": 5.7188333}}, {"type": "Feature", "geometry": {"type": "Point", "coordinates": [5.7268009, 34.858025]}, "properties": {"name": "فندق نسيب", "name_ar": "فندق نسيب", "name_fr": "Hotel Necib", "type": "hotel", "wilaya_code": "07", "source": "OpenStreetMap", "osm_id": 336421482, "id": 237, "lat": 34.858025, "lng": 5.7268009}}, {"type": "Feature", "geometry": {"type": "Point", "coordinates": [-3.2557317, 29.40555]}, "properties": {"name": "تبلبالة", "name_ar": "تبلبالة", "type": "apartment", "wilaya_code": "08", "source": "OpenStreetMap", "osm_id": 7969645742, "id": 238, "lat": 29.40555, "lng": -3.2557317}}, {"type": "Feature", "geometry": {"type": "Point", "coordinates": [-4.4556408, 30.398352]}, "properties": {"name": "tamasent", "type": "chalet", "wilaya_code": "08", "source": "OpenStreetMap", "osm_id": 4244145444, "id": 239, "lat": 30.398352, "lng": -4.4556408}}, {"type": "Feature", "geometry": {"type": "Point", "coordinates": [-2.0285923, 30.9153567]}, "properties": {"name": "دار الشباب تاغيت", "name_ar": "دار الشباب تاغيت", "type": "hostel", "wilaya_code": "08", "source": "OpenStreetMap", "osm_id": 4450717590, "id": 240, "lat": 30.9153567, "lng": -2.0285923}}, {"type": "Feature", "geometry": {"type": "Point", "coordinates": [-2.0467779, 30.9397066]}, "properties": {"name": "Auberge Zaouia Fougania", "type": "hotel", "wilaya_code": "08", "source": "OpenStreetMap", "osm_id": 3968415393, "id": 241, "lat": 30.9397066, "lng": -2.0467779}}, {"type": "Feature", "geometry": {"type": "Point", "coordinates": [-2.0307097, 30.9234289]}, "properties": {"name": "Bordj Taghit", "name_ar": "برج تاغيت", "type": "hotel", "wilaya_code": "08", "source": "OpenStreetMap", "osm_id": 3968755065, "id": 242, "lat": 30.9234289, "lng": -2.0307097}}, {"type": "Feature", "geometry": {"type": "Point", "coordinates": [-2.0269472, 30.9120007]}, "properties": {"name": "Centre de repos de Moujahedines", "type": "hotel", "wilaya_code": "08", "source": "OpenStreetMap", "osm_id": 3961963670, "id": 243, "lat": 30.9120007, "lng": -2.0269472}}, {"type": "Feature", "geometry": {"type": "Point", "coordinates": [-2.2098416, 31.6280915]}, "properties": {"name": "Complexe Belagraa", "type": "hotel", "wilaya_code": "08", "source": "OpenStreetMap", "osm_id": 281228603, "id": 244, "lat": 31.6280915, "lng": -2.2098416}}, {"type": "Feature", "geometry": {"type": "Point", "coordinates": [-2.0230075, 30.9038981]}, "properties": {"name": "Dar TERREHUT دار تاغيت", "name_ar": "Dar TERREHUT دار تاغيت", "type": "hotel", "wilaya_code": "08", "source": "OpenStreetMap", "osm_id": 3968755066, "id": 245, "lat": 30.9038981, "lng": -2.0230075}}, {"type": "Feature", "geometry": {"type": "Point", "coordinates": [-2.1962738, 31.6396612]}, "properties": {"name": "Hotel Grouz", "name_ar": "فندق قروز", "type": "hotel", "address": "طريق الساورة", "wilaya_code": "08", "source": "OpenStreetMap", "osm_id": 812596009, "id": 246, "lat": 31.6396612, "lng": -2.1962738}}, {"type": "Feature", "geometry": {"type": "Point", "coordinates": [-2.2170561, 31.6070035]}, "properties": {"name": "Hôtel Antar", "name_ar": "فندق عنتر", "name_fr": "Hôtel Antar", "type": "hotel", "wilaya_code": "08", "source": "OpenStreetMap", "osm_id": 273878940, "id": 247, "lat": 31.6070035, "lng": -2.2170561}}, {"type": "Feature", "geometry": {"type": "Point", "coordinates": [-2.2127646, 31.6194048]}, "properties": {"name": "Hôtel Hamza", "name_ar": "فندق حمزة", "type": "hotel", "wilaya_code": "08", "source": "OpenStreetMap", "osm_id": 423825920, "id": 248, "lat": 31.6194048, "lng": -2.2127646}}, {"type": "Feature", "geometry": {"type": "Point", "coordinates": [-2.0311661, 30.9196889]}, "properties": {"name": "Hôtel Le Saoura", "name_ar": "فندق الساورة", "type": "hotel", "wilaya_code": "08", "source": "OpenStreetMap", "osm_id": 3968588002, "id": 249, "lat": 30.9196889, "lng": -2.0311661}}, {"type": "Feature", "geometry": {"type": "Point", "coordinates": [-2.2154591, 31.6143788]}, "properties": {"name": "Hôtel Madania", "name_ar": "مدنية", "name_fr": "Madania", "type": "hotel", "wilaya_code": "08", "source": "OpenStreetMap", "osm_id": 2852024744, "id": 250, "lat": 31.6143788, "lng": -2.2154591}}, {"type": "Feature", "geometry": {"type": "Point", "coordinates": [-2.2155574, 31.6225156]}, "properties": {"name": "Hôtel Militaire 3°RM", "type": "hotel", "wilaya_code": "08", "source": "OpenStreetMap", "osm_id": 273531613, "id": 251, "lat": 31.6225156, "lng": -2.2155574}}, {"type": "Feature", "geometry": {"type": "Point", "coordinates": [-2.0316361, 30.9226537]}, "properties": {"name": "Loubana Taghit Residence", "type": "hotel", "wilaya_code": "08", "source": "OpenStreetMap", "osm_id": 3968755067, "id": 252, "lat": 30.9226537, "lng": -2.0316361}}, {"type": "Feature", "geometry": {"type": "Point", "coordinates": [-2.2327744, 31.6057187]}, "properties": {"name": "UTMB Hotel", "type": "hotel", "rooms": 8, "address": "Avenue Independence", "wilaya_code": "08", "source": "OpenStreetMap", "osm_id": 557149112, "id": 253, "lat": 31.6057187, "lng": -2.2327744}}, {"type": "Feature", "geometry": {"type": "Point", "coordinates": [-2.0288729, 30.9184144]}, "properties": {"name": "إقامة تاغيت الذهبي", "name_ar": "إقامة تاغيت الذهبي", "name_fr": "Taghit d'or résidence", "type": "hotel", "phone": "0670351917", "wilaya_code": "08", "source": "OpenStreetMap", "osm_id": 4702549789, "id": 254, "lat": 30.9184144, "lng": -2.0288729}}, {"type": "Feature", "geometry": {"type": "Point", "coordinates": [-2.2095806, 31.627848]}, "properties": {"name": "الجزيرة", "name_ar": "الجزيرة", "name_fr": "El Djazira", "type": "hotel", "wilaya_code": "08", "source": "OpenStreetMap", "osm_id": 2677014727, "id": 255, "lat": 31.627848, "lng": -2.2095806}}, {"type": "Feature", "geometry": {"type": "Point", "coordinates": [-2.2259595, 31.6249023]}, "properties": {"name": "بيت الشباب", "name_ar": "بيت الشباب", "name_fr": "Auberge", "type": "hotel", "wilaya_code": "08", "source": "OpenStreetMap", "osm_id": 4601420589, "id": 256, "lat": 31.6249023, "lng": -2.2259595}}, {"type": "Feature", "geometry": {"type": "Point", "coordinates": [-1.2465421, 32.0489441]}, "properties": {"name": "فندق الرحمة", "name_ar": "فندق الرحمة", "type": "hotel", "wilaya_code": "08", "source": "OpenStreetMap", "osm_id": 712660175, "id": 257, "lat": 32.0489441, "lng": -1.2465421}}, {"type": "Feature", "geometry": {"type": "Point", "coordinates": [-2.213082, 31.6157246]}, "properties": {"name": "فندق السعادة", "name_ar": "فندق السعادة", "name_fr": "Hotel Saâada", "type": "hotel", "wilaya_code": "08", "source": "OpenStreetMap", "osm_id": 3209772738, "id": 258, "lat": 31.6157246, "lng": -2.213082}}, {"type": "Feature", "geometry": {"type": "Point", "coordinates": [-2.2207563, 31.6251538]}, "properties": {"name": "فندق المغرب العربي", "name_ar": "فندق المغرب العربي", "name_fr": "Hotel Maghreb arabe", "type": "hotel", "address": "شارع الحرية", "wilaya_code": "08", "source": "OpenStreetMap", "osm_id": 4601419791, "id": 259, "lat": 31.6251538, "lng": -2.2207563}}, {"type": "Feature", "geometry": {"type": "Point", "coordinates": [-1.2468565, 32.049221]}, "properties": {"name": "فندق بني ونيف", "name_ar": "فندق بني ونيف", "type": "hotel", "wilaya_code": "08", "source": "OpenStreetMap", "osm_id": 712660174, "id": 260, "lat": 32.049221, "lng": -1.2468565}}, {"type": "Feature", "geometry": {"type": "Point", "coordinates": [-1.2480021, 32.050336]}, "properties": {"name": "فندق ميموزا سابقا", "name_ar": "فندق ميموزا سابقا", "type": "hotel", "wilaya_code": "08", "source": "OpenStreetMap", "osm_id": 712660176, "id": 261, "lat": 32.050336, "lng": -1.2480021}}, {"type": "Feature", "geometry": {"type": "Point", "coordinates": [-2.7028995, 31.0232699]}, "properties": {"name": "نزل الشباب", "name_ar": "نزل الشباب", "name_fr": "Hauberge de jeunes", "type": "hotel", "wilaya_code": "08", "source": "OpenStreetMap", "osm_id": 257154305, "id": 262, "lat": 31.0232699, "lng": -2.7028995}}, {"type": "Feature", "geometry": {"type": "Point", "coordinates": [-2.0243909, 30.9029988]}, "properties": {"name": "Bella suites Taghit", "type": "motel", "wilaya_code": "08", "source": "OpenStreetMap", "osm_id": 13626237401, "id": 263, "lat": 30.9029988, "lng": -2.0243909}}, {"type": "Feature", "geometry": {"type": "Point", "coordinates": [3.1322857, 36.5399926]}, "properties": {"name": "Korichi", "type": "apartment", "wilaya_code": "09", "source": "OpenStreetMap", "osm_id": 11724649169, "id": 264, "lat": 36.5399926, "lng": 3.1322857}}, {"type": "Feature", "geometry": {"type": "Point", "coordinates": [3.1477058, 36.5818333]}, "properties": {"name": "حي بعوني يوسف", "name_ar": "حي بعوني يوسف", "type": "apartment", "wilaya_code": "09", "source": "OpenStreetMap", "osm_id": 6749383493, "id": 265, "lat": 36.5818333, "lng": 3.1477058}}, {"type": "Feature", "geometry": {"type": "Point", "coordinates": [3.0905323, 36.5379663]}, "properties": {"name": "منزل عائلة زرماني", "name_ar": "منزل عائلة زرماني", "type": "apartment", "wilaya_code": "09", "source": "OpenStreetMap", "osm_id": 4956816422, "id": 266, "lat": 36.5379663, "lng": 3.0905323}}, {"type": "Feature", "geometry": {"type": "Point", "coordinates": [2.8035322, 36.4539401]}, "properties": {"name": "DJ", "type": "chalet", "wilaya_code": "09", "source": "OpenStreetMap", "osm_id": 12550917702, "id": 267, "lat": 36.4539401, "lng": 2.8035322}}, {"type": "Feature", "geometry": {"type": "Point", "coordinates": [2.8171126, 36.5217331]}, "properties": {"name": "Abderrahmane", "name_ar": "Abderrahmane", "type": "guest_house", "wilaya_code": "09", "source": "OpenStreetMap", "osm_id": 4428980591, "id": 268, "lat": 36.5217331, "lng": 2.8171126}}, {"type": "Feature", "geometry": {"type": "Point", "coordinates": [2.8652177, 36.5040601]}, "properties": {"name": "Hnifa", "type": "guest_house", "wilaya_code": "09", "source": "OpenStreetMap", "osm_id": 7629139685, "id": 269, "lat": 36.5040601, "lng": 2.8652177}}, {"type": "Feature", "geometry": {"type": "Point", "coordinates": [2.8159877, 36.4916345]}, "properties": {"name": "البليدة", "type": "guest_house", "wilaya_code": "09", "source": "OpenStreetMap", "osm_id": 8224745118, "id": 270, "lat": 36.4916345, "lng": 2.8159877}}, {"type": "Feature", "geometry": {"type": "Point", "coordinates": [2.8108115, 36.4658503]}, "properties": {"name": "قاعة حفلات هدى", "name_ar": "قاعة حفلات هدى", "type": "guest_house", "wilaya_code": "09", "source": "OpenStreetMap", "osm_id": 5025204121, "id": 271, "lat": 36.4658503, "lng": 2.8108115}}, {"type": "Feature", "geometry": {"type": "Point", "coordinates": [2.8450615, 36.4905833]}, "properties": {"name": "Auberge de Jeunesse", "type": "hostel", "wilaya_code": "09", "source": "OpenStreetMap", "osm_id": 387003771, "id": 272, "lat": 36.4905833, "lng": 2.8450615}}, {"type": "Feature", "geometry": {"type": "Point", "coordinates": [2.8209152, 36.4750986]}, "properties": {"name": "السلام", "type": "hostel", "wilaya_code": "09", "source": "OpenStreetMap", "osm_id": 9207446117, "id": 273, "lat": 36.4750986, "lng": 2.8209152}}, {"type": "Feature", "geometry": {"type": "Point", "coordinates": [2.8481391, 36.4961094]}, "properties": {"name": "BN Hotel", "type": "hotel", "phone": "+213541846908", "wilaya_code": "09", "source": "OpenStreetMap", "osm_id": 13299569101, "id": 274, "lat": 36.4961094, "lng": 2.8481391}}, {"type": "Feature", "geometry": {"type": "Point", "coordinates": [2.8266505, 36.4735893]}, "properties": {"name": "Blida", "type": "hotel", "wilaya_code": "09", "source": "OpenStreetMap", "osm_id": 6935981886, "id": 275, "lat": 36.4735893, "lng": 2.8266505}}, {"type": "Feature", "geometry": {"type": "Point", "coordinates": [3.0458884, 36.4866322]}, "properties": {"name": "Complexe Thermal Zaim de Hammam Melouane", "name_ar": "مركب الحموي زعيم حمام ملوان", "name_fr": "Complexe Thermal Zaim de Hammam Melouane", "type": "hotel", "phone": "+213667821731", "wilaya_code": "09", "source": "OpenStreetMap", "osm_id": 392579679, "id": 276, "lat": 36.4866322, "lng": 3.0458884}}, {"type": "Feature", "geometry": {"type": "Point", "coordinates": [2.8233742, 36.4701945]}, "properties": {"name": "Hotel El Aqsa", "name_ar": "فندق الأقصى", "name_fr": "Hotel El Aqsa", "type": "hotel", "phone": "+213 25 21 13 90", "address": "Boulevard El qods", "wilaya_code": "09", "source": "OpenStreetMap", "osm_id": 305827560, "id": 277, "lat": 36.4701945, "lng": 2.8233742}}, {"type": "Feature", "geometry": {"type": "Point", "coordinates": [2.8826844, 36.429576]}, "properties": {"name": "Hôtel", "type": "hotel", "wilaya_code": "09", "source": "OpenStreetMap", "osm_id": 316831488, "id": 278, "lat": 36.429576, "lng": 2.8826844}}, {"type": "Feature", "geometry": {"type": "Point", "coordinates": [2.886555, 36.4304427]}, "properties": {"name": "Hôtel & Restaurant Chréa", "type": "hotel", "wilaya_code": "09", "source": "OpenStreetMap", "osm_id": 316828024, "id": 279, "lat": 36.4304427, "lng": 2.886555}}, {"type": "Feature", "geometry": {"type": "Point", "coordinates": [2.7598901, 36.4226617]}, "properties": {"name": "Hôtel & Restaurant La Citadelle", "type": "hotel", "address": "Route de Médéa", "wilaya_code": "09", "source": "OpenStreetMap", "osm_id": 381576896, "id": 280, "lat": 36.4226617, "lng": 2.7598901}}, {"type": "Feature", "geometry": {"type": "Point", "coordinates": [2.8205781, 36.4709365]}, "properties": {"name": "Hôtel Clean", "name_ar": "فندق كلين", "name_fr": "Hôtel Clean", "type": "hotel", "wilaya_code": "09", "source": "OpenStreetMap", "osm_id": 3649706901, "id": 281, "lat": 36.4709365, "lng": 2.8205781}}, {"type": "Feature", "geometry": {"type": "Point", "coordinates": [2.8186024, 36.4760083]}, "properties": {"name": "Hôtel El Ansar", "type": "hotel", "address": "Avenue Amara Youcef", "wilaya_code": "09", "source": "OpenStreetMap", "osm_id": 375964691, "id": 282, "lat": 36.4760083, "lng": 2.8186024}}, {"type": "Feature", "geometry": {"type": "Point", "coordinates": [2.8281951, 36.4687613]}, "properties": {"name": "Hôtel El Kaouthar", "name_ar": "فندق الكوثر", "name_fr": "Hôtel El Kaouthar", "type": "hotel", "wilaya_code": "09", "source": "OpenStreetMap", "osm_id": 1174115756, "id": 283, "lat": 36.4687613, "lng": 2.8281951}}, {"type": "Feature", "geometry": {"type": "Point", "coordinates": [2.819953, 36.478995]}, "properties": {"name": "Hôtel El Wouroud", "name_ar": "فندق الورود", "name_fr": "Hôtel El Wouroud", "type": "hotel", "address": "Boulevard Mohamed Boudiaf", "wilaya_code": "09", "source": "OpenStreetMap", "osm_id": 304364304, "id": 284, "lat": 36.478995, "lng": 2.819953}}, {"type": "Feature", "geometry": {"type": "Point", "coordinates": [2.8530811, 36.4964199]}, "properties": {"name": "Hôtel Guerguite", "type": "hotel", "address": "Passerelle", "wilaya_code": "09", "source": "OpenStreetMap", "osm_id": 363529103, "id": 285, "lat": 36.4964199, "lng": 2.8530811}}, {"type": "Feature", "geometry": {"type": "Point", "coordinates": [2.7981812, 36.4675492]}, "properties": {"name": "Hôtel Militaire Blida", "type": "hotel", "wilaya_code": "09", "source": "OpenStreetMap", "osm_id": 6178091787, "id": 286, "lat": 36.4675492, "lng": 2.7981812}}, {"type": "Feature", "geometry": {"type": "Point", "coordinates": [2.8611335, 36.495866]}, "properties": {"name": "Hôtel Méditerranée", "type": "hotel", "wilaya_code": "09", "source": "OpenStreetMap", "osm_id": 374102158, "id": 287, "lat": 36.495866, "lng": 2.8611335}}, {"type": "Feature", "geometry": {"type": "Point", "coordinates": [2.8758524, 36.4262208]}, "properties": {"name": "Hôtel Nassim", "type": "hotel", "wilaya_code": "09", "source": "OpenStreetMap", "osm_id": 316831531, "id": 288, "lat": 36.4262208, "lng": 2.8758524}}, {"type": "Feature", "geometry": {"type": "Point", "coordinates": [2.8378385, 36.4888796]}, "properties": {"name": "Hôtel Palace", "type": "hotel", "address": "Rue du 11 Décembre 1960", "wilaya_code": "09", "source": "OpenStreetMap", "osm_id": 305544112, "id": 289, "lat": 36.4888796, "lng": 2.8378385}}, {"type": "Feature", "geometry": {"type": "Point", "coordinates": [2.8289631, 36.4818238]}, "properties": {"name": "Hôtel Plaza 2", "type": "hotel", "stars": 0, "wilaya_code": "09", "source": "OpenStreetMap", "osm_id": 1174132282, "id": 290, "lat": 36.4818238, "lng": 2.8289631}}, {"type": "Feature", "geometry": {"type": "Point", "coordinates": [2.8310405, 36.4752111]}, "properties": {"name": "Hôtel Plaza Blida", "type": "hotel", "address": "Avenue Benboulaid Mustapha", "wilaya_code": "09", "source": "OpenStreetMap", "osm_id": 377739636, "id": 291, "lat": 36.4752111, "lng": 2.8310405}}, {"type": "Feature", "geometry": {"type": "Point", "coordinates": [2.8292255, 36.4752657]}, "properties": {"name": "Hôtel de Paris", "type": "hotel", "wilaya_code": "09", "source": "OpenStreetMap", "osm_id": 377460099, "id": 292, "lat": 36.4752657, "lng": 2.8292255}}, {"type": "Feature", "geometry": {"type": "Point", "coordinates": [2.8768664, 36.4270804]}, "properties": {"name": "Hôtel les Cèdres", "type": "hotel", "wilaya_code": "09", "source": "OpenStreetMap", "osm_id": 316828018, "id": 293, "lat": 36.4270804, "lng": 2.8768664}}, {"type": "Feature", "geometry": {"type": "Point", "coordinates": [2.8664613, 36.5227749]}, "properties": {"name": "KT Hôtels", "name_fr": "KT Hôtel", "type": "hotel", "stars": 4, "phone": "+21325420303", "website": "http://www.kthotels.com/", "wilaya_code": "09", "source": "OpenStreetMap", "osm_id": 275928639, "id": 294, "lat": 36.5227749, "lng": 2.8664613}}, {"type": "Feature", "geometry": {"type": "Point", "coordinates": [2.9142327, 36.5697575]}, "properties": {"name": "Motel boufarik", "name_fr": "Motel boufarik", "type": "hotel", "address": "rue sidi ben youcef", "wilaya_code": "09", "source": "OpenStreetMap", "osm_id": 5287918222, "id": 295, "lat": 36.5697575, "lng": 2.9142327}}, {"type": "Feature", "geometry": {"type": "Point", "coordinates": [2.7618982, 36.4005125]}, "properties": {"name": "Ruisseau des Singes", "name_ar": "عنصر القردة", "name_fr": "Ruisseau des Singes", "type": "hotel", "address": "Route de Médéa", "wilaya_code": "09", "source": "OpenStreetMap", "osm_id": 381573892, "id": 296, "lat": 36.4005125, "lng": 2.7618982}}, {"type": "Feature", "geometry": {"type": "Point", "coordinates": [2.9081958, 36.5724033]}, "properties": {"name": "Metidja", "type": "motel", "wilaya_code": "09", "source": "OpenStreetMap", "osm_id": 222155073, "id": 297, "lat": 36.5724033, "lng": 2.9081958}}, {"type": "Feature", "geometry": {"type": "Point", "coordinates": [2.9061432, 36.5720546]}, "properties": {"name": "Motel El Rahma", "name_ar": "مرقد الرحمة", "type": "motel", "wilaya_code": "09", "source": "OpenStreetMap", "osm_id": 4728439590, "id": 298, "lat": 36.5720546, "lng": 2.9061432}}, {"type": "Feature", "geometry": {"type": "Point", "coordinates": [2.8301676, 36.4731575]}, "properties": {"name": "مرقد الامير", "name_ar": "مرقد الامير", "type": "motel", "wilaya_code": "09", "source": "OpenStreetMap", "osm_id": 7845353385, "id": 299, "lat": 36.4731575, "lng": 2.8301676}}, {"type": "Feature", "geometry": {"type": "Point", "coordinates": [3.3869258, 36.5353143]}, "properties": {"name": "Mosquée Ouled Allal", "type": "apartment", "wilaya_code": "10", "source": "OpenStreetMap", "osm_id": 7232713586, "id": 300, "lat": 36.5353143, "lng": 3.3869258}}, {"type": "Feature", "geometry": {"type": "Point", "coordinates": [3.7518136, 36.5567359]}, "properties": {"name": "منزل ساعد دالوا بن سليمان", "type": "apartment", "wilaya_code": "10", "source": "OpenStreetMap", "osm_id": 13831966801, "id": 301, "lat": 36.5567359, "lng": 3.7518136}}, {"type": "Feature", "geometry": {"type": "Point", "coordinates": [3.8969657, 36.3923875]}, "properties": {"name": "Dar", "type": "guest_house", "wilaya_code": "10", "source": "OpenStreetMap", "osm_id": 6238493785, "id": 302, "lat": 36.3923875, "lng": 3.8969657}}, {"type": "Feature", "geometry": {"type": "Point", "coordinates": [3.901555, 36.3917328]}, "properties": {"name": "Maison d'hôtes Nassim", "name_ar": "دار الضيافة النسيم", "type": "guest_house", "wilaya_code": "10", "source": "OpenStreetMap", "osm_id": 306695074, "id": 303, "lat": 36.3917328, "lng": 3.901555}}, {"type": "Feature", "geometry": {"type": "Point", "coordinates": [3.6867547, 36.1477851]}, "properties": {"name": "Auberge", "type": "hostel", "wilaya_code": "10", "source": "OpenStreetMap", "osm_id": 348769628, "id": 304, "lat": 36.1477851, "lng": 3.6867547}}, {"type": "Feature", "geometry": {"type": "Point", "coordinates": [3.6762828, 36.2934065]}, "properties": {"name": "Auberge de jeunesse Chemlal Saïd", "type": "hostel", "wilaya_code": "10", "source": "OpenStreetMap", "osm_id": 592872346, "id": 305, "lat": 36.2934065, "lng": 3.6762828}}, {"type": "Feature", "geometry": {"type": "Point", "coordinates": [3.9142971, 36.3753362]}, "properties": {"name": "maison de jeunes", "type": "hostel", "wilaya_code": "10", "source": "OpenStreetMap", "osm_id": 704708607, "id": 306, "lat": 36.3753362, "lng": 3.9142971}}, {"type": "Feature", "geometry": {"type": "Point", "coordinates": [3.9145854, 36.3752421]}, "properties": {"name": "maison de jeunes", "type": "hostel", "wilaya_code": "10", "source": "OpenStreetMap", "osm_id": 704708608, "id": 307, "lat": 36.3752421, "lng": 3.9145854}}, {"type": "Feature", "geometry": {"type": "Point", "coordinates": [3.9142777, 36.3750589]}, "properties": {"name": "maison de jeunes", "type": "hostel", "wilaya_code": "10", "source": "OpenStreetMap", "osm_id": 704708609, "id": 308, "lat": 36.3750589, "lng": 3.9142777}}, {"type": "Feature", "geometry": {"type": "Point", "coordinates": [3.9144718, 36.375102]}, "properties": {"name": "maison de jeunes", "type": "hostel", "wilaya_code": "10", "source": "OpenStreetMap", "osm_id": 704708610, "id": 309, "lat": 36.375102, "lng": 3.9144718}}, {"type": "Feature", "geometry": {"type": "Point", "coordinates": [3.9144979, 36.3753632]}, "properties": {"name": "maison de jeunes", "type": "hostel", "wilaya_code": "10", "source": "OpenStreetMap", "osm_id": 704708611, "id": 310, "lat": 36.3753632, "lng": 3.9144979}}, {"type": "Feature", "geometry": {"type": "Point", "coordinates": [4.3414892, 36.3157033]}, "properties": {"name": "Akfadou", "type": "hotel", "wilaya_code": "10", "source": "OpenStreetMap", "osm_id": 13361433995, "id": 311, "lat": 36.3157033, "lng": 4.3414892}}, {"type": "Feature", "geometry": {"type": "Point", "coordinates": [3.9024682, 36.3747695]}, "properties": {"name": "Hotel Nedjma", "type": "hotel", "address": "Rue Abane Ramdane", "wilaya_code": "10", "source": "OpenStreetMap", "osm_id": 609497715, "id": 312, "lat": 36.3747695, "lng": 3.9024682}}, {"type": "Feature", "geometry": {"type": "Point", "coordinates": [3.8993099, 36.3792793]}, "properties": {"name": "Hotel Royal Asensu Royal", "name_ar": "فندق رويال", "type": "hotel", "stars": 3, "wilaya_code": "10", "source": "OpenStreetMap", "osm_id": 551514055, "id": 313, "lat": 36.3792793, "lng": 3.8993099}}, {"type": "Feature", "geometry": {"type": "Point", "coordinates": [4.0077383, 36.3237837]}, "properties": {"name": "Hôtel", "type": "hotel", "wilaya_code": "10", "source": "OpenStreetMap", "osm_id": 554947609, "id": 314, "lat": 36.3237837, "lng": 4.0077383}}, {"type": "Feature", "geometry": {"type": "Point", "coordinates": [4.2334153, 36.2811031]}, "properties": {"name": "Hôtel Arcadia", "type": "hotel", "wilaya_code": "10", "source": "OpenStreetMap", "osm_id": 13062062602, "id": 315, "lat": 36.2811031, "lng": 4.2334153}}, {"type": "Feature", "geometry": {"type": "Point", "coordinates": [3.9011558, 36.3909801]}, "properties": {"name": "Hôtel Erriche", "name_ar": "فندق الريش", "name_fr": "Hôtel Erriche", "type": "hotel", "wilaya_code": "10", "source": "OpenStreetMap", "osm_id": 550884973, "id": 316, "lat": 36.3909801, "lng": 3.9011558}}, {"type": "Feature", "geometry": {"type": "Point", "coordinates": [3.891943, 36.3800837]}, "properties": {"name": "Hôtel Sofia", "type": "hotel", "wilaya_code": "10", "source": "OpenStreetMap", "osm_id": 2952534497, "id": 317, "lat": 36.3800837, "lng": 3.891943}}, {"type": "Feature", "geometry": {"type": "Point", "coordinates": [3.8920157, 36.375771]}, "properties": {"name": "Hôtel ouest", "type": "hotel", "wilaya_code": "10", "source": "OpenStreetMap", "osm_id": 11903607869, "id": 318, "lat": 36.375771, "lng": 3.8920157}}, {"type": "Feature", "geometry": {"type": "Point", "coordinates": [3.9039993, 36.3711366]}, "properties": {"name": "Hôtel résidence", "type": "hotel", "wilaya_code": "10", "source": "OpenStreetMap", "osm_id": 311912619, "id": 319, "lat": 36.3711366, "lng": 3.9039993}}, {"type": "Feature", "geometry": {"type": "Point", "coordinates": [5.2524325, 22.8293273]}, "properties": {"name": "قرية أهلفن", "name_ar": "قرية أهلفن", "type": "alpine_hut", "wilaya_code": "11", "source": "OpenStreetMap", "osm_id": 4807758423, "id": 320, "lat": 22.8293273, "lng": 5.2524325}}, {"type": "Feature", "geometry": {"type": "Point", "coordinates": [5.3272179, 23.6338617]}, "properties": {"name": "قرية إفرغ", "name_ar": "قرية إفرغ", "type": "alpine_hut", "wilaya_code": "11", "source": "OpenStreetMap", "osm_id": 4818568522, "id": 321, "lat": 23.6338617, "lng": 5.3272179}}, {"type": "Feature", "geometry": {"type": "Point", "coordinates": [5.5179657, 22.7865151]}, "properties": {"name": "Traversée rivière;عبور النهر", "name_ar": "عبور النهر", "type": "chalet", "wilaya_code": "11", "source": "OpenStreetMap", "osm_id": 4770704323, "id": 322, "lat": 22.7865151, "lng": 5.5179657}}, {"type": "Feature", "geometry": {"type": "Point", "coordinates": [5.6361201, 23.2587662]}, "properties": {"name": "Funduk", "type": "guest_house", "wilaya_code": "11", "source": "OpenStreetMap", "osm_id": 638520378, "id": 323, "lat": 23.2587662, "lng": 5.6361201}}, {"type": "Feature", "geometry": {"type": "Point", "coordinates": [5.5475502, 22.8020575]}, "properties": {"name": "Maison d'hôtes Moulay Abdelaziz,منزل مولاي عبد العزيز", "name_ar": "منزل مولاي عبد العزيز", "type": "guest_house", "wilaya_code": "11", "source": "OpenStreetMap", "osm_id": 8487180717, "id": 324, "lat": 22.8020575, "lng": 5.5475502}}, {"type": "Feature", "geometry": {"type": "Point", "coordinates": [5.5180524, 22.7711629]}, "properties": {"name": "Saleh;ص لح", "name_ar": "ص لح", "type": "guest_house", "wilaya_code": "11", "source": "OpenStreetMap", "osm_id": 6779305289, "id": 325, "lat": 22.7711629, "lng": 5.5180524}}, {"type": "Feature", "geometry": {"type": "Point", "coordinates": [6.2618162, 23.4224853]}, "properties": {"name": "دار المومن", "type": "guest_house", "wilaya_code": "11", "source": "OpenStreetMap", "osm_id": 8386154017, "id": 326, "lat": 23.4224853, "lng": 6.2618162}}, {"type": "Feature", "geometry": {"type": "Point", "coordinates": [5.5129546, 22.7940272]}, "properties": {"name": "Auberge de jeunesse;بيت الشباب", "name_ar": "بيت الشباب", "type": "hostel", "wilaya_code": "11", "source": "OpenStreetMap", "osm_id": 4579812899, "id": 327, "lat": 22.7940272, "lng": 5.5129546}}, {"type": "Feature", "geometry": {"type": "Point", "coordinates": [5.5272227, 22.7943796]}, "properties": {"name": "Résidence El Hana;مسكن الهنا", "name_ar": "مسكن الهنا", "type": "hostel", "wilaya_code": "11", "source": "OpenStreetMap", "osm_id": 7941005146, "id": 328, "lat": 22.7943796, "lng": 5.5272227}}, {"type": "Feature", "geometry": {"type": "Point", "coordinates": [5.5123106, 22.8034922]}, "properties": {"name": "Bois Pétrifié;الخشب المتحجر", "name_ar": "الخشب المتحجر", "name_fr": "Complexe Touristique Bois Pétrifié", "type": "hotel", "phone": "+213 661 649 064;+213 662 271 844;+213 770 520 581", "website": "https://bois-petrifie.com/", "address": "الطريق العابر للصحراء", "wilaya_code": "11", "source": "OpenStreetMap", "osm_id": 4780092721, "id": 329, "lat": 22.8034922, "lng": 5.5123106}}, {"type": "Feature", "geometry": {"type": "Point", "coordinates": [5.5257026, 22.7973834]}, "properties": {"name": "Bourenan;بورنان", "name_ar": "بورنان", "name_fr": "Bourenan", "type": "hotel", "wilaya_code": "11", "source": "OpenStreetMap", "osm_id": 5425446921, "id": 330, "lat": 22.7973834, "lng": 5.5257026}}, {"type": "Feature", "geometry": {"type": "Point", "coordinates": [5.5686562, 22.7866431]}, "properties": {"name": "Caravanesérai", "name_fr": "Caravanesérai", "type": "hotel", "wilaya_code": "11", "source": "OpenStreetMap", "osm_id": 5427448521, "id": 331, "lat": 22.7866431, "lng": 5.5686562}}, {"type": "Feature", "geometry": {"type": "Point", "coordinates": [5.5265677, 22.7934637]},