id,name,type_code,type_fr,address,commune,daira,wilaya_code,wilaya_name,capacity,year,operational,pmr,surface_built_m2,surface_land_m2,lat,lng,source
1,,AJF,Aire de jeux football,Cité 400 logs Adrar,ADRAR,ADRAR,01,ADRAR,200,2015,true,,2144,2144,27.8806,-0.2857,https://sig.mjs.gov.dz/dashboard/viewer
2,,AJF,Aire de jeux football,timokten,TIMEKTEN,AOULEF,01,ADRAR,120,2010,true,,1125,1125,27.0422,1.0463,https://sig.mjs.gov.dz/dashboard/viewer
3,,BN,Bassin de natation,Zaouiet Kounta,ZAOUIET KOUNTA,ZAOUIAT KOUNTA,01,ADRAR,,2005,true,,461,461,27.2282,-0.1879,https://sig.mjs.gov.dz/dashboard/viewer
4,,BN,Bassin de natation,Reggane,REGGANE,REGGANE,01,ADRAR,20,2010,true,,,,26.7254,0.1668,https://sig.mjs.gov.dz/dashboard/viewer
5,,BN,Bassin de natation,Aoulef,AOULEF,AOULEF,01,ADRAR,20,2010,true,,,,26.9765,1.0858,https://sig.mjs.gov.dz/dashboard/viewer
6,Bassin de natation T'sabit,BN,Bassin de natation,Tsabit. Adrar,TSABIT,TSABIT,01,ADRAR,80,2005,false,false,504,504,28.3057,-0.2446,https://sig.mjs.gov.dz/dashboard/viewer
7,,P25,Piscine 25 m,Zaouiet Kounta,ZAOUIET KOUNTA,ZAOUIAT KOUNTA,01,ADRAR,,2019,true,,2033,6460,27.2362,-0.1987,https://sig.mjs.gov.dz/dashboard/viewer
8,,P25,Piscine 25 m,OPOW Adrar. voie de saoura. 5 juillet.,ADRAR,ADRAR,01,ADRAR,500,2001,true,,,,27.8858,-0.2826,https://sig.mjs.gov.dz/dashboard/viewer
9,Piscine semi-olympique el moudjahed El-kaymi nadjem,P25,Piscine 25 m,Reggane,REGGANE,REGGANE,01,ADRAR,500,2016,true,,2736,6732,26.731707,0.167776,https://sig.mjs.gov.dz/dashboard/viewer
10,,PA,Piste d'athlétisme,Piste d'athlétisme stade OMS OPOW Adrar,ADRAR,ADRAR,01,ADRAR,,2012,true,,,,27.8846,-0.2815,https://sig.mjs.gov.dz/dashboard/viewer
11,,PP,Piscine de proximité,Tamentit,TAMANTIT,FENOUGHIL,01,ADRAR,100,2020,true,true,886,1848,27.7581,-0.2708,https://sig.mjs.gov.dz/dashboard/viewer
12,Piscine de proximité 140 logts,PP,Piscine de proximité,140 logs Adrar,ADRAR,ADRAR,01,ADRAR,,2020,true,,,,27.8863,-0.3078,https://sig.mjs.gov.dz/dashboard/viewer
13,stade el berichi abedelkader,SF,Stade de football,Reggane,REGGANE,REGGANE,01,ADRAR,,2016,true,true,,,26.7101,0.1781,https://sig.mjs.gov.dz/dashboard/viewer
14,,SOMS,Salle OMS,voie de saoura. 5 juillet. opow 18 février.,ADRAR,ADRAR,01,ADRAR,1000,1998,true,,23000,23000,27.8851,-0.2833,https://sig.mjs.gov.dz/dashboard/viewer
15,,SOMS,Salle OMS,,REGGANE,REGGANE,01,ADRAR,,,,,,,26.7248,0.1668,https://sig.mjs.gov.dz/dashboard/viewer
16,salle omnisports. 140 logts,SOMS,Salle OMS,140 logs Adrar,ADRAR,ADRAR,01,ADRAR,1000,2010,true,,1870,4600,27.8867,-0.3086,https://sig.mjs.gov.dz/dashboard/viewer
17,,STOMS,Stade OMS,OPOW Adrar complexe omnisports 18 féveier,ADRAR,ADRAR,01,ADRAR,1824,1998,true,,600,22000,27.8844,-0.2812,https://sig.mjs.gov.dz/dashboard/viewer
18,Stade OMS Aoulef,STOMS,Stade OMS,Aoulef,AOULEF,AOULEF,01,ADRAR,,,false,,,,26.978696,1.082958,https://sig.mjs.gov.dz/dashboard/viewer
19,,TSP,Terrain sportif de proximité,Aoulef Akabli,AKABLI,AOULEF,01,ADRAR,120,2010,true,,1125,1125,26.7095,1.3764,https://sig.mjs.gov.dz/dashboard/viewer
20,,TSP,Terrain sportif de proximité,Stade communal inzghmir,IN ZGHMIR,ZAOUIAT KOUNTA,01,ADRAR,120,2010,true,,1125,1125,27.0961,-0.1109,https://sig.mjs.gov.dz/dashboard/viewer
21,,TSP,Terrain sportif de proximité,CSP Aoulef,AOULEF,AOULEF,01,ADRAR,120,2007,true,,1125,1125,26.9756,1.0866,https://sig.mjs.gov.dz/dashboard/viewer
22,,TSP,Terrain sportif de proximité,"Stade communal inzghmir, ELMAHFOUD",IN ZGHMIR,ZAOUIAT KOUNTA,01,ADRAR,120,2006,true,,1125,1125,27.0975,-0.112,https://sig.mjs.gov.dz/dashboard/viewer
23,,TSP,Terrain sportif de proximité,Stade communal Ouled Ahmed Timi,OULED AHMED TIMMI,ADRAR,01,ADRAR,120,2016,true,,1125,1125,27.8362,-0.2913,https://sig.mjs.gov.dz/dashboard/viewer
24,,TSP,Terrain sportif de proximité,Ouayanna commue Timmi Adrar,OULED AHMED TIMMI,ADRAR,01,ADRAR,120,2009,true,,1125,1125,27.898,-0.359,https://sig.mjs.gov.dz/dashboard/viewer
25,,TSP,Terrain sportif de proximité,"CSP, Tsabit, Adrar",TSABIT,TSABIT,01,ADRAR,120,2014,true,true,1125,1125,28.3062,-0.2442,https://sig.mjs.gov.dz/dashboard/viewer
26,,TSP,Terrain sportif de proximité,adrar,ADRAR,ADRAR,01,ADRAR,120,2016,true,,1125,1125,27.8838,-0.2786,https://sig.mjs.gov.dz/dashboard/viewer
27,,TSP,Terrain sportif de proximité,complexe omnisports 18 février,ADRAR,ADRAR,01,ADRAR,12,2005,true,,1125,1125,27.8866,-0.2818,https://sig.mjs.gov.dz/dashboard/viewer
28,,TSP,Terrain sportif de proximité,adrar,ADRAR,ADRAR,01,ADRAR,120,2016,true,,1125,1125,27.8811,-0.2849,https://sig.mjs.gov.dz/dashboard/viewer
29,,TSP,Terrain sportif de proximité,adrar,ADRAR,ADRAR,01,ADRAR,120,2016,true,,1125,1125,27.8796,-0.2808,https://sig.mjs.gov.dz/dashboard/viewer
30,,TSP,Terrain sportif de proximité,complexe sportif 140,ADRAR,ADRAR,01,ADRAR,120,2011,true,,1125,1125,27.8873,-0.3088,https://sig.mjs.gov.dz/dashboard/viewer
31,,TSP,Terrain sportif de proximité,Bakhala. Bouda. Daira d'Adrar,BOUDA,ADRAR,01,ADRAR,120,2010,true,,1125,1125,28.0286,-0.4553,https://sig.mjs.gov.dz/dashboard/viewer
32,,TSP,Terrain sportif de proximité,"La route de la Saoura, Ksar Lahmer, Tamest, Daïra de Fenoughil, Adrar, 1020, Algéri",TAMEST,FENOUGHIL,01,ADRAR,120,2006,true,,1125,1125,27.4189,-0.2441,https://sig.mjs.gov.dz/dashboard/viewer
33,,TSP,Terrain sportif de proximité,Zaouiet Kounta,ZAOUIET KOUNTA,ZAOUIAT KOUNTA,01,ADRAR,120,2011,true,,1125,1125,27.2362,-0.199,https://sig.mjs.gov.dz/dashboard/viewer
34,,TSP,Terrain sportif de proximité,CSP. Zaouiet kounta,ZAOUIET KOUNTA,ZAOUIAT KOUNTA,01,ADRAR,120,2014,true,,1125,1125,27.227,-0.1884,https://sig.mjs.gov.dz/dashboard/viewer
35,,TSP,Terrain sportif de proximité,voie de tililane,ADRAR,ADRAR,01,ADRAR,120,2005,true,,1125,1125,27.8814,-0.2756,https://sig.mjs.gov.dz/dashboard/viewer
36,,TSP,Terrain sportif de proximité,Tit Aoulef,TIT,AOULEF,01,ADRAR,120,2009,true,,1125,1125,26.9441,1.4834,https://sig.mjs.gov.dz/dashboard/viewer
37,,TSP,Terrain sportif de proximité,ouled ali,ADRAR,ADRAR,01,ADRAR,1200,2014,true,,1125,1125,27.8678,-0.2797,https://sig.mjs.gov.dz/dashboard/viewer
38,,TSP,Terrain sportif de proximité,Bakhala. Bouda. Daira d'Adrar,BOUDA,ADRAR,01,ADRAR,120,2014,true,,1125,1125,28.0282,-0.4538,https://sig.mjs.gov.dz/dashboard/viewer
39,,TSP,Terrain sportif de proximité,"sali; daira reggane, Adrar",SALI,REGGANE,01,ADRAR,120,2009,true,,1125,1125,26.958119,-0.025113,https://sig.mjs.gov.dz/dashboard/viewer
40,,TSP,Terrain sportif de proximité,"Sali, Daïra de Reggane, Adrar, 1009, Algérie",SALI,REGGANE,01,ADRAR,120,2007,true,,1125,1125,26.9566,-0.0223,https://sig.mjs.gov.dz/dashboard/viewer
41,,TSP,Terrain sportif de proximité,"reggane, Adrar",REGGANE,REGGANE,01,ADRAR,120,2009,true,,1125,1125,26.72444,0.162752,https://sig.mjs.gov.dz/dashboard/viewer
42,,TSP,Terrain sportif de proximité,reggane Adrar,REGGANE,REGGANE,01,ADRAR,120,2009,true,,1125,1125,26.728468,0.161417,https://sig.mjs.gov.dz/dashboard/viewer
43,,TSP,Terrain sportif de proximité,Ouled Ahmed Timi zaouiet sidi elbakri,OULED AHMED TIMMI,ADRAR,01,ADRAR,12,2014,true,,1125,1125,27.8008,-0.255,https://sig.mjs.gov.dz/dashboard/viewer
44,,TSP,Terrain sportif de proximité,"adrar, Aoulef, Timokten",TIMEKTEN,AOULEF,01,ADRAR,120,2016,true,,1125,1125,27.0312,1.037,https://sig.mjs.gov.dz/dashboard/viewer
45,,TSP,Terrain sportif de proximité,complexe omnisports 18 février,ADRAR,ADRAR,01,ADRAR,12,2009,true,,1125,1125,27.8862,-0.2822,https://sig.mjs.gov.dz/dashboard/viewer
46,,TSP,Terrain sportif de proximité,Zaouiet Kounta. CSP,ZAOUIET KOUNTA,ZAOUIAT KOUNTA,01,ADRAR,120,2011,true,,1125,1125,27.2278,-0.1886,https://sig.mjs.gov.dz/dashboard/viewer
47,,TSP,Terrain sportif de proximité,"Cité 35 logements, Adrar, Daïra d'Adrar, Adrar, 0100, Algérie",ADRAR,ADRAR,01,ADRAR,120,2005,true,,1125,1125,27.8812,-0.2985,https://sig.mjs.gov.dz/dashboard/viewer
48,,TSP,Terrain sportif de proximité,"Tamentit, Daïra de Fenoughil, Adrar, 1038, Algérie",TAMANTIT,FENOUGHIL,01,ADRAR,120,2010,true,,1125,1125,27.7566,-0.261,https://sig.mjs.gov.dz/dashboard/viewer
49,,TSP,Terrain sportif de proximité,"Sali, Daïra de Reggane, Adrar, 1009, Algérie",SALI,REGGANE,01,ADRAR,120,2007,true,,1125,1125,26.9579,-0.0245,https://sig.mjs.gov.dz/dashboard/viewer
50,,TSP,Terrain sportif de proximité,Stade communal Adrar ville. Rue Dine Mohamed,ADRAR,ADRAR,01,ADRAR,120,2014,true,,1125,1125,27.8727,-0.2804,https://sig.mjs.gov.dz/dashboard/viewer
51,,TSP,Terrain sportif de proximité,"reggane, Adrar",REGGANE,REGGANE,01,ADRAR,120,2014,true,,1125,1125,26.709871,0.175455,https://sig.mjs.gov.dz/dashboard/viewer
52,,TSP,Terrain sportif de proximité,"reggane, Adrar",REGGANE,REGGANE,01,ADRAR,120,2007,true,,1125,1125,26.719089,0.185255,https://sig.mjs.gov.dz/dashboard/viewer
53,,TSP,Terrain sportif de proximité,"Route de l'aéroport de Reggane, Daïra de Reggane, Adrar, 1004, Algérie",REGGANE,REGGANE,01,ADRAR,120,2014,true,,1125,1125,26.716,0.1856,https://sig.mjs.gov.dz/dashboard/viewer
54,,TSP,Terrain sportif de proximité,Timokten Daira Aoulef,TIMEKTEN,AOULEF,01,ADRAR,120,2009,true,,1125,1125,27.03,1.0389,https://sig.mjs.gov.dz/dashboard/viewer
55,,TSP,Terrain sportif de proximité,Aoulef Akabli,AKABLI,AOULEF,01,ADRAR,120,2009,true,,1125,1125,26.7105,1.3683,https://sig.mjs.gov.dz/dashboard/viewer
56,,TSP,Terrain sportif de proximité,"reggane, Adrar",REGGANE,REGGANE,01,ADRAR,120,2016,true,,1125,1125,26.725833,0.164932,https://sig.mjs.gov.dz/dashboard/viewer
57,,TSP,Terrain sportif de proximité,"sali; daira reggane, Adrar",SALI,REGGANE,01,ADRAR,120,2016,true,,1125,1125,26.957391,-0.033224,https://sig.mjs.gov.dz/dashboard/viewer
58,,TSP,Terrain sportif de proximité,hay asabah Adrar,ADRAR,ADRAR,01,ADRAR,120,2014,true,,1125,1125,27.8921,-0.2776,https://sig.mjs.gov.dz/dashboard/viewer
59,,TSP,Terrain sportif de proximité,opow Adrar,ADRAR,ADRAR,01,ADRAR,120,2009,true,,1125,1125,27.8853,-0.2818,https://sig.mjs.gov.dz/dashboard/viewer
60,,TSP,Terrain sportif de proximité,fenoughil Zouiet sidi Abdelkader. csp,FENOUGHIL,FENOUGHIL,01,ADRAR,120,2014,true,,1125,1125,27.6086,-0.3078,https://sig.mjs.gov.dz/dashboard/viewer
61,,TSP,Terrain sportif de proximité,"sali; daira reggane, Adrar",SALI,REGGANE,01,ADRAR,120,2009,true,,1125,1125,26.95788,-0.029438,https://sig.mjs.gov.dz/dashboard/viewer
62,,TSP,Terrain sportif de proximité,complexe omnisports 18 février,ADRAR,ADRAR,01,ADRAR,12,2005,true,,1125,1125,27.8864,-0.2815,https://sig.mjs.gov.dz/dashboard/viewer
63,,TSP,Terrain sportif de proximité,Stade communal Adrar ville. Rue Dine Mohamed,ADRAR,ADRAR,01,ADRAR,120,2011,true,,1125,1125,27.8718,-0.2819,https://sig.mjs.gov.dz/dashboard/viewer
64,,TSP,Terrain sportif de proximité,Aoulef,TIMEKTEN,AOULEF,01,ADRAR,120,2007,true,,1125,1125,27.0237,1.069,https://sig.mjs.gov.dz/dashboard/viewer
65,,TSP,Terrain sportif de proximité,Tit Aoulef,TIT,AOULEF,01,ADRAR,120,2007,true,,1125,1125,26.942,1.4913,https://sig.mjs.gov.dz/dashboard/viewer
66,,TSP,Terrain sportif de proximité,"Auberge de jeunes Tamentit, Daïra de Fenoughil, Adrar, 1038, Algérie",TAMANTIT,FENOUGHIL,01,ADRAR,120,2014,true,,1125,1125,27.7565,-0.2706,https://sig.mjs.gov.dz/dashboard/viewer
67,,TSP,Terrain sportif de proximité,Auberge Aoulef,AOULEF,AOULEF,01,ADRAR,120,2009,true,,1125,1125,26.9583,1.0869,https://sig.mjs.gov.dz/dashboard/viewer
68,,TSP,Terrain sportif de proximité,Aoulef,AOULEF,AOULEF,01,ADRAR,120,2007,true,,1125,1125,26.976918,1.084599,https://sig.mjs.gov.dz/dashboard/viewer
69,,TSP,Terrain sportif de proximité,Ouled Abou hafs Timi,OULED AHMED TIMMI,ADRAR,01,ADRAR,120,2014,true,,1125,1125,27.8236,-0.2964,https://sig.mjs.gov.dz/dashboard/viewer
70,,TSP,Terrain sportif de proximité,Stade communal Ouled Ahmed Timi,OULED AHMED TIMMI,ADRAR,01,ADRAR,120,,true,,1125,1125,27.8358,-0.2913,https://sig.mjs.gov.dz/dashboard/viewer
71,,TSP,Terrain sportif de proximité,Rue BENSLIMANE Abdelkader,ADRAR,ADRAR,01,ADRAR,120,,true,,,,27.87,-0.2887,https://sig.mjs.gov.dz/dashboard/viewer
72,,TSP,Terrain sportif de proximité,بلدية أدرار تقاطع شارع مقدم العربي وشارع سيلا محمد,ADRAR,ADRAR,01,ADRAR,120,2001,true,,880,880,27.8755,-0.2866,https://sig.mjs.gov.dz/dashboard/viewer
73,,TSP,Terrain sportif de proximité,"CSP Tamentit, Daïra de Fenoughil, Adrar, 1038, Algérie",TAMANTIT,FENOUGHIL,01,ADRAR,120,2014,,false,1125,1125,27.7556,-0.2643,https://sig.mjs.gov.dz/dashboard/viewer
74,,TSP,Terrain sportif de proximité,ksar sidi youcef fenoughil Adrar,FENOUGHIL,FENOUGHIL,01,ADRAR,120,2014,true,,1125,1125,27.564,-0.2969,https://sig.mjs.gov.dz/dashboard/viewer
75,Terrain combiné,TSP,Terrain sportif de proximité,Maison de jeunes Aoulef,AOULEF,AOULEF,01,ADRAR,120,2011,true,,1125,1125,26.9717,1.0889,https://sig.mjs.gov.dz/dashboard/viewer
76,Terrain combiné,TSP,Terrain sportif de proximité,"Route de l'aéroport de Reggane, Hay Nadjat, Taourirt, Reggane, Daïra de Reggane, Adrar, 1004, Algérie",REGGANE,REGGANE,01,ADRAR,12,2007,true,false,1125,1125,26.7144,0.2172,https://sig.mjs.gov.dz/dashboard/viewer
77,Terrain sportif de proximité,TSP,Terrain sportif de proximité,"Commune de Tit;Daira Aoulef, Wilaya Adrar",TIT,AOULEF,01,ADRAR,12,2023,true,true,1125,1125,26.943341,1.487398,https://sig.mjs.gov.dz/dashboard/viewer
78,Terrain sportif de proximité,TSP,Terrain sportif de proximité,"La route de la Saoura, Sali, Reggane District, Adrar, Algeria",SALI,REGGANE,01,ADRAR,12,2023,true,true,1125,1125,26.874584,0.006637,https://sig.mjs.gov.dz/dashboard/viewer
79,Terrain sportif de proximité,TSP,Terrain sportif de proximité,"La route de la Saoura, Ksar Temassekht, Tamast, Fenoughil District, Adrar, Algeria",TAMEST,FENOUGHIL,01,ADRAR,12,2023,true,true,1125,1125,27.356789,-0.22286,https://sig.mjs.gov.dz/dashboard/viewer
80,Terrain sportif de proximité,TSP,Terrain sportif de proximité,"La route de la Saoura, Takhfif, Zaouiet Kounta, Zaouiet Kounta District, Adrar, 01030, Algeria",IN ZGHMIR,ZAOUIAT KOUNTA,01,ADRAR,12,2023,true,true,1125,1125,27.122239,-0.123876,https://sig.mjs.gov.dz/dashboard/viewer
81,Terrain sportif de proximité,TSP,Terrain sportif de proximité,"Ouayanna, Aouled Ahmed Adrar",OULED AHMED TIMMI,ADRAR,01,ADRAR,12,,true,true,1125,1125,27.8984,-0.3589,https://sig.mjs.gov.dz/dashboard/viewer
82,Aire de jeux de football,AJF,Aire de jeux football,Hay Essamet,BOUZEGHAIA,ZEBOUDJA,02,CHLEF,1000,2024,true,true,5000,5000,36.3274,1.1688,https://sig.mjs.gov.dz/dashboard/viewer
83,Aire de jeux de football,AJF,Aire de jeux football,Hay Al-Hadhaba,ZEBOUDJA,ZEBOUDJA,02,CHLEF,1000,2025,true,true,5000,5000,36.3546,1.4278,https://sig.mjs.gov.dz/dashboard/viewer
84,Aire de jeux de football,AJF,Aire de jeux football,inclus dans le CSP «Al-chahid BOUKERCHAOUI AEK»,BOUKADIR,BOUKADIR,02,CHLEF,1000,2024,true,true,5000,5000,36.0633,1.1122,https://sig.mjs.gov.dz/dashboard/viewer
85,Aire de jeux de football,AJF,Aire de jeux football,Bocca si walid,ABOU EL HASSANE,ABOU EL HASSANE,02,CHLEF,1000,2024,true,true,5000,5000,36.4207,1.2414,https://sig.mjs.gov.dz/dashboard/viewer
86,Aire de jeux de football,AJF,Aire de jeux football,Bocca Nakhla - Halayam,HARCHOUN,EL KARIMIA,02,CHLEF,1000,2024,true,true,5000,5000,36.12452,1.506971,https://sig.mjs.gov.dz/dashboard/viewer
87,Aire de jeux de football,AJF,Aire de jeux football,inclus dans le CSP «Al-chahid les frères ABBED ABBASSI Mohamed et AEK»,SOBHA,BOUKADIR,02,CHLEF,1000,2024,true,true,5000,5000,36.110085,1.090769,https://sig.mjs.gov.dz/dashboard/viewer
88,Aire de jeux de football,AJF,Aire de jeux football,inclus dans le CSP «Al-chahid MISSOUM Mohamed»,LABIOD MEDJADJA,OULED FARES,02,CHLEF,1000,2024,true,true,5000,5000,36.250024,1.39455,https://sig.mjs.gov.dz/dashboard/viewer
89,Aire de jeux de football,AJF,Aire de jeux football,Bocca Bissakra,OUM DROU,CHLEF,02,CHLEF,1000,2014,true,true,5000,5000,36.2264,1.4172,https://sig.mjs.gov.dz/dashboard/viewer
90,Aire de jeux de football,AJF,Aire de jeux football,centre ville,BREIRA,BENI HAOUA,02,CHLEF,1000,2014,true,true,5000,5000,36.4575,1.6064,https://sig.mjs.gov.dz/dashboard/viewer
91,Aire de jeux de football,AJF,Aire de jeux football,centre ville,SENDJAS,CHLEF,02,CHLEF,1000,2014,true,true,5000,5000,36.0602,1.4072,https://sig.mjs.gov.dz/dashboard/viewer
92,Aire de jeux de football,AJF,Aire de jeux football,centre ville,OUED FODDA,OUED FODDA,02,CHLEF,1000,2015,true,true,5000,5000,36.1776,1.5296,https://sig.mjs.gov.dz/dashboard/viewer
93,Aire de jeux de football,AJF,Aire de jeux football,bocca Zouadania,OULED BEN ABDELKADER,OULED BEN ABDELKADER,02,CHLEF,1000,2014,true,true,5000,5000,36.0378,1.2716,https://sig.mjs.gov.dz/dashboard/viewer
94,Aire de jeux de football,AJF,Aire de jeux football,Bocca Haouache Ghaba,OULED FARES,OULED FARES,02,CHLEF,1000,2014,true,true,5000,5000,36.2751,1.3026,https://sig.mjs.gov.dz/dashboard/viewer
95,Aire de jeux de football,AJF,Aire de jeux football,centre ville,SIDI AKKACHA,TENES,02,CHLEF,1000,2014,true,true,5000,5000,36.4581,1.304,https://sig.mjs.gov.dz/dashboard/viewer
96,Aire de jeux de football,AJF,Aire de jeux football,Hay Chegga,CHLEF,CHLEF,02,CHLEF,1000,2020,true,true,5000,5000,36.1905,1.3553,https://sig.mjs.gov.dz/dashboard/viewer
97,Bassin de Natation,BN,Bassin de natation,Hay AZZOUN / Centre Vile,OUM DROU,CHLEF,02,CHLEF,100,2004,true,true,200,300,36.197,1.3952,https://sig.mjs.gov.dz/dashboard/viewer
98,Bassin de Natation,BN,Bassin de natation,Stade communal Centre Vile/ RN19,SENDJAS,CHLEF,02,CHLEF,,2004,false,true,200,300,36.0748,1.3906,https://sig.mjs.gov.dz/dashboard/viewer
99,Bassin de Natation,BN,Bassin de natation,Stade communal VSA/ Centre ville,OUED SLY,BOUKADIR,02,CHLEF,,2004,false,true,200,300,36.1107,1.1973,https://sig.mjs.gov.dz/dashboard/viewer
100,Bassin de Natation,BN,Bassin de natation,Stade Communal / Centre ville,OULED FARES,OULED FARES,02,CHLEF,,2004,false,true,200,300,36.2322,1.2332,https://sig.mjs.gov.dz/dashboard/viewer
101,Bassin de Natation,BN,Bassin de natation,"CSP ""BAHI AEK"" l'accée vers l'ouest / centre ville",OULED ABBES,OUED FODDA,02,CHLEF,,2004,false,true,200,300,36.2132,1.4887,https://sig.mjs.gov.dz/dashboard/viewer
102,Bassin de Natation,BN,Bassin de natation,Stade communal Centre Vile,AIN MERANE,AIN MERANE,02,CHLEF,100,2004,true,true,200,300,36.1585,0.9708,https://sig.mjs.gov.dz/dashboard/viewer
103,Bassin de Natation,BN,Bassin de natation,"CSP ""FERDJI AEK"" à Hay Es-salem / RN19",CHLEF,CHLEF,02,CHLEF,100,2004,true,true,200,300,36.153,1.3391,https://sig.mjs.gov.dz/dashboard/viewer
104,Bassin de Natation,BN,Bassin de natation,Stade communal Centre Vile,EL KARIMIA,EL KARIMIA,02,CHLEF,,2004,true,true,200,300,36.1105,1.548,https://sig.mjs.gov.dz/dashboard/viewer
105,Bassin de Natation,BN,Bassin de natation,"S OMS ""TITTALI Mohamed"" Zone 04",CHETTIA,OULED FARES,02,CHLEF,,2004,false,true,200,300,36.2028,1.2645,https://sig.mjs.gov.dz/dashboard/viewer
106,Bassin de Natation,BN,Bassin de natation,"Auberge de Jeunes ""Maamar MESSABIH"" Route de la gare",CHLEF,CHLEF,02,CHLEF,,2008,false,true,200,300,36.1633,1.3392,https://sig.mjs.gov.dz/dashboard/viewer
107,Bassin de Natation,BN,Bassin de natation,Hay Al-Chahid Semer Alarbi / Centre ville,TAOUGRIT,TAOUGRIT,02,CHLEF,,2004,false,true,200,300,36.248,0.9194,https://sig.mjs.gov.dz/dashboard/viewer
108,Bassin de Natation,BN,Bassin de natation,"Maison de Jeunes ""Frère LEZAAR Mamaar et Med""",BOUKADIR,BOUKADIR,02,CHLEF,,2008,false,true,200,300,36.0627,1.1262,https://sig.mjs.gov.dz/dashboard/viewer
109,Base Nautique,BNA,Base nautique,El-Guelta / Centre ville,EL MARSA,EL MARSA,02,CHLEF,400,2010,true,true,800,1500,36.3612,0.8298,https://sig.mjs.gov.dz/dashboard/viewer
110,Base Nautique,BNA,Base nautique,Route de port,TENES,TENES,02,CHLEF,500,2005,true,true,700,20000,36.5169,1.3155,https://sig.mjs.gov.dz/dashboard/viewer
111,"Centre de regroupement Sportif ""SALAOUATCHI Med"" ex-CREPS",CRP,Centre de regroupement et de préparation,centre ville / RN04,CHLEF,CHLEF,02,CHLEF,15000,1962,true,true,20000,45000,36.1649,1.3264,https://sig.mjs.gov.dz/dashboard/viewer
112,"Centre Régional et Regroupement de Préparation des Talents et l'Elite Sportive (CRRPTES) ""BELKACMI Med""",CRP,Centre de regroupement et de préparation,Cité olympique / RN04,CHLEF,CHLEF,02,CHLEF,15000,1977,true,true,20000,40500,36.1592,1.311,https://sig.mjs.gov.dz/dashboard/viewer
113,Court Tennis,CT,Court de tennis,""" OPOW "" Med BOUMAZREG / Cité Olympique",CHLEF,CHLEF,02,CHLEF,100,1977,true,true,1000,1000,36.1595,1.3078,https://sig.mjs.gov.dz/dashboard/viewer
114,Court Tennis,CT,Court de tennis,""" OPOW "" Med BOUMAZREG / Cité Olympique",CHLEF,CHLEF,02,CHLEF,100,1977,true,true,1000,1000,36.1606,1.3071,https://sig.mjs.gov.dz/dashboard/viewer
115,Court Tennis,CT,Court de tennis,""" OPOW "" Med BOUMAZREG / Cité Olympique",CHLEF,CHLEF,02,CHLEF,100,1977,true,true,1000,1000,36.1602,1.3074,https://sig.mjs.gov.dz/dashboard/viewer
116,Court Tennis,CT,Court de tennis,""" OPOW "" Med BOUMAZREG / Cité Olympique",CHLEF,CHLEF,02,CHLEF,100,1977,true,true,1000,1000,36.1598,1.3077,https://sig.mjs.gov.dz/dashboard/viewer
117,P Semi Olympique,P25,Piscine 25 m,VSA / RN 19,CHETTIA,OULED FARES,02,CHLEF,500,2018,true,true,1200,13500,36.1849,1.2537,https://sig.mjs.gov.dz/dashboard/viewer
118,"P Semi Olympique ""ABOURA Mohamed""",P25,Piscine 25 m,Cité ex les vergers / Centre ville,CHLEF,CHLEF,02,CHLEF,500,2004,true,true,1200,5000,36.1602,1.3262,https://sig.mjs.gov.dz/dashboard/viewer
119,"P Olympique ""BOUHALA AEK"" OPOW """,P50,Piscine 50 m,Cité olympique / RN04,CHLEF,CHLEF,02,CHLEF,1000,1990,true,true,3500,15000,36.161,1.3106,https://sig.mjs.gov.dz/dashboard/viewer
120,Piste d'athlétisme,PA,Piste d'athlétisme,"inclus dans le""Unité d'hébergement, soins et récupération""«Al-chahid SALAOUATCHI Mohamed» «ex CSP creps »",CHLEF,CHLEF,02,CHLEF,1000,2018,true,true,1000,1000,36.165099,1.325595,https://sig.mjs.gov.dz/dashboard/viewer
121,"Piste d'athlétisme du stade OMS ""24 Février""",PA,Piste d'athlétisme,"Stade OMS ""24 Février"" l'OPOW "" Med BOUMAZREG / RN04",CHLEF,CHLEF,02,CHLEF,100,1977,true,true,20000,20000,36.1609,1.3088,https://sig.mjs.gov.dz/dashboard/viewer
122,"P Proximité ""TAGHIT Rabah""",PP,Piscine de proximité,A coté de Stade de football à hay El-badr zone 03 (Chorfa),CHLEF,CHLEF,02,CHLEF,500,2019,true,true,1200,5000,36.1482,1.3181,https://sig.mjs.gov.dz/dashboard/viewer
123,"P Proximité en plein air ""SALAOUATCHI Med"" ex-CREPS",PP,Piscine de proximité,centre ville / RN04,CHLEF,CHLEF,02,CHLEF,500,1962,true,true,5000,5000,36.1639,1.3261,https://sig.mjs.gov.dz/dashboard/viewer
124,Piscine de Proximité,PP,Piscine de proximité,Centre ville,EL KARIMIA,EL KARIMIA,02,CHLEF,500,2022,true,true,1200,5000,36.1075,1.5484,https://sig.mjs.gov.dz/dashboard/viewer
125,Piscine de Proximité,PP,Piscine de proximité,cité les verger,ZEBOUDJA,ZEBOUDJA,02,CHLEF,500,2023,true,true,1200,5000,36.3598,1.4347,https://sig.mjs.gov.dz/dashboard/viewer
126,"Piscine Proximité ""FALLAG ARIOUAT AEK""",PP,Piscine de proximité,A coté de CSP à hay Chorfa / centre ville,OULED FARES,OULED FARES,02,CHLEF,500,2018,true,true,2000,3500,36.236,1.2458,https://sig.mjs.gov.dz/dashboard/viewer
127,Stade d'Athlétisme,SA,Stade d'athlétisme,CRRPTES / Cité olympique / RN04,CHLEF,CHLEF,02,CHLEF,100,1977,true,true,20000,20000,36.1593,1.3087,https://sig.mjs.gov.dz/dashboard/viewer
128,"S Football ""01 Novembre""",SF,Stade de football,Hay Chaarir / Route Mostaghanem / RN11,TENES,TENES,02,CHLEF,5000,2006,true,true,5000,200000,36.5041,1.272,https://sig.mjs.gov.dz/dashboard/viewer
129,"S football ""GHADEB Sahnoune""",SF,Stade de football,A coté de Piscine proximité à hay El-Badr (Chorfa),CHLEF,CHLEF,02,CHLEF,1000,,true,true,200,15000,36.1479,1.3179,https://sig.mjs.gov.dz/dashboard/viewer
130,S Football «Al-chahid BENMOUSSI AEK»,SF,Stade de football,Cité des Martyrs,TALASSA,ABOU EL HASSANE,02,CHLEF,2000,2025,true,true,200,25000,36.4272,1.089,https://sig.mjs.gov.dz/dashboard/viewer
131,"Stade de Footbal ""DELLALI Al-Habib""",SF,Stade de football,Centre / RN04,OUED FODDA,OUED FODDA,02,CHLEF,1000,,true,true,200,25000,36.1883,1.5353,https://sig.mjs.gov.dz/dashboard/viewer
132,"S OMS "" FELLAGUE CHIBRA Belabess""",SOMS,Salle OMS,Hay Hom'r / RN 04,OUED SLY,BOUKADIR,02,CHLEF,500,2015,true,true,5000,100000,36.098,1.1978,https://sig.mjs.gov.dz/dashboard/viewer
133,"S OMS ""TITTALI Mohamed""",SOMS,Salle OMS,Zone 04 / Centre,CHETTIA,OULED FARES,02,CHLEF,500,1990,true,true,5000,100000,36.2033,1.2644,https://sig.mjs.gov.dz/dashboard/viewer
134,"Salle OMS "" 05 Juillet 1962""",SOMS,Salle OMS,centre ville / RN04,BOUKADIR,BOUKADIR,02,CHLEF,500,1990,true,true,5000,100000,36.0619,1.1166,https://sig.mjs.gov.dz/dashboard/viewer
135,"Salle OMS ""20 Août""",SOMS,Salle OMS,Centre / RN04,OUED FODDA,OUED FODDA,02,CHLEF,500,1990,true,true,5000,100000,36.1914,1.5421,https://sig.mjs.gov.dz/dashboard/viewer
136,"Salle OMS ""Al-chahid MOKADEM AEK""",SOMS,Salle OMS,RN 11,TENES,TENES,02,CHLEF,500,2025,true,true,9000,15000,36.5022,1.274,https://sig.mjs.gov.dz/dashboard/viewer
137,"Salle OMS ""Almojahid al-Marhoum BEN BRAHIMI Al-Arbi""",SOMS,Salle OMS,centre ville,BENI HAOUA,BENI HAOUA,02,CHLEF,500,2016,true,true,5000,100000,36.5287,1.5772,https://sig.mjs.gov.dz/dashboard/viewer
138,"Salle OMS ""KAOUIDER AEK""",SOMS,Salle OMS,Cite 300 logements / RN 11,TENES,TENES,02,CHLEF,500,1990,true,true,5000,100000,36.508,1.2946,https://sig.mjs.gov.dz/dashboard/viewer
139,"Salle OMS ""M'hamed Nasri""",SOMS,Salle OMS,Cité ex les vergers / Centre ville,CHLEF,CHLEF,02,CHLEF,500,1980,true,true,6000,10000,36.1605,1.3269,https://sig.mjs.gov.dz/dashboard/viewer
140,"Salle OMS ""SALAOUATCHI Med"" ex-CREPS",SOMS,Salle OMS,centre ville / RN04,CHLEF,CHLEF,02,CHLEF,300,1980,true,true,4000,4000,36.1637,1.3257,https://sig.mjs.gov.dz/dashboard/viewer
141,Salle OMS OPOW,SOMS,Salle OMS,""" OPOW "" Med BOUMAZREG / Cité Olympique",CHLEF,CHLEF,02,CHLEF,500,1977,true,true,10000,10000,36.1589,1.3099,https://sig.mjs.gov.dz/dashboard/viewer
142,"S Spécialisé ""Al-Chahid DADI ben Chohra""",SS,Salle spécialisée,Bocca Remali,BENI RACHED,OUED FODDA,02,CHLEF,,2020,true,true,900,2000,36.282,1.5231,https://sig.mjs.gov.dz/dashboard/viewer
143,Salle de Boxe,SS,Salle spécialisée,"OPOW "" Med BOUMAZREG / RN04",CHLEF,CHLEF,02,CHLEF,100,,true,true,500,500,36.1601,1.3103,https://sig.mjs.gov.dz/dashboard/viewer
144,Salle Spécialisé,SS,Salle spécialisée,centre ville,BENI BOUATTEB,EL KARIMIA,02,CHLEF,300,2015,true,true,900,2000,35.9951,1.6236,https://sig.mjs.gov.dz/dashboard/viewer
145,Salle Spécialisé,SS,Salle spécialisée,centre ville,TADJENA,ABOU EL HASSEN,02,CHLEF,,2020,true,true,900,2000,36.3227,1.1451,https://sig.mjs.gov.dz/dashboard/viewer
146,"Salle Spécialisé ""HASSANI Mohamed""",SS,Salle spécialisée,Doumia / RN11,OUED GOUSSINE,BENI HAOUA,02,CHLEF,,2009,false,true,900,2000,36.5241,1.5134,https://sig.mjs.gov.dz/dashboard/viewer
147,"Stade OMS ""24 Février""",STOMS,Stade OMS,"OPOW ""Mohamed BOUMAZREG / Cité olympique / RN04",CHLEF,CHLEF,02,CHLEF,15000,1977,true,true,80000,200000,36.1618,1.3078,https://sig.mjs.gov.dz/dashboard/viewer
148,T Football,TF,Terrain de football,"inclus dans le ""Unité d'hébergement, soins et récupération""«Al-chahid SALAOUATCHI Mohamed» «ex CSP creps »",CHLEF,CHLEF,02,CHLEF,500,2018,true,true,1000,1000,36.164736,1.325878,https://sig.mjs.gov.dz/dashboard/viewer
149,Terrain de Sport de Proximité,TSP,Terrain sportif de proximité,cite 120 Logements,OULED ABBES,OUED FODDA,02,CHLEF,100,2022,true,true,1000,1000,36.2109,1.4875,https://sig.mjs.gov.dz/dashboard/viewer
150,Terrain sportif de Proximité,TSP,Terrain sportif de proximité,Plage Oued Goussine,OUED GOUSSINE,BENI HAOUA,02,CHLEF,100,2010,true,true,1000,1000,36.528,1.4964,https://sig.mjs.gov.dz/dashboard/viewer
151,Terrain sportif de Proximité,TSP,Terrain sportif de proximité,Plage Marina,TENES,TENES,02,CHLEF,100,2011,true,true,1000,1000,36.5153,1.3096,https://sig.mjs.gov.dz/dashboard/viewer
152,Terrain Sportif de Proximité,TSP,Terrain sportif de proximité,Bocca Beni Ouadren,SENDJAS,CHLEF,02,CHLEF,100,2011,true,true,1000,1000,36.1237,1.3807,https://sig.mjs.gov.dz/dashboard/viewer
153,Terrain Sportif de Proximité,TSP,Terrain sportif de proximité,Bocca Ain sourak,HARENFA,AIN MERANE,02,CHLEF,100,2010,true,true,1000,1000,36.1918,1.0303,https://sig.mjs.gov.dz/dashboard/viewer
154,Terrain Sportif de Proximité,TSP,Terrain sportif de proximité,centre ville,BREIRA,BENI HAOUA,02,CHLEF,100,2010,true,true,1000,1000,36.4492,1.6133,https://sig.mjs.gov.dz/dashboard/viewer
155,Terrain Sportif de Proximité,TSP,Terrain sportif de proximité,centre ville,DAHRA,TAOUGRIT,02,CHLEF,100,2010,true,true,1000,1000,36.2581,0.8528,https://sig.mjs.gov.dz/dashboard/viewer
156,Terrain Sportif de Proximité,TSP,Terrain sportif de proximité,Bocca Al-Mouafkia,CHLEF,CHLEF,02,CHLEF,100,2007,true,true,1000,1000,36.2258,1.3202,https://sig.mjs.gov.dz/dashboard/viewer
157,Terrain Sportif de Proximité,TSP,Terrain sportif de proximité,Bocca Al-Aayachich,TADJENA,ABOU EL HASSEN,02,CHLEF,100,2011,true,true,1000,1000,36.3466,1.1241,https://sig.mjs.gov.dz/dashboard/viewer
158,Terrain Sportif de Proximité,TSP,Terrain sportif de proximité,Bocca chettia,CHETTIA,OULED FARES,02,CHLEF,1000,2012,true,true,1000,1000,36.1778,1.2575,https://sig.mjs.gov.dz/dashboard/viewer
159,Terrain Sportif de Proximité,TSP,Terrain sportif de proximité,Hay En-nars zone 03 (Radar),CHLEF,CHLEF,02,CHLEF,100,2012,true,true,1000,1000,36.1531,1.3527,https://sig.mjs.gov.dz/dashboard/viewer
160,Terrain Sportif de Proximité,TSP,Terrain sportif de proximité,Bocca Sidi Ziane,TADJENA,ABOU EL HASSEN,02,CHLEF,100,2011,true,true,1000,1000,36.3167,1.1461,https://sig.mjs.gov.dz/dashboard/viewer
161,Terrain Sportif de Proximité,TSP,Terrain sportif de proximité,Bocca Douadich,OUED SLY,BOUKADIR,02,CHLEF,100,2010,true,true,1000,1000,36.1033,1.2537,https://sig.mjs.gov.dz/dashboard/viewer
162,Terrain Sportif de Proximité,TSP,Terrain sportif de proximité,Unité Principale de Protection Civile,CHLEF,CHLEF,02,CHLEF,100,2011,true,true,1000,1000,36.1716,1.3474,https://sig.mjs.gov.dz/dashboard/viewer
163,Terrain Sportif de Proximité,TSP,Terrain sportif de proximité,Bocca Madouar,EL KARIMIA,EL KARIMIA,02,CHLEF,100,2010,true,true,1000,1000,36.0971,1.5522,https://sig.mjs.gov.dz/dashboard/viewer
164,Terrain Sportif de Proximité,TSP,Terrain sportif de proximité,centre ville,ABOU EL HASSEN,ABOU EL HASSEN,02,CHLEF,100,2010,true,true,1000,1000,36.4184,1.1908,https://sig.mjs.gov.dz/dashboard/viewer
165,Terrain Sportif de Proximité,TSP,Terrain sportif de proximité,Bocca Ouled Lakhdar,OUM DROU,CHLEF,02,CHLEF,100,2012,true,true,1000,1000,36.202,1.3759,https://sig.mjs.gov.dz/dashboard/viewer
166,Terrain Sportif de Proximité,TSP,Terrain sportif de proximité,Bocca Glafttia,OUM DROU,CHLEF,02,CHLEF,100,2010,true,true,1000,1000,36.1794,1.3996,https://sig.mjs.gov.dz/dashboard/viewer
167,Terrain Sportif de Proximité,TSP,Terrain sportif de proximité,Bocca AL-Mennasria,OUM DROU,CHLEF,02,CHLEF,100,2021,true,true,1000,1000,36.1739,1.4458,https://sig.mjs.gov.dz/dashboard/viewer
168,Terrain Sportif de Proximité,TSP,Terrain sportif de proximité,Bocca Yachir,TADJENA,ABOU EL HASSEN,02,CHLEF,100,2011,true,true,1000,1000,36.3443,1.1554,https://sig.mjs.gov.dz/dashboard/viewer
169,Terrain Sportif de Proximité,TSP,Terrain sportif de proximité,centre ville,TALASSA,ABOU EL HASSEN,02,CHLEF,100,2011,true,true,1000,1000,36.4279,1.0886,https://sig.mjs.gov.dz/dashboard/viewer
170,Terrain Sportif de Proximité,TSP,Terrain sportif de proximité,Bocca Raoudda,AIN MERANE,AIN MERANE,02,CHLEF,100,2010,true,true,1000,1000,36.2284,0.9811,https://sig.mjs.gov.dz/dashboard/viewer
171,Terrain Sportif de Proximité,TSP,Terrain sportif de proximité,bocca kharoudja,AIN MERANE,AIN MERANE,02,CHLEF,100,2010,true,true,1000,1000,36.201,0.9924,https://sig.mjs.gov.dz/dashboard/viewer
172,Terrain Sportif de Proximité,TSP,Terrain sportif de proximité,bocca Hay Al-Abtal,HARENFA,AIN MERANE,02,CHLEF,100,2010,true,true,1000,1000,36.2416,1.0577,https://sig.mjs.gov.dz/dashboard/viewer
173,Terrain Sportif de Proximité,TSP,Terrain sportif de proximité,Bocca Beni Bouazira,BENI HAOUA,BENI HAOUA,02,CHLEF,100,2010,true,true,1000,1000,36.5125,1.5697,https://sig.mjs.gov.dz/dashboard/viewer
174,Terrain Sportif de Proximité,TSP,Terrain sportif de proximité,Bocca Maaouara,BOUKADIR,BOUKADIR,02,CHLEF,100,2011,false,true,1000,1000,36.0712,1.1677,https://sig.mjs.gov.dz/dashboard/viewer
175,Terrain Sportif de Proximité,TSP,Terrain sportif de proximité,centre ville,BOUKADIR,BOUKADIR,02,CHLEF,100,2011,true,true,1000,1000,36.077,1.1093,https://sig.mjs.gov.dz/dashboard/viewer
176,Terrain Sportif de Proximité,TSP,Terrain sportif de proximité,Bocca Maknassa,OUED SLY,BOUKADIR,02,CHLEF,100,2012,true,true,1000,1000,36.1174,1.2616,https://sig.mjs.gov.dz/dashboard/viewer
177,Terrain Sportif de Proximité,TSP,Terrain sportif de proximité,centre ville,SOBHA,BOUKADIR,02,CHLEF,100,2011,true,true,1000,1000,36.1144,1.1117,https://sig.mjs.gov.dz/dashboard/viewer
178,Terrain Sportif de Proximité,TSP,Terrain sportif de proximité,Bocca al-Guaouari,EL KARIMIA,EL KARIMIA,02,CHLEF,100,2010,true,true,1000,1000,36.1258,1.5405,https://sig.mjs.gov.dz/dashboard/viewer
179,Terrain Sportif de Proximité,TSP,Terrain sportif de proximité,centre ville,EL KARIMIA,EL KARIMIA,02,CHLEF,100,2010,true,true,1000,1000,36.1157,1.5602,https://sig.mjs.gov.dz/dashboard/viewer
180,Terrain Sportif de Proximité,TSP,Terrain sportif de proximité,Bocca Bir-safsaf,OUED FODDA,OUED FODDA,02,CHLEF,100,2011,true,true,1000,1000,36.2023,1.598,https://sig.mjs.gov.dz/dashboard/viewer
181,Terrain Sportif de Proximité,TSP,Terrain sportif de proximité,Bocca S'kassik,OUED FODDA,OUED FODDA,02,CHLEF,100,2011,true,true,1000,1000,36.1729,1.5486,https://sig.mjs.gov.dz/dashboard/viewer
182,Terrain Sportif de Proximité,TSP,Terrain sportif de proximité,centre ville,BENI RACHED,OUED FODDA,02,CHLEF,100,2010,true,true,1000,1000,36.2809,1.5391,https://sig.mjs.gov.dz/dashboard/viewer
183,Terrain Sportif de Proximité,TSP,Terrain sportif de proximité,centre ville,OULED BEN ABDELKADER,OULED BEN ABDELKADER,02,CHLEF,100,2011,true,true,1000,1000,36.0194,1.2747,https://sig.mjs.gov.dz/dashboard/viewer
184,Terrain Sportif de Proximité,TSP,Terrain sportif de proximité,Bocca Chaouakria,OULED BEN ABDELKADER,OULED BEN ABDELKADER,02,CHLEF,1000,2007,true,true,1000,1000,36.0484,1.2644,https://sig.mjs.gov.dz/dashboard/viewer
185,Terrain Sportif de Proximité,TSP,Terrain sportif de proximité,Bocca 05 Palmiers,OULED FARES,OULED FARES,02,CHLEF,100,2011,true,true,1000,1000,36.2849,1.241,https://sig.mjs.gov.dz/dashboard/viewer
186,Terrain Sportif de Proximité,TSP,Terrain sportif de proximité,Bocca Lairdh Albaidha,CHETTIA,OULED FARES,02,CHLEF,100,2012,true,true,1000,1000,36.1534,1.2145,https://sig.mjs.gov.dz/dashboard/viewer
187,Terrain Sportif de Proximité,TSP,Terrain sportif de proximité,Bocca Yarmoul,LABIODH MEDJADJA,OULED FARES,02,CHLEF,100,2010,true,true,1000,1000,36.2508,1.4301,https://sig.mjs.gov.dz/dashboard/viewer
188,Terrain Sportif de Proximité,TSP,Terrain sportif de proximité,Bocca Chaabnia,TAOUGRIT,TAOUGRIT,02,CHLEF,100,2010,true,true,1000,1000,36.2378,0.9427,https://sig.mjs.gov.dz/dashboard/viewer
189,Terrain Sportif de Proximité,TSP,Terrain sportif de proximité,Bocca Henachiria,DAHRA,TAOUGRIT,02,CHLEF,100,2010,true,true,1000,1000,36.2008,0.7717,https://sig.mjs.gov.dz/dashboard/viewer
190,Terrain Sportif de Proximité,TSP,Terrain sportif de proximité,Bocca Teggagra,CHLEF,CHLEF,02,CHLEF,100,2010,true,true,1000,1000,36.2026,1.3198,https://sig.mjs.gov.dz/dashboard/viewer
191,Terrain Sportif de Proximité,TSP,Terrain sportif de proximité,Cité 500 logements,CHLEF,CHLEF,02,CHLEF,100,2011,true,true,1000,1000,36.1658,1.3157,https://sig.mjs.gov.dz/dashboard/viewer
192,Terrain Sportif de Proximité,TSP,Terrain sportif de proximité,Hay Baradii (nouvelle ville),CHLEF,CHLEF,02,CHLEF,100,2012,true,true,1000,1000,36.1529,1.3118,https://sig.mjs.gov.dz/dashboard/viewer
193,Terrain Sportif de Proximité,TSP,Terrain sportif de proximité,Bocca Ouled Ben Hamdi,EL HADJADJ,OULED BEN ABDELKADER,02,CHLEF,100,2010,true,true,1000,1000,36.0297,1.3712,https://sig.mjs.gov.dz/dashboard/viewer
194,Terrain Sportif de Proximité,TSP,Terrain sportif de proximité,Bocca Zouadania,OULED BEN ABDELKADER,OULED BEN ABDELKADER,02,CHLEF,100,2010,true,true,1000,1000,36.0397,1.2707,https://sig.mjs.gov.dz/dashboard/viewer
195,Terrain Sportif de Proximité,TSP,Terrain sportif de proximité,Hay El-Hassania,CHLEF,CHLEF,02,CHLEF,100,2012,true,true,1000,1000,36.1433,1.3226,https://sig.mjs.gov.dz/dashboard/viewer
196,Terrain Sportif de Proximité,TSP,Terrain sportif de proximité,Hay Chorfa / centre ville,OULED FARES,OULED FARES,02,CHLEF,100,2010,true,true,1000,1000,36.2345,1.2467,https://sig.mjs.gov.dz/dashboard/viewer
197,Terrain Sportif de Proximité,TSP,Terrain sportif de proximité,Zone 12,CHETTIA,OULED FARES,02,CHLEF,100,2007,true,true,1000,1000,36.2094,1.2728,https://sig.mjs.gov.dz/dashboard/viewer
198,Terrain Sportif de Proximité,TSP,Terrain sportif de proximité,centre ville / RN19,SENDJAS,CHLEF,02,CHLEF,100,2012,true,true,1000,1000,36.0658,1.3976,https://sig.mjs.gov.dz/dashboard/viewer
199,,AJF,Aire de jeux football,Laghouat,LAGHOUAT,LAGHOUAT,03,LAGHOUAT,300,2007,true,false,1800,1800,33.8037,2.8549,https://sig.mjs.gov.dz/dashboard/viewer
200,,AJF,Aire de jeux football,AIN SIDI ALI,AIN SIDI ALI,GUELTAT SIDI SAAD,03,LAGHOUAT,300,2007,true,false,1800,1800,34.156367,1.543171,https://sig.mjs.gov.dz/dashboard/viewer
201,Aire jeux FB,AJF,Aire de jeux football,oued m'zi,OUED M'ZI,OUED MORRA,03,LAGHOUAT,300,2007,true,false,1800,1800,33.9205,2.4335,https://sig.mjs.gov.dz/dashboard/viewer
202,Aire jeux FB,AJF,Aire de jeux football,SIDI BOUZID,SIDI BOUZID,AFLOU,03,LAGHOUAT,300,2007,true,false,1800,1800,34.3434,2.2656,https://sig.mjs.gov.dz/dashboard/viewer
203,Aire jeux FB,AJF,Aire de jeux football,EL GHICHA,EL GHICHA,EL GHICHA,03,LAGHOUAT,300,2007,true,false,1800,1800,33.9281,2.1447,https://sig.mjs.gov.dz/dashboard/viewer
204,Aire jeux FB,AJF,Aire de jeux football,GUELTAT SIDI SAAD,GUELTAT SIDI SAAD,GUELTAT SIDI SAAD,03,LAGHOUAT,200,2009,true,false,1500,1500,34.2986,1.9497,https://sig.mjs.gov.dz/dashboard/viewer
205,Aire jeux FB,AJF,Aire de jeux football,OUED MORRA,OUED MORRA,OUED MORRA,03,LAGHOUAT,200,2009,true,false,1500,1500,34.163,2.3241,https://sig.mjs.gov.dz/dashboard/viewer
206,Aire jeux FB,AJF,Aire de jeux football,GUELTAT SIDI SAAD,GUELTAT SIDI SAAD,GUELTAT SIDI SAAD,03,LAGHOUAT,300,,true,false,1800,1800,34.294,1.946,https://sig.mjs.gov.dz/dashboard/viewer
207,Aire jeux FB,AJF,Aire de jeux football,KHNEG,KHENEG,AIN MADHI,03,LAGHOUAT,300,2007,true,false,1800,1800,33.7414,2.793,https://sig.mjs.gov.dz/dashboard/viewer
208,Aire jeux FB,AJF,Aire de jeux football,beidha,BEIDHA,GUELTAT SIDI SAAD,03,LAGHOUAT,300,2007,true,false,1800,1800,34.4809,2.1739,https://sig.mjs.gov.dz/dashboard/viewer
209,Aire jeux FB,AJF,Aire de jeux football,taouiala,TAOUIALA,BRIDA,03,LAGHOUAT,300,2007,true,false,1800,1800,33.8663,1.8545,https://sig.mjs.gov.dz/dashboard/viewer
210,Aire jeux FB,AJF,Aire de jeux football,hadj mechri,HADJ MECHRI,BRIDA,03,LAGHOUAT,300,2007,true,false,1800,1800,33.9541,1.598,https://sig.mjs.gov.dz/dashboard/viewer
211,Aire jeux FB,AJF,Aire de jeux football,sidi makhlouf,SIDI MAKHLOUF,SIDI MAKHLOUF,03,LAGHOUAT,1800,2007,true,false,1800,1800,34.1525,3.0316,https://sig.mjs.gov.dz/dashboard/viewer
212,réalisation 20 air de jeux,AJF,Aire de jeux football,tadjrouna,TADJROUNA,AIN MADHI,03,LAGHOUAT,150,,true,false,425,1200,33.5028,2.0994,https://sig.mjs.gov.dz/dashboard/viewer
213,Terrain combiné,AJF,Aire de jeux football,Aflou,AFLOU,AFLOU,03,LAGHOUAT,300,2007,true,false,1800,1800,34.1139,2.1053,https://sig.mjs.gov.dz/dashboard/viewer
214,Terrain combiné,AJF,Aire de jeux football,hadj mechri,HADJ MECHRI,BRIDA,03,LAGHOUAT,300,2007,true,false,1800,1800,33.9586,1.5979,https://sig.mjs.gov.dz/dashboard/viewer
215,Terrain combiné,AJF,Aire de jeux football,Laghouat,LAGHOUAT,LAGHOUAT,03,LAGHOUAT,300,2007,true,false,1800,1800,33.8012,2.8522,https://sig.mjs.gov.dz/dashboard/viewer
216,bassin de natation,BN,Bassin de natation,AIN SIDI ALI,AIN SIDI ALI,GUELTAT SIDI SAAD,03,LAGHOUAT,115,,true,false,440,1100,34.157,1.545,https://sig.mjs.gov.dz/dashboard/viewer
217,bassin de natation,BN,Bassin de natation,sidi makhlouf,SIDI MAKHLOUF,SIDI MAKHLOUF,03,LAGHOUAT,115,,true,false,440,1100,34.1293,3.0184,https://sig.mjs.gov.dz/dashboard/viewer
218,bassin de natation,BN,Bassin de natation,beidha,BEIDHA,GUELTAT SIDI SAAD,03,LAGHOUAT,115,2008,true,false,440,1100,34.4812,2.1744,https://sig.mjs.gov.dz/dashboard/viewer
219,bassin de natation,BN,Bassin de natation,An madhi,AIN MADHI,AIN MADHI,03,LAGHOUAT,115,,true,false,890,1700,33.7978,2.3027,https://sig.mjs.gov.dz/dashboard/viewer
220,bassin natation,BN,Bassin de natation,EL ASSAFIA,EL ASSAFIA,SIDI MAKHLOUF,03,LAGHOUAT,115,,true,false,440,1100,33.8284,2.9924,https://sig.mjs.gov.dz/dashboard/viewer
221,piscine semi olympique,P25,Piscine 25 m,Laghouat,LAGHOUAT,LAGHOUAT,03,LAGHOUAT,110,,true,false,908,2270,33.7875,2.8584,https://sig.mjs.gov.dz/dashboard/viewer
222,piscine semi olympique 25 m,P25,Piscine 25 m,hassi r'mel,HASSI R'MEL,HASSI R'MEL,03,LAGHOUAT,720,,true,false,2473,5050,32.9556,3.2779,https://sig.mjs.gov.dz/dashboard/viewer
223,piscine semi olympique 25 m,P25,Piscine 25 m,el sadikaia,LAGHOUAT,LAGHOUAT,03,LAGHOUAT,750,2018,true,true,908,2270,33.7955,2.8797,https://sig.mjs.gov.dz/dashboard/viewer
224,piscine semi olympique 25 m,P25,Piscine 25 m,Aflou,AFLOU,AFLOU,03,LAGHOUAT,800,2020,true,false,1638,2276,34.1205,2.1091,https://sig.mjs.gov.dz/dashboard/viewer
225,piscine semi olympique 25 M gwatine,P25,Piscine 25 m,laghouat,LAGHOUAT,LAGHOUAT,03,LAGHOUAT,750,,true,true,908,2270,33.8217,2.8722,https://sig.mjs.gov.dz/dashboard/viewer
226,piste athlétisme,PA,Piste d'athlétisme,Laghouat,LAGHOUAT,LAGHOUAT,03,LAGHOUAT,150,2011,true,true,420,1200,33.7815,2.8537,https://sig.mjs.gov.dz/dashboard/viewer
227,,PP,Piscine de proximité,OUED MORRA,OUED MORRA,OUED MORRA,03,LAGHOUAT,365,2018,true,true,1450,2500,34.1669,2.3259,https://sig.mjs.gov.dz/dashboard/viewer
228,piscine de proximité,PP,Piscine de proximité,ben bennacerchora,bennacer benchora,KSAR EL HIRANE,03,LAGHOUAT,350,2017,true,true,1450,2500,33.7488,3.0024,https://sig.mjs.gov.dz/dashboard/viewer
229,piscine de proximité,PP,Piscine de proximité,GUELTAT SIDI SAAD,GUELTAT SIDI SAAD,GUELTAT SIDI SAAD,03,LAGHOUAT,40,2024,true,true,,,34.2999,1.9448,https://sig.mjs.gov.dz/dashboard/viewer
230,piscine de proximité,PP,Piscine de proximité,hassi delaa,HASSI DELAA,HASSI R'MEL,03,LAGHOUAT,1450,,true,false,1556,2500,33.4179,3.5458,https://sig.mjs.gov.dz/dashboard/viewer
231,piscine de proximité,PP,Piscine de proximité,BRIDA,BRIDA,BRIDA,03,LAGHOUAT,345,,true,true,1000,2500,33.9062,1.7788,https://sig.mjs.gov.dz/dashboard/viewer
232,piscine de proximité achour moktar,PP,Piscine de proximité,sidi makhlouf,SIDI MAKHLOUF,SIDI MAKHLOUF,03,LAGHOUAT,40,2024,true,true,,,34.1075,2.9995,https://sig.mjs.gov.dz/dashboard/viewer
233,piscine de proximité bous ahmed,PP,Piscine de proximité,EL GHICHA,EL GHICHA,EL GHICHA,03,LAGHOUAT,40,2023,true,true,,,33.9306,2.1381,https://sig.mjs.gov.dz/dashboard/viewer
234,piscine de proximité gachbout mohammed,PP,Piscine de proximité,SIDI BOUZID,SIDI BOUZID,AFLOU,03,LAGHOUAT,40,2024,true,true,,,34.3453,2.2651,https://sig.mjs.gov.dz/dashboard/viewer
235,piscine de proximité modjahid ben ali,PP,Piscine de proximité,An madhi,AIN MADHI,AIN MADHI,03,LAGHOUAT,40,2023,true,true,,,33.7923,2.31,https://sig.mjs.gov.dz/dashboard/viewer
236,stade de football,SF,Stade de football,hassi r'mel,HASSI R'MEL,HASSI R'MEL,03,LAGHOUAT,995,,true,false,850,1300,32.958,3.2748,https://sig.mjs.gov.dz/dashboard/viewer
237,Terrain combiné,SF,Stade de football,Aflou,AFLOU,AFLOU,03,LAGHOUAT,1100,2017,true,true,400,1200,34.1015,2.0848,https://sig.mjs.gov.dz/dashboard/viewer
238,salle omnisport,SOMS,Salle OMS,ksar elhiran,KSAR EL HIRANE,KSAR EL HIRANE,03,LAGHOUAT,1000,2021,true,true,980,2415,33.7856,3.1436,https://sig.mjs.gov.dz/dashboard/viewer
239,salle omnisport,SOMS,Salle OMS,Aflou,AFLOU,AFLOU,03,LAGHOUAT,423,,true,false,1638,2270,34.121,2.1095,https://sig.mjs.gov.dz/dashboard/viewer
240,salle omnisport,SOMS,Salle OMS,KHENEG,KHENEG,AIN MADHI,03,LAGHOUAT,500,2018,true,true,1300,2200,33.743,2.7939,https://sig.mjs.gov.dz/dashboard/viewer
241,salle omnisport aek ben hmaid,SOMS,Salle OMS,city snwbar,LAGHOUAT,LAGHOUAT,03,LAGHOUAT,,2006,true,true,,,33.811721,2.869864,https://sig.mjs.gov.dz/dashboard/viewer
242,salle oms,SOMS,Salle OMS,Aflou,AFLOU,AFLOU,03,LAGHOUAT,1000,2021,true,true,960,3125,34.101,2.0839,https://sig.mjs.gov.dz/dashboard/viewer
243,salle oms,SOMS,Salle OMS,Laghouat,LAGHOUAT,LAGHOUAT,03,LAGHOUAT,980,2009,true,false,1200,3000,33.811,2.8649,https://sig.mjs.gov.dz/dashboard/viewer
244,salle sport GRIB AISSA,SOMS,Salle OMS,laghouat,LAGHOUAT,LAGHOUAT,03,LAGHOUAT,940,,true,false,2560,,33.8006,2.8805,https://sig.mjs.gov.dz/dashboard/viewer
245,Terrain combiné,SS,Salle spécialisée,Laghouat,LAGHOUAT,LAGHOUAT,03,LAGHOUAT,480,,true,false,1500,480,33.8019,2.8813,https://sig.mjs.gov.dz/dashboard/viewer
246,stade oms,STOMS,Stade OMS,Laghouat,LAGHOUAT,LAGHOUAT,03,LAGHOUAT,150000,,true,false,1600,4000,33.813,2.8694,https://sig.mjs.gov.dz/dashboard/viewer
247,stade oms,STOMS,Stade OMS,Laghouat,LAGHOUAT,LAGHOUAT,03,LAGHOUAT,20000,2009,true,false,546,2357,33.7842,2.8569,https://sig.mjs.gov.dz/dashboard/viewer
248,,TSP,Terrain sportif de proximité,Aflou,AFLOU,AFLOU,03,LAGHOUAT,60,2007,true,false,1000,1000,34.1146,2.0985,https://sig.mjs.gov.dz/dashboard/viewer
249,,TSP,Terrain sportif de proximité,Laghouat,LAGHOUAT,LAGHOUAT,03,LAGHOUAT,60,2007,true,false,1000,1000,33.790038,2.85999,https://sig.mjs.gov.dz/dashboard/viewer
250,Terrain combiné,TSP,Terrain sportif de proximité,hassi delaa,HASSI DELAA,HASSI R'MEL,03,LAGHOUAT,60,,true,false,1000,1000,33.416,3.5452,https://sig.mjs.gov.dz/dashboard/viewer
251,Terrain combiné,TSP,Terrain sportif de proximité,ben bennacerchora,bennacer benchora,KSAR EL HIRANE,03,LAGHOUAT,60,,true,false,1000,1000,33.7524,3.0075,https://sig.mjs.gov.dz/dashboard/viewer
252,Terrain combiné,TSP,Terrain sportif de proximité,ksar elhiran,KSAR EL HIRANE,KSAR EL HIRANE,03,LAGHOUAT,60,2022,true,false,1000,1000,33.788,3.1341,https://sig.mjs.gov.dz/dashboard/viewer
253,Terrain combiné,TSP,Terrain sportif de proximité,ksar elhiran,LAGHOUAT,LAGHOUAT,03,LAGHOUAT,60,,true,false,1000,1000,33.7906,3.1395,https://sig.mjs.gov.dz/dashboard/viewer
254,Terrain combiné,TSP,Terrain sportif de proximité,oued m'zi,OUED M'ZI,OUED MORRA,03,LAGHOUAT,60,2009,true,false,1000,1000,33.9204,2.4343,https://sig.mjs.gov.dz/dashboard/viewer
255,Terrain combiné,TSP,Terrain sportif de proximité,2006,HASSI R'MEL,HASSI R'MEL,03,LAGHOUAT,60,,true,false,1000,1000,32.9424,3.2755,https://sig.mjs.gov.dz/dashboard/viewer
256,Terrain combiné,TSP,Terrain sportif de proximité,hassi delaa,HASSI DELAA,HASSI R'MEL,03,LAGHOUAT,60,,true,false,1000,1000,33.4158,3.5517,https://sig.mjs.gov.dz/dashboard/viewer
257,Terrain combiné,TSP,Terrain sportif de proximité,hassi delaa,HASSI DELAA,HASSI R'MEL,03,LAGHOUAT,60,,true,false,1000,1000,33.4153,3.5484,https://sig.mjs.gov.dz/dashboard/viewer
258,Terrain combiné,TSP,Terrain sportif de proximité,hassi delaa,HASSI DELAA,HASSI R'MEL,03,LAGHOUAT,60,,true,false,1000,1000,33.4175,3.5478,https://sig.mjs.gov.dz/dashboard/viewer
259,Terrain combiné,TSP,Terrain sportif de proximité,hassi delaa,HASSI DELAA,HASSI R'MEL,03,LAGHOUAT,60,,true,false,1000,1000,33.4145,3.5462,https://sig.mjs.gov.dz/dashboard/viewer
260,Terrain combiné,TSP,Terrain sportif de proximité,Laghouat,LAGHOUAT,LAGHOUAT,03,LAGHOUAT,60,2006,true,false,1000,1000,33.79,2.8809,https://sig.mjs.gov.dz/dashboard/viewer
261,Terrain combiné,TSP,Terrain sportif de proximité,Laghouat,LAGHOUAT,LAGHOUAT,03,LAGHOUAT,60,2006,true,false,1000,1000,33.8053,2.858,https://sig.mjs.gov.dz/dashboard/viewer
262,Terrain combiné,TSP,Terrain sportif de proximité,Laghouat,LAGHOUAT,LAGHOUAT,03,LAGHOUAT,60,2006,true,false,1000,1000,33.8093,2.8681,https://sig.mjs.gov.dz/dashboard/viewer
263,Terrain combiné,TSP,Terrain sportif de proximité,Laghouat,LAGHOUAT,LAGHOUAT,03,LAGHOUAT,300,2006,true,false,1800,1800,33.7955,2.8483,https://sig.mjs.gov.dz/dashboard/viewer
264,Terrain combiné,TSP,Terrain sportif de proximité,Laghouat,LAGHOUAT,LAGHOUAT,03,LAGHOUAT,60,2006,true,false,1000,1000,33.7916,2.8758,https://sig.mjs.gov.dz/dashboard/viewer
265,Terrain combiné,TSP,Terrain sportif de proximité,Laghouat,LAGHOUAT,LAGHOUAT,03,LAGHOUAT,60,,true,false,1000,1000,33.785,2.866,https://sig.mjs.gov.dz/dashboard/viewer
266,Terrain combiné,TSP,Terrain sportif de proximité,Laghouat,LAGHOUAT,LAGHOUAT,03,LAGHOUAT,60,2006,true,false,1000,1000,33.7909,2.8672,https://sig.mjs.gov.dz/dashboard/viewer
267,Terrain combiné,TSP,Terrain sportif de proximité,Laghouat,LAGHOUAT,LAGHOUAT,03,LAGHOUAT,60,,true,false,1000,1000,33.8296,2.8777,https://sig.mjs.gov.dz/dashboard/viewer
268,Terrain combiné,TSP,Terrain sportif de proximité,hassi delaa,HASSI DELAA,HASSI R'MEL,03,LAGHOUAT,60,,true,false,1000,1000,33.4147,3.5457,https://sig.mjs.gov.dz/dashboard/viewer
269,Terrain combiné,TSP,Terrain sportif de proximité,Laghouat,LAGHOUAT,LAGHOUAT,03,LAGHOUAT,60,,true,false,1000,1000,33.7851,2.8776,https://sig.mjs.gov.dz/dashboard/viewer
270,Terrain combiné,TSP,Terrain sportif de proximité,Aflou,AFLOU,AFLOU,03,LAGHOUAT,60,2007,true,false,1000,1000,34.116,2.101,https://sig.mjs.gov.dz/dashboard/viewer
271,Terrain combiné,TSP,Terrain sportif de proximité,SIDI BOUZID,AFLOU,AFLOU,03,LAGHOUAT,60,2007,true,false,1000,1000,34.3477,2.27,https://sig.mjs.gov.dz/dashboard/viewer
272,Terrain combiné,TSP,Terrain sportif de proximité,Aflou,AFLOU,AFLOU,03,LAGHOUAT,60,2007,true,false,1000,1000,34.1144,2.0959,https://sig.mjs.gov.dz/dashboard/viewer
273,Terrain combiné,TSP,Terrain sportif de proximité,Aflou,AFLOU,AFLOU,03,LAGHOUAT,60,2007,true,false,1000,1000,34.1142,2.0891,https://sig.mjs.gov.dz/dashboard/viewer
274,Terrain combiné,TSP,Terrain sportif de proximité,Aflou,AFLOU,AFLOU,03,LAGHOUAT,60,2007,true,false,1000,1000,34.1148,2.0995,https://sig.mjs.gov.dz/dashboard/viewer
275,Terrain combiné,TSP,Terrain sportif de proximité,Aflou,AFLOU,AFLOU,03,LAGHOUAT,60,2007,true,false,1000,1000,34.1156,2.1087,https://sig.mjs.gov.dz/dashboard/viewer
276,Terrain combiné,TSP,Terrain sportif de proximité,aflou,AFLOU,AFLOU,03,LAGHOUAT,60,2007,true,false,1000,1000,34.3459,2.2648,https://sig.mjs.gov.dz/dashboard/viewer
277,Terrain combiné,TSP,Terrain sportif de proximité,aflou,AFLOU,AFLOU,03,LAGHOUAT,60,,true,false,1000,1000,33.7953,2.8647,https://sig.mjs.gov.dz/dashboard/viewer
278,Terrain combiné,TSP,Terrain sportif de proximité,aflou,AFLOU,AFLOU,03,LAGHOUAT,60,2007,true,false,1000,1000,34.0312,1.9303,https://sig.mjs.gov.dz/dashboard/viewer
279,Terrain combiné,TSP,Terrain sportif de proximité,Aflou,AFLOU,AFLOU,03,LAGHOUAT,60,2007,true,false,1000,1000,34.1035,2.1042,https://sig.mjs.gov.dz/dashboard/viewer
280,Terrain combiné,TSP,Terrain sportif de proximité,Aflou,AFLOU,AFLOU,03,LAGHOUAT,60,2007,true,false,1000,1000,34.1205,2.1143,https://sig.mjs.gov.dz/dashboard/viewer
281,Terrain combiné,TSP,Terrain sportif de proximité,Aflou,AFLOU,AFLOU,03,LAGHOUAT,60,2007,true,false,1000,1000,34.1193,2.1127,https://sig.mjs.gov.dz/dashboard/viewer
282,Terrain combiné,TSP,Terrain sportif de proximité,Aflou,AFLOU,AFLOU,03,LAGHOUAT,60,,true,false,1000,1000,34.1115,2.0774,https://sig.mjs.gov.dz/dashboard/viewer
283,Terrain combiné,TSP,Terrain sportif de proximité,Aflou,AFLOU,AFLOU,03,LAGHOUAT,60,2007,true,false,1000,1000,34.109,2.0724,https://sig.mjs.gov.dz/dashboard/viewer
284,Terrain combiné,TSP,Terrain sportif de proximité,Laghouat,LAGHOUAT,LAGHOUAT,03,LAGHOUAT,60,2006,true,false,1000,1000,33.796,2.8688,https://sig.mjs.gov.dz/dashboard/viewer
285,Terrain combiné,TSP,Terrain sportif de proximité,sidi bouzid,SIDI BOUZID,AFLOU,03,LAGHOUAT,60,2007,true,false,1000,1000,34.0297,1.9328,https://sig.mjs.gov.dz/dashboard/viewer
286,Terrain combiné,TSP,Terrain sportif de proximité,SIDI BOUZID,SIDI BOUZID,AFLOU,03,LAGHOUAT,60,2007,true,false,1000,1000,34.346,2.2646,https://sig.mjs.gov.dz/dashboard/viewer
287,Terrain combiné,TSP,Terrain sportif de proximité,An madhi,AIN MADHI,AIN MADHI,03,LAGHOUAT,60,2008,true,false,1000,1000,33.7938,2.3094,https://sig.mjs.gov.dz/dashboard/viewer
288,Terrain combiné,TSP,Terrain sportif de proximité,An madhi,AIN MADHI,AIN MADHI,03,LAGHOUAT,60,2008,true,false,1000,1000,33.7954,2.302,https://sig.mjs.gov.dz/dashboard/viewer
289,Terrain combiné,TSP,Terrain sportif de proximité,An madhi,AIN MADHI,AIN MADHI,03,LAGHOUAT,60,,true,false,1000,1000,33.7947,2.3075,https://sig.mjs.gov.dz/dashboard/viewer
290,Terrain combiné,TSP,Terrain sportif de proximité,ELGHICHA,EL GHICHA,EL GHICHA,03,LAGHOUAT,60,,true,false,1000,1000,33.9245,2.15,https://sig.mjs.gov.dz/dashboard/viewer
291,Terrain combiné,TSP,Terrain sportif de proximité,hassi r'mel,HASSI R'MEL,HASSI R'MEL,03,LAGHOUAT,300,,true,false,1800,1800,32.936,3.2647,https://sig.mjs.gov.dz/dashboard/viewer
292,Terrain combiné,TSP,Terrain sportif de proximité,hassi r'mel,HASSI R'MEL,HASSI R'MEL,03,LAGHOUAT,60,,true,false,1000,1000,32.9402,3.266,https://sig.mjs.gov.dz/dashboard/viewer
293,Terrain combiné,TSP,Terrain sportif de proximité,hassi r'mel,HASSI R'MEL,HASSI R'MEL,03,LAGHOUAT,60,,true,false,1000,1000,32.9469,3.2601,https://sig.mjs.gov.dz/dashboard/viewer
294,Terrain combiné,TSP,Terrain sportif de proximité,GUELTAT SIDI SAAD,GUELTAT SIDI SAAD,GUELTAT SIDI SAAD,03,LAGHOUAT,60,2009,true,false,1000,1000,34.2947,1.9536,https://sig.mjs.gov.dz/dashboard/viewer
295,Terrain combiné,TSP,Terrain sportif de proximité,GUELTAT SIDI SAAD,GUELTAT SIDI SAAD,GUELTAT SIDI SAAD,03,LAGHOUAT,1000,2009,true,false,1000,,34.2987,1.9524,https://sig.mjs.gov.dz/dashboard/viewer
296,Terrain combiné,TSP,Terrain sportif de proximité,GUELTAT SIDI SAAD,GUELTAT SIDI SAAD,GUELTAT SIDI SAAD,03,LAGHOUAT,60,2009,true,false,1000,1000,34.2954,1.9482,https://sig.mjs.gov.dz/dashboard/viewer
297,Terrain combiné,TSP,Terrain sportif de proximité,KHNEG,KHENEG,AIN MADHI,03,LAGHOUAT,60,2008,true,false,1000,1000,33.7378,2.7885,https://sig.mjs.gov.dz/dashboard/viewer
298,Terrain combiné,TSP,Terrain sportif de proximité,tadjrouna,TADJROUNA,AIN MADHI,03,LAGHOUAT,60,2009,true,false,1800,1800,33.5067,2.1005,https://sig.mjs.gov.dz/dashboard/viewer
299,Terrain combiné,TSP,Terrain sportif de proximité,sidi makhlouf,SIDI MAKHLOUF,SIDI MAKHLOUF,03,LAGHOUAT,60,2007,true,false,1000,1000,34.1346,3.0212,https://sig.mjs.gov.dz/dashboard/viewer
300,Terrain combiné,TSP,Terrain sportif de proximité,tadjmout,TADJEMOUT,AIN MADHI,03,LAGHOUAT,60,2008,true,false,1000,1000,33.8781,2.5267,https://sig.mjs.gov.dz/dashboard/viewer
301,Terrain combiné,TSP,Terrain sportif de proximité,Laghouat,LAGHOUAT,LAGHOUAT,03,LAGHOUAT,60,,true,false,1000,1000,33.8053,2.8727,https://sig.mjs.gov.dz/dashboard/viewer
302,Terrain combiné,TSP,Terrain sportif de proximité,Laghouat,LAGHOUAT,LAGHOUAT,03,LAGHOUAT,60,2006,true,false,1000,1000,33.7843,2.8827,https://sig.mjs.gov.dz/dashboard/viewer
303,Terrain combiné,TSP,Terrain sportif de proximité,EL ASSAFIA,EL ASSAFIA,SIDI MAKHLOUF,03,LAGHOUAT,60,2007,true,false,1000,1000,33.8311,2.9859,https://sig.mjs.gov.dz/dashboard/viewer
304,Terrain combiné,TSP,Terrain sportif de proximité,OUED MORRA,OUED MORRA,OUED MORRA,03,LAGHOUAT,60,2009,true,false,1000,1000,34.166,2.3244,https://sig.mjs.gov.dz/dashboard/viewer
305,Terrain combiné,TSP,Terrain sportif de proximité,Laghouat,LAGHOUAT,LAGHOUAT,03,LAGHOUAT,60,,true,false,1000,1000,33.8085,2.8734,https://sig.mjs.gov.dz/dashboard/viewer
306,Terrain combiné,TSP,Terrain sportif de proximité,ben bennacerchora,bennacer benchora,KSAR EL HIRANE,03,LAGHOUAT,420,2017,true,false,1000,1500,33.7502,2.9995,https://sig.mjs.gov.dz/dashboard/viewer
307,Terrain combiné,TSP,Terrain sportif de proximité,GUELTAT SIDI SAAD,GUELTAT SIDI SAAD,GUELTAT SIDI SAAD,03,LAGHOUAT,60,2009,true,false,1000,1000,34.301,1.9509,https://sig.mjs.gov.dz/dashboard/viewer
308,Terrain combiné,TSP,Terrain sportif de proximité,aflou,AFLOU,AFLOU,03,LAGHOUAT,60,2007,true,false,1000,1000,34.0295,1.9266,https://sig.mjs.gov.dz/dashboard/viewer
309,Terrain combiné,TSP,Terrain sportif de proximité,beidha,BEIDHA,GUELTAT SIDI SAAD,03,LAGHOUAT,60,2007,true,false,1000,1000,34.478,2.176,https://sig.mjs.gov.dz/dashboard/viewer
310,Terrain combiné,TSP,Terrain sportif de proximité,AFLOU,AFLOU,AFLOU,03,LAGHOUAT,60,2007,true,false,1000,1000,34.1052,2.0772,https://sig.mjs.gov.dz/dashboard/viewer
311,Terrain combiné,TSP,Terrain sportif de proximité,ksar elhiran,bennacer benchora,KSAR EL HIRANE,03,LAGHOUAT,60,,true,false,1000,1000,33.7857,3.1455,https://sig.mjs.gov.dz/dashboard/viewer
312,Terrain combiné,TSP,Terrain sportif de proximité,BRIDA,BRIDA,BRIDA,03,LAGHOUAT,60,2009,true,false,1000,1000,33.9029,1.7812,https://sig.mjs.gov.dz/dashboard/viewer
313,Terrain combiné,TSP,Terrain sportif de proximité,Laghouat,LAGHOUAT,LAGHOUAT,03,LAGHOUAT,60,,true,false,1000,1000,33.8108,2.879,https://sig.mjs.gov.dz/dashboard/viewer
314,Terrain combiné,TSP,Terrain sportif de proximité,Laghouat,LAGHOUAT,LAGHOUAT,03,LAGHOUAT,60,2006,true,false,1000,1000,33.7994,2.8636,https://sig.mjs.gov.dz/dashboard/viewer
315,Terrain combiné,TSP,Terrain sportif de proximité,Laghouat,LAGHOUAT,LAGHOUAT,03,LAGHOUAT,60,,true,false,1000,1000,33.7835,2.8707,https://sig.mjs.gov.dz/dashboard/viewer
316,Terrain combiné,TSP,Terrain sportif de proximité,Laghouat,LAGHOUAT,LAGHOUAT,03,LAGHOUAT,60,,true,false,1000,1000,33.7806,2.8765,https://sig.mjs.gov.dz/dashboard/viewer
317,Terrain combiné,TSP,Terrain sportif de proximité,Laghouat,LAGHOUAT,LAGHOUAT,03,LAGHOUAT,60,2006,true,false,1000,1000,33.8065,2.8682,https://sig.mjs.gov.dz/dashboard/viewer
318,Terrain combiné,TSP,Terrain sportif de proximité,Aflou,AFLOU,AFLOU,03,LAGHOUAT,60,,true,false,1000,1000,34.1152,2.1202,https://sig.mjs.gov.dz/dashboard/viewer
319,Terrain combiné,TSP,Terrain sportif de proximité,Aflou,AFLOU,AFLOU,03,LAGHOUAT,60,,true,false,1000,1000,34.1168,2.1085,https://sig.mjs.gov.dz/dashboard/viewer
320,Terrain combiné,TSP,Terrain sportif de proximité,Aflou,AFLOU,AFLOU,03,LAGHOUAT,60,2007,true,false,1000,1000,34.1074,2.1099,https://sig.mjs.gov.dz/dashboard/viewer
321,Terrain combiné,TSP,Terrain sportif de proximité,Aflou,AFLOU,AFLOU,03,LAGHOUAT,30,2007,true,false,1000,1000,34.1066,2.1044,https://sig.mjs.gov.dz/dashboard/viewer
322,Terrain combiné,TSP,Terrain sportif de proximité,Aflou,AFLOU,AFLOU,03,LAGHOUAT,60,2007,true,true,1000,1000,34.109,2.0764,https://sig.mjs.gov.dz/dashboard/viewer
323,Terrain combiné,TSP,Terrain sportif de proximité,tadjmout,TADJEMOUT,AIN MADHI,03,LAGHOUAT,60,2006,true,false,1000,1000,33.8811,2.5232,https://sig.mjs.gov.dz/dashboard/viewer
324,Terrain combiné,TSP,Terrain sportif de proximité,tadjmout,TADJEMOUT,AIN MADHI,03,LAGHOUAT,60,2006,true,false,1000,1000,33.8788,2.5261,https://sig.mjs.gov.dz/dashboard/viewer
325,Terrain combiné,TSP,Terrain sportif de proximité,An madhi,AIN MADHI,AIN MADHI,03,LAGHOUAT,60,2008,true,false,1000,1000,33.7965,2.2995,https://sig.mjs.gov.dz/dashboard/viewer
326,Terrain combiné,TSP,Terrain sportif de proximité,bennace ben rchora,bennacer benchora,KSAR EL HIRANE,03,LAGHOUAT,60,2007,true,false,1000,1000,33.7529,3.0051,https://sig.mjs.gov.dz/dashboard/viewer
327,Terrain combiné,TSP,Terrain sportif de proximité,KHENEG,KHENEG,AIN MADHI,03,LAGHOUAT,300,2008,true,false,1000,1000,33.7405,2.7911,https://sig.mjs.gov.dz/dashboard/viewer
328,Terrain combiné,TSP,Terrain sportif de proximité,bennace ben rchora,bennacer benchora,KSAR EL HIRANE,03,LAGHOUAT,60,,true,false,1000,1000,33.7513,3.0042,https://sig.mjs.gov.dz/dashboard/viewer
329,Terrain combiné,TSP,Terrain sportif de proximité,bennace ben rchora,bennacer benchora,KSAR EL HIRANE,03,LAGHOUAT,300,2007,true,false,1800,1800,33.7517,3.0016,https://sig.mjs.gov.dz/dashboard/viewer
330,Terrain combiné,TSP,Terrain sportif de proximité,hassi r'mel,HASSI R'MEL,HASSI R'MEL,03,LAGHOUAT,60,,true,false,1000,1000,32.9425,3.2601,https://sig.mjs.gov.dz/dashboard/viewer
331,Terrain combiné,TSP,Terrain sportif de proximité,hassi r'mel,HASSI R'MEL,HASSI R'MEL,03,LAGHOUAT,60,,true,false,1000,1000,32.9455,3.2679,https://sig.mjs.gov.dz/dashboard/viewer
332,Terrain combiné,TSP,Terrain sportif de proximité,tadjrouna,TADJROUNA,AIN MADHI,03,LAGHOUAT,60,2007,true,false,1000,1000,33.5016,2.0987,https://sig.mjs.gov.dz/dashboard/viewer
333,Terrain combiné,TSP,Terrain sportif de proximité,hassi r'mel,HASSI R'MEL,HASSI R'MEL,03,LAGHOUAT,60,,true,false,1000,1000,32.9494,3.2703,https://sig.mjs.gov.dz/dashboard/viewer
334,Terrain combiné,TSP,Terrain sportif de proximité,sidi makhlouf,SIDI MAKHLOUF,SIDI MAKHLOUF,03,LAGHOUAT,60,2007,true,false,1000,1000,34.147,3.0306,https://sig.mjs.gov.dz/dashboard/viewer
335,Terrain combiné,TSP,Terrain sportif de proximité,BRIDA,BRIDA,BRIDA,03,LAGHOUAT,60,2009,true,false,1000,1000,33.9091,1.7862,https://sig.mjs.gov.dz/dashboard/viewer
336,Terrain combiné,TSP,Terrain sportif de proximité,BRIDA,BRIDA,BRIDA,03,LAGHOUAT,60,2009,true,false,1000,1000,33.9097,1.7876,https://sig.mjs.gov.dz/dashboard/viewer
337,Terrain combiné,TSP,Terrain sportif de proximité,An madhi,AIN MADHI,AIN MADHI,03,LAGHOUAT,60,2009,true,false,1000,1000,33.7988,2.2981,https://sig.mjs.gov.dz/dashboard/viewer
338,Terrain combiné,TSP,Terrain sportif de proximité,Aflou,AFLOU,AFLOU,03,LAGHOUAT,60,2007,true,false,1000,1000,34.1036,2.1042,https://sig.mjs.gov.dz/dashboard/viewer
339,Terrain combiné,TSP,Terrain sportif de proximité,el houita,EL HOUITA,AIN MADHI,03,LAGHOUAT,60,2008,true,false,1000,1000,33.6464,2.4463,https://sig.mjs.gov.dz/dashboard/viewer
340,Terrain combiné,TSP,Terrain sportif de proximité,hadj mechri,HADJ MECHRI,BRIDA,03,LAGHOUAT,80,2007,true,false,1000,1000,33.958,1.604,https://sig.mjs.gov.dz/dashboard/viewer
341,Terrain combiné,TSP,Terrain sportif de proximité,Laghouat,LAGHOUAT,LAGHOUAT,03,LAGHOUAT,60,2006,true,false,1000,1000,33.7971,2.8574,https://sig.mjs.gov.dz/dashboard/viewer
342,Terrain combiné,TSP,Terrain sportif de proximité,tadjmout,TADJROUNA,AIN MADHI,03,LAGHOUAT,60,,true,false,1000,1000,33.8804,2.5287,https://sig.mjs.gov.dz/dashboard/viewer
343,Terrain combiné,TSP,Terrain sportif de proximité,Aflou,AFLOU,AFLOU,03,LAGHOUAT,60,2007,true,false,1000,1000,34.1104,2.0881,https://sig.mjs.gov.dz/dashboard/viewer
344,Terrain combiné,TSP,Terrain sportif de proximité,AIN SIDI ALI,AIN SIDI ALI,GUELTAT SIDI SAAD,03,LAGHOUAT,60,2007,true,false,1000,1000,34.1543,1.5437,https://sig.mjs.gov.dz/dashboard/viewer
345,Terrain combiné,TSP,Terrain sportif de proximité,GUELTAT SIDI SAAD,GUELTAT SIDI SAAD,GUELTAT SIDI SAAD,03,LAGHOUAT,60,,true,false,1800,1800,34.2975,1.948,https://sig.mjs.gov.dz/dashboard/viewer
346,Terrain combiné,TSP,Terrain sportif de proximité,EL GHICHA,EL GHICHA,EL GHICHA,03,LAGHOUAT,60,2007,true,false,1000,1000,33.9294,2.136,https://sig.mjs.gov.dz/dashboard/viewer
347,Terrain combiné,TSP,Terrain sportif de proximité,sidi makhlouf,SIDI MAKHLOUF,SIDI MAKHLOUF,03,LAGHOUAT,60,2007,true,false,1000,1000,34.1307,3.0164,https://sig.mjs.gov.dz/dashboard/viewer
348,Terrain combiné,TSP,Terrain sportif de proximité,beidha,BEIDHA,GUELTAT SIDI SAAD,03,LAGHOUAT,60,2007,true,false,1000,1000,34.4809,2.1791,https://sig.mjs.gov.dz/dashboard/viewer
349,Terrain combiné,TSP,Terrain sportif de proximité,BRIDA,BRIDA,BRIDA,03,LAGHOUAT,300,2007,true,false,1800,1800,33.9051,1.7862,https://sig.mjs.gov.dz/dashboard/viewer
350,Terrain combiné,TSP,Terrain sportif de proximité,taouiala,TAOUIALA,BRIDA,03,LAGHOUAT,60,2007,true,false,1000,1000,33.8684,1.8578,https://sig.mjs.gov.dz/dashboard/viewer
351,Terrain combiné,TSP,Terrain sportif de proximité,BRIDA,BRIDA,BRIDA,03,LAGHOUAT,60,2009,true,false,1000,1000,33.9076,1.7873,https://sig.mjs.gov.dz/dashboard/viewer
352,Terrain combiné,TSP,Terrain sportif de proximité,bennace ben rchora,bennacer benchora,KSAR EL HIRANE,03,LAGHOUAT,60,2007,true,false,1000,1000,33.7533,3.0014,https://sig.mjs.gov.dz/dashboard/viewer
353,Terrain combiné,TSP,Terrain sportif de proximité,AIN SIDI ALI,AIN SIDI ALI,GUELTAT SIDI SAAD,03,LAGHOUAT,60,2007,true,false,1000,1000,34.1579,1.5416,https://sig.mjs.gov.dz/dashboard/viewer
354,Terrain combiné,TSP,Terrain sportif de proximité,el houita,EL HOUITA,AIN MADHI,03,LAGHOUAT,60,2005,true,false,1000,1000,33.6448,2.4455,https://sig.mjs.gov.dz/dashboard/viewer
355,Terrain combiné,TSP,Terrain sportif de proximité,OUED MORRA,OUED MORRA,OUED MORRA,03,LAGHOUAT,300,2007,true,false,1800,1800,34.1658,2.3308,https://sig.mjs.gov.dz/dashboard/viewer
356,Terrain combiné,UHR,Unité d'hébergement et de récupération,Aflou,AFLOU,AFLOU,03,LAGHOUAT,150,2009,true,true,400,1200,34.1185,2.101,https://sig.mjs.gov.dz/dashboard/viewer
357,,BN,Bassin de natation,Oued Nini,OUED NINI,F'KIRINA,04,OUM EL BOUAGHI,,2006,false,false,,,35.5686,7.3498,https://sig.mjs.gov.dz/dashboard/viewer
358,,BN,Bassin de natation,Ain Fakroun,AIN FEKROUN,AIN FEKROUN,04,OUM EL BOUAGHI,,2006,false,false,,,35.9738,6.8798,https://sig.mjs.gov.dz/dashboard/viewer
359,,BN,Bassin de natation,Ain karcha,AIN KERCHA,AIN KERCHA,04,OUM EL BOUAGHI,,2006,false,false,,,35.9291,6.6971,https://sig.mjs.gov.dz/dashboard/viewer
360,,BN,Bassin de natation,Ain Babouche,AIN BABOUCHE,AIN BABOUCHE,04,OUM EL BOUAGHI,,2006,true,false,,,35.9469,7.1829,https://sig.mjs.gov.dz/dashboard/viewer
361,Bassin de Natation,BN,Bassin de natation,Sigus,SIGUS,SIGUS,04,OUM EL BOUAGHI,,2008,true,false,,,36.1224,6.7998,https://sig.mjs.gov.dz/dashboard/viewer
362,Bassin de Natation,BN,Bassin de natation,Bir Chouhada,BIR CHOUHADA,SOUK NAAMANE,04,OUM EL BOUAGHI,,2006,true,false,,,35.89487,6.291049,https://sig.mjs.gov.dz/dashboard/viewer
363,Champ de tir,CDT,Champ de tir,Route de Batna Ain M'lila,AIN M'LILA,AIN M'LILA,04,OUM EL BOUAGHI,,2009,true,false,600,9900,36.0004,6.5585,https://sig.mjs.gov.dz/dashboard/viewer
364,,P25,Piscine 25 m,Lycée sportif,OUM EL BOUAGHI,OUM EL BOUAGHI,04,OUM EL BOUAGHI,,2019,false,false,1700,,35.8703,7.1401,https://sig.mjs.gov.dz/dashboard/viewer
365,Kabouche Abdelhamid,P25,Piscine 25 m,Cité El Hadika BP 2023 OEB,OUM EL BOUAGHI,OUM EL BOUAGHI,04,OUM EL BOUAGHI,900,2007,true,false,2000,9016,35.8818,7.1246,https://sig.mjs.gov.dz/dashboard/viewer
366,Piscine 25 m,P25,Piscine 25 m,Non Rattachées,AIN BEIDA,AIN BEIDA,04,OUM EL BOUAGHI,610,2023,true,true,3000,9506.75,35.789257,7.403518,https://sig.mjs.gov.dz/dashboard/viewer
367,Baktache Ibrahim,SOMS,Salle OMS,Rue Bir Sedra Ain Fakroun,AIN FEKROUN,AIN FEKROUN,04,OUM EL BOUAGHI,430,2010,true,false,2150,5350,35.9736,6.8796,https://sig.mjs.gov.dz/dashboard/viewer
368,Salle OMS,SOMS,Salle OMS,Route d'Alger BP 248 Ain M'lila,AIN M'LILA,AIN M'LILA,04,OUM EL BOUAGHI,1000,1997,true,false,2400,4300,36.043,6.5566,https://sig.mjs.gov.dz/dashboard/viewer
369,Salle OMS,SOMS,Salle OMS,Meskiana,MESKIANA,MESKIANA,04,OUM EL BOUAGHI,500,2020,false,false,,,35.6296,7.6721,https://sig.mjs.gov.dz/dashboard/viewer
370,Salle OMS,SOMS,Salle OMS,Boulevar Houarie Boumediene OEB,OUM EL BOUAGHI,OUM EL BOUAGHI,04,OUM EL BOUAGHI,1000,1997,true,false,2900,4150,35.8702,7.1064,https://sig.mjs.gov.dz/dashboard/viewer
371,Salle OMS,SOMS,Salle OMS,Rue belle Vue Ain Beaid,AIN BEIDA,AIN BEIDA,04,OUM EL BOUAGHI,1000,1999,true,false,2205,5619,35.8026,7.3948,https://sig.mjs.gov.dz/dashboard/viewer
372,Salle spécialisée,SS,Salle spécialisée,Lycée sportif,OUM EL BOUAGHI,OUM EL BOUAGHI,04,OUM EL BOUAGHI,,2015,true,false,1100,,35.87,7.1415,https://sig.mjs.gov.dz/dashboard/viewer
373,Berrou Abdel Hamid,STOMS,Stade OMS,Route de Guelif OEB,OUM EL BOUAGHI,OUM EL BOUAGHI,04,OUM EL BOUAGHI,7400,2007,false,false,3262,248930,35.8571,7.0821,https://sig.mjs.gov.dz/dashboard/viewer
374,Khelifi Touhami Zoubir,STOMS,Stade OMS,Route d'Alger BP 248 Ain M'lila,AIN M'LILA,AIN M'LILA,04,OUM EL BOUAGHI,7400,2007,true,false,3100,86898,36.045,6.5577,https://sig.mjs.gov.dz/dashboard/viewer
375,STADE OMS HAMDI ALLI,STOMS,Stade OMS,AIN BEIDA RUE DE MESKIANA,AIN BEIDA,AIN BEIDA,04,OUM EL BOUAGHI,8400,1980,false,,3460,40000,35.788456,7.402193,https://sig.mjs.gov.dz/dashboard/viewer
376,Aire Jeux,TSP,Terrain sportif de proximité,Auberges de jeunesse,OUM EL BOUAGHI,OUM EL BOUAGHI,04,OUM EL BOUAGHI,,,false,,,,35.876977,7.109255,https://sig.mjs.gov.dz/dashboard/viewer
377,T. C / Aire jeux,TSP,Terrain sportif de proximité,I.N.D,OUM EL BOUAGHI,OUM EL BOUAGHI,04,OUM EL BOUAGHI,,,,,,,35.868695,7.115235,https://sig.mjs.gov.dz/dashboard/viewer
378,T. C / Aire jeux,TSP,Terrain sportif de proximité,I.N.D,OULED ZOUAI,SOUK NAAMANE,04,OUM EL BOUAGHI,,,,,,,35.840843,6.511561,https://sig.mjs.gov.dz/dashboard/viewer
379,T. C / Aire jeux,TSP,Terrain sportif de proximité,I.N.D,SOUK NAAMANE,SOUK NAAMANE,04,OUM EL BOUAGHI,,2011,,,,,35.8989,6.3899,https://sig.mjs.gov.dz/dashboard/viewer
380,T. C / Aire jeux,TSP,Terrain sportif de proximité,I.N.D,SOUK NAAMANE,SOUK NAAMANE,04,OUM EL BOUAGHI,,2009,,,,,35.898837,6.390132,https://sig.mjs.gov.dz/dashboard/viewer
381,T. C / Aire jeux,TSP,Terrain sportif de proximité,I.N.D,AIN BEIDA,AIN BEIDA,04,OUM EL BOUAGHI,,,,,,,35.793753,7.388262,https://sig.mjs.gov.dz/dashboard/viewer
382,T. C / Aire jeux,TSP,Terrain sportif de proximité,Salle OMS,AIN BEIDA,AIN BEIDA,04,OUM EL BOUAGHI,,2011,true,,,,35.802896,7.394598,https://sig.mjs.gov.dz/dashboard/viewer
383,T. C / Aire jeux,TSP,Terrain sportif de proximité,I.N.D,OULED GACEM,AIN M'LILA,04,OUM EL BOUAGHI,,,,,,,36.033983,6.664652,https://sig.mjs.gov.dz/dashboard/viewer
384,T. C / Aire jeux,TSP,Terrain sportif de proximité,I.N.D,OUM EL BOUAGHI,OUM EL BOUAGHI,04,OUM EL BOUAGHI,,,,,,,35.868547,7.115182,https://sig.mjs.gov.dz/dashboard/viewer
385,T. C / Aire jeux,TSP,Terrain sportif de proximité,I.N.D,OUM EL BOUAGHI,OUM EL BOUAGHI,04,OUM EL BOUAGHI,,,,,,,35.868865,7.115428,https://sig.mjs.gov.dz/dashboard/viewer
386,T. C / Aire jeux,TSP,Terrain sportif de proximité,I.N.D,OULED HAMLA,AIN M'LILA,04,OUM EL BOUAGHI,,,true,,,,36.081599,6.471454,https://sig.mjs.gov.dz/dashboard/viewer
387,T. C / Aire jeux,TSP,Terrain sportif de proximité,I.N.D,EL BELALA,MESKIANA,04,OUM EL BOUAGHI,,,,,,,35.664372,7.788501,https://sig.mjs.gov.dz/dashboard/viewer
388,T. C / Aire Jeux,TSP,Terrain sportif de proximité,,OULED ZOUAI,SOUK NAAMANE,04,OUM EL BOUAGHI,,,true,,,,35.84367,6.50887,https://sig.mjs.gov.dz/dashboard/viewer
389,T. C / Aire Jeux,TSP,Terrain sportif de proximité,,MESKIANA,MESKIANA,04,OUM EL BOUAGHI,,,true,,,,35.6321,7.6609,https://sig.mjs.gov.dz/dashboard/viewer
390,T. C / Aire Jeux,TSP,Terrain sportif de proximité,,DHALAA,DHALAA,04,OUM EL BOUAGHI,,,true,,,,35.4675,7.5416,https://sig.mjs.gov.dz/dashboard/viewer
391,T. C / Aire Jeux,TSP,Terrain sportif de proximité,,EL HARMILIA,AIN KERCHA,04,OUM EL BOUAGHI,,,true,,,,35.925885,6.619674,https://sig.mjs.gov.dz/dashboard/viewer
392,T. C / Aire Jeux,TSP,Terrain sportif de proximité,,OUED NINI,F'KIRINA,04,OUM EL BOUAGHI,,,true,,,,35.578567,7.341735,https://sig.mjs.gov.dz/dashboard/viewer
393,T. C / Aire Jeux,TSP,Terrain sportif de proximité,,AIN M'LILA,AIN M'LILA,04,OUM EL BOUAGHI,,,false,,,,36.0464,6.5694,https://sig.mjs.gov.dz/dashboard/viewer
394,T. C / Aire Jeux,TSP,Terrain sportif de proximité,,AIN M'LILA,AIN M'LILA,04,OUM EL BOUAGHI,,,true,,,,36.0406,6.5631,https://sig.mjs.gov.dz/dashboard/viewer
395,T. C / Aire Jeux,TSP,Terrain sportif de proximité,,OUED NINI,F'KIRINA,04,OUM EL BOUAGHI,,,true,,,,35.566,7.3483,https://sig.mjs.gov.dz/dashboard/viewer
396,T. C / Aire Jeux,TSP,Terrain sportif de proximité,,KSAR SBAHI,KSAR SBAHI,04,OUM EL BOUAGHI,,,true,,,,36.076961,7.261613,https://sig.mjs.gov.dz/dashboard/viewer
397,T. C / Aire Jeux,TSP,Terrain sportif de proximité,Nouvelle Cité OPGI,OUM EL BOUAGHI,OUM EL BOUAGHI,04,OUM EL BOUAGHI,,,true,,,,35.863828,7.121458,https://sig.mjs.gov.dz/dashboard/viewer
398,T. C / Aire Jeux,TSP,Terrain sportif de proximité,,EL FEDJOUDJ BOUGHRARA SA,AIN FEKROUN,04,OUM EL BOUAGHI,,,true,,,,35.7075,6.8253,https://sig.mjs.gov.dz/dashboard/viewer
399,T. C / Aire Jeux,TSP,Terrain sportif de proximité,Cite Mohamed l’Kader,OUM EL BOUAGHI,OUM EL BOUAGHI,04,OUM EL BOUAGHI,,,false,,,,35.8804,7.0981,https://sig.mjs.gov.dz/dashboard/viewer
400,T. C / Aire Jeux,TSP,Terrain sportif de proximité,,AIN DISS,AIN BABOUCHE,04,OUM EL BOUAGHI,,,true,,,,36.034036,7.005333,https://sig.mjs.gov.dz/dashboard/viewer
401,T. C / Aire Jeux,TSP,Terrain sportif de proximité,Meshtet-Kasbarine,HANCHIR TOUMGHANI,AIN KERCHA,04,OUM EL BOUAGHI,,,true,,,,36.00392,6.776795,https://sig.mjs.gov.dz/dashboard/viewer
402,T. C / Aire Jeux,TSP,Terrain sportif de proximité,,BIR CHOUHADA,SOUK NAAMANE,04,OUM EL BOUAGHI,,,true,,,,35.898145,6.290296,https://sig.mjs.gov.dz/dashboard/viewer
403,T. C / Aire Jeux,TSP,Terrain sportif de proximité,Cité El-Moustakbel 50 log,AIN BEIDA,AIN BEIDA,04,OUM EL BOUAGHI,,,true,,,,35.788323,7.377443,https://sig.mjs.gov.dz/dashboard/viewer
404,T. C / Aire Jeux,TSP,Terrain sportif de proximité,Centre culturel Amir kaled,AIN BEIDA,AIN BEIDA,04,OUM EL BOUAGHI,,,true,,,,35.800796,7.382957,https://sig.mjs.gov.dz/dashboard/viewer
405,T. C / Aire Jeux,TSP,Terrain sportif de proximité,,AIN KERCHA,AIN KERCHA,04,OUM EL BOUAGHI,,,true,,,,35.927092,6.704363,https://sig.mjs.gov.dz/dashboard/viewer
406,T. C / Aire Jeux,TSP,Terrain sportif de proximité,,AIN FEKROUN,AIN FEKROUN,04,OUM EL BOUAGHI,,,true,,,,35.974391,6.87642,https://sig.mjs.gov.dz/dashboard/viewer
407,T. C / Aire Jeux,TSP,Terrain sportif de proximité,,MESKIANA,MESKIANA,04,OUM EL BOUAGHI,,,true,,,,35.641237,7.656496,https://sig.mjs.gov.dz/dashboard/viewer
408,T. C / Aire Jeux,TSP,Terrain sportif de proximité,,EL AMIRIA,SIGUS,04,OUM EL BOUAGHI,,,true,,,,36.034084,6.93002,https://sig.mjs.gov.dz/dashboard/viewer
409,T. C / Aire Jeux,TSP,Terrain sportif de proximité,,OULED ZOUAI,SOUK NAAMANE,04,OUM EL BOUAGHI,,,true,,,,35.840894,6.493855,https://sig.mjs.gov.dz/dashboard/viewer
410,T. C / Aire Jeux,TSP,Terrain sportif de proximité,,SOUK NAAMANE,SOUK NAAMANE,04,OUM EL BOUAGHI,,,true,,,,35.896094,6.378618,https://sig.mjs.gov.dz/dashboard/viewer
411,T. C / Aire Jeux,TSP,Terrain sportif de proximité,,HANCHIR TOUMGHANI,AIN KERCHA,04,OUM EL BOUAGHI,,,true,,,,35.958518,6.753612,https://sig.mjs.gov.dz/dashboard/viewer
412,T. C / Aire Jeux,TSP,Terrain sportif de proximité,,BEHIR CHERGUI,MESKIANA,04,OUM EL BOUAGHI,,,true,,,,35.794253,7.720376,https://sig.mjs.gov.dz/dashboard/viewer
413,T. C / Aire Jeux,TSP,Terrain sportif de proximité,,RAHIA,MESKIANA,04,OUM EL BOUAGHI,,,true,,,,35.764047,7.643469,https://sig.mjs.gov.dz/dashboard/viewer
414,T. C / Aire Jeux,TSP,Terrain sportif de proximité,,DHALAA,DHALAA,04,OUM EL BOUAGHI,,,true,,,,35.45852,7.554078,https://sig.mjs.gov.dz/dashboard/viewer
415,T. C / Aire Jeux,TSP,Terrain sportif de proximité,,MESKIANA,MESKIANA,04,OUM EL BOUAGHI,,,true,,,,35.632447,7.661526,https://sig.mjs.gov.dz/dashboard/viewer
416,T. C / Aire Jeux,TSP,Terrain sportif de proximité,,SIGUS,SIGUS,04,OUM EL BOUAGHI,,,true,,,,36.126449,6.776741,https://sig.mjs.gov.dz/dashboard/viewer
417,T. C / Aire Jeux,TSP,Terrain sportif de proximité,Stade APC,OULED HAMLA,AIN M'LILA,04,OUM EL BOUAGHI,,,true,,,,36.070121,6.468214,https://sig.mjs.gov.dz/dashboard/viewer
418,T. C / Aire Jeux,TSP,Terrain sportif de proximité,,BERRICHE,AIN BEIDA,04,OUM EL BOUAGHI,,,true,,,,35.913041,7.373832,https://sig.mjs.gov.dz/dashboard/viewer
419,T. C / Aire Jeux,TSP,Terrain sportif de proximité,,EL FEDJOUDJ BOUGHRARA SA,AIN FEKROUN,04,OUM EL BOUAGHI,,,true,,,,35.709448,6.822715,https://sig.mjs.gov.dz/dashboard/viewer
420,T. C / Aire Jeux,TSP,Terrain sportif de proximité,Salle OMS,AIN BEIDA,AIN BEIDA,04,OUM EL BOUAGHI,,,true,,,,35.789734,7.382013,https://sig.mjs.gov.dz/dashboard/viewer
421,T. C / Aire Jeux,TSP,Terrain sportif de proximité,,AIN ZITOUN,OUM EL BOUAGHI,04,OUM EL BOUAGHI,,,true,,,,35.682656,6.934902,https://sig.mjs.gov.dz/dashboard/viewer
422,T. C / Aire Jeux,TSP,Terrain sportif de proximité,,BERRICHE,AIN BEIDA,04,OUM EL BOUAGHI,,,true,,,,35.909841,7.374387,https://sig.mjs.gov.dz/dashboard/viewer
423,T. C / Aire Jeux,TSP,Terrain sportif de proximité,,AIN FEKROUN,AIN FEKROUN,04,OUM EL BOUAGHI,,,true,,,,35.987046,6.867861,https://sig.mjs.gov.dz/dashboard/viewer
424,T. C / Aire Jeux,TSP,Terrain sportif de proximité,,EL DJAZIA,DHALAA,04,OUM EL BOUAGHI,,,true,,,,35.663167,7.510403,https://sig.mjs.gov.dz/dashboard/viewer
425,T. C / Aire Jeux,TSP,Terrain sportif de proximité,,EL DJAZIA,DHALAA,04,OUM EL BOUAGHI,,,true,,,,35.662644,7.504366,https://sig.mjs.gov.dz/dashboard/viewer
426,T. C / Aire Jeux,TSP,Terrain sportif de proximité,,FKIRINA,F'KIRINA,04,OUM EL BOUAGHI,,,true,,,,35.6629,7.2903,https://sig.mjs.gov.dz/dashboard/viewer
427,T. C / Aire Jeux,TSP,Terrain sportif de proximité,,EL BELALA,MESKIANA,04,OUM EL BOUAGHI,,,true,,,,35.664601,7.790937,https://sig.mjs.gov.dz/dashboard/viewer
428,T. C / Aire Jeux,TSP,Terrain sportif de proximité,,EL BELALA,MESKIANA,04,OUM EL BOUAGHI,,,true,,,,35.666077,7.789718,https://sig.mjs.gov.dz/dashboard/viewer
429,T. C / Aire Jeux,TSP,Terrain sportif de proximité,,SIGUS,SIGUS,04,OUM EL BOUAGHI,,,true,,,,36.121812,6.800117,https://sig.mjs.gov.dz/dashboard/viewer
430,T. C / Aire Jeux,TSP,Terrain sportif de proximité,Sidi gris OEB,OUM EL BOUAGHI,OUM EL BOUAGHI,04,OUM EL BOUAGHI,,,true,,,,35.915891,7.004881,https://sig.mjs.gov.dz/dashboard/viewer
431,T. C / Aire Jeux,TSP,Terrain sportif de proximité,,BIR CHOUHADA,SOUK NAAMANE,04,OUM EL BOUAGHI,,,true,,,,35.898929,6.294533,https://sig.mjs.gov.dz/dashboard/viewer
432,T. C / Aire Jeux,TSP,Terrain sportif de proximité,,KSAR SBAHI,KSAR SBAHI,04,OUM EL BOUAGHI,,,true,,,,36.082291,7.261525,https://sig.mjs.gov.dz/dashboard/viewer
433,T. C / Aire Jeux,TSP,Terrain sportif de proximité,,AIN BABOUCHE,AIN BABOUCHE,04,OUM EL BOUAGHI,,,true,,,,35.941093,7.192824,https://sig.mjs.gov.dz/dashboard/viewer
434,T. C / Aire Jeux,TSP,Terrain sportif de proximité,,EL AMIRIA,SIGUS,04,OUM EL BOUAGHI,,,true,,,,36.111455,6.901399,https://sig.mjs.gov.dz/dashboard/viewer
435,T. C / Aire Jeux,TSP,Terrain sportif de proximité,Salle polyvalente Ain ferhat,ZORG,AIN BEIDA,04,OUM EL BOUAGHI,,,true,,,,35.787579,7.461818,https://sig.mjs.gov.dz/dashboard/viewer
436,T. C / Aire Jeux,TSP,Terrain sportif de proximité,Meshtet-Zezu,OULED GACEM,AIN M'LILA,04,OUM EL BOUAGHI,,,true,,,,36.01396,6.651699,https://sig.mjs.gov.dz/dashboard/viewer
437,T.C/Aire jeux,TSP,Terrain sportif de proximité,I.N.D,AIN BABOUCHE,AIN BABOUCHE,04,OUM EL BOUAGHI,,,,,,,35.943235,7.188696,https://sig.mjs.gov.dz/dashboard/viewer
438,T.C/Aire jeux,TSP,Terrain sportif de proximité,,KSAR SBAHI,KSAR SBAHI,04,OUM EL BOUAGHI,,,true,,,,36.0787,7.2572,https://sig.mjs.gov.dz/dashboard/viewer
439,T.C/Aire jeux,TSP,Terrain sportif de proximité,,AIN BABOUCHE,AIN BABOUCHE,04,OUM EL BOUAGHI,,,,,,,35.938352,7.183923,https://sig.mjs.gov.dz/dashboard/viewer
440,T.C/Aire jeux,TSP,Terrain sportif de proximité,,AIN M'LILA,AIN M'LILA,04,OUM EL BOUAGHI,,,false,,,,35.993627,6.580173,https://sig.mjs.gov.dz/dashboard/viewer
441,T.C/Aire jeux,TSP,Terrain sportif de proximité,,OULED GACEM,AIN M'LILA,04,OUM EL BOUAGHI,,,true,,,,36.031943,6.663102,https://sig.mjs.gov.dz/dashboard/viewer
442,T.C/Aire jeux,TSP,Terrain sportif de proximité,Sebbakh,OULED ZOUAI,SOUK NAAMANE,04,OUM EL BOUAGHI,,,true,,,,35.888694,6.504148,https://sig.mjs.gov.dz/dashboard/viewer
443,Aire de jeu de football,AJF,Aire de jeux football,commune de Tigharghar,TIGHARGHAR,MENAA,05,BATNA,30,,true,false,4750,,35.1635,5.9694,https://sig.mjs.gov.dz/dashboard/viewer
444,Aire de jeu de football,AJF,Aire de jeux football,commune de Tigharghar,TIGHARGHAR,MENAA,05,BATNA,30,,true,false,4750,,35.1251,5.9412,https://sig.mjs.gov.dz/dashboard/viewer
445,Aire de jeu de football,AJF,Aire de jeux football,commune de Inoughissen,INOUGHISSEN,ICHEMOUL,05,BATNA,30,,true,false,4750,,35.2945,6.5383,https://sig.mjs.gov.dz/dashboard/viewer
446,Aire de jeu de football,AJF,Aire de jeux football,commune de Menaa,MENAA,MENAA,05,BATNA,30,,true,false,4750,,35.1759,5.9977,https://sig.mjs.gov.dz/dashboard/viewer
447,aire de jeux barika,AJF,Aire de jeux football,commune de Barika,BARIKA,BARIKA,05,BATNA,30,,true,false,4750,,35.3779,5.3715,https://sig.mjs.gov.dz/dashboard/viewer
448,aire de jeux batna,AJF,Aire de jeux football,commune de Batna,BATNA,BATNA,05,BATNA,30,,true,false,4750,,35.5305,6.1615,https://sig.mjs.gov.dz/dashboard/viewer
449,aire de jeux batna,AJF,Aire de jeux football,commune de Batna,BATNA,BATNA,05,BATNA,30,,true,false,4750,,35.5635,6.1716,https://sig.mjs.gov.dz/dashboard/viewer
450,aire de jeux batna,AJF,Aire de jeux football,commune de Batna,BATNA,BATNA,05,BATNA,30,,true,false,4750,,35.5578,6.1802,https://sig.mjs.gov.dz/dashboard/viewer
451,aire de jeux batna,AJF,Aire de jeux football,commune de Batna,BATNA,BATNA,05,BATNA,30,,true,false,4750,,35.5577,6.1899,https://sig.mjs.gov.dz/dashboard/viewer
452,aire de jeux bouzina,AJF,Aire de jeux football,commune de Bouzina,BOUZINA,BOUZINA,05,BATNA,30,,true,false,4750,,35.2666,6.0941,https://sig.mjs.gov.dz/dashboard/viewer
453,aire de jeux de Batna,AJF,Aire de jeux football,commune de Batna,BATNA,BATNA,05,BATNA,30,,true,false,4750,,35.5484,6.1696,https://sig.mjs.gov.dz/dashboard/viewer
454,Aire de jeux de foot ball,AJF,Aire de jeux football,commune de Boumagar,BOUMAGUEUR,N'GAOUS,05,BATNA,30,,true,false,4750,,35.5179,5.5616,https://sig.mjs.gov.dz/dashboard/viewer
455,Aire de jeux de foot ball,AJF,Aire de jeux football,commune de ghassira,GHASSIRA,TKOUT,05,BATNA,30,,true,false,4750,,35.5053,6.5175,https://sig.mjs.gov.dz/dashboard/viewer
456,Aire de jeux de foot ball,AJF,Aire de jeux football,Aéroport Mustapha Ben Boulaid commune de lazro,LAZROU,SERIANA,05,BATNA,30,,true,false,4750,,35.7567,6.3043,https://sig.mjs.gov.dz/dashboard/viewer
457,Aire de jeux de foot ball,AJF,Aire de jeux football,commune de Ain Yagout,AIN YAGOUT,EL MADHER,05,BATNA,30,,true,false,4750,,35.7722,6.4212,https://sig.mjs.gov.dz/dashboard/viewer
458,Aire de jeux de foot ball,AJF,Aire de jeux football,commune de Boulhilet,BOULHILAT,CHEMORA,05,BATNA,30,,true,false,4750,,35.728,6.6618,https://sig.mjs.gov.dz/dashboard/viewer
459,Aire de jeux de foot ball,AJF,Aire de jeux football,commune de Foum Toub,FOUM TOUB,ICHEMOUL,05,BATNA,30,,true,false,4750,,35.4008,6.551,https://sig.mjs.gov.dz/dashboard/viewer
460,Aire de jeux de foot ball,AJF,Aire de jeux football,commune de Taxlent,TAXLENT,OULED SI SLIMANE,05,BATNA,30,2013,true,false,4750,,35.6018,5.8186,https://sig.mjs.gov.dz/dashboard/viewer
461,Aire de jeux de foot ball,AJF,Aire de jeux football,commune de ouled fadhel,OULED FADEL,TIMGAD,05,BATNA,30,,true,false,4750,,35.4847,6.6297,https://sig.mjs.gov.dz/dashboard/viewer
462,Aire de jeux de foot ball Hidoussa,AJF,Aire de jeux football,commune de Hidoussa,HIDOUSSA,MEROUANA,05,BATNA,30,2011,true,false,4750,,35.5226,5.939,https://sig.mjs.gov.dz/dashboard/viewer
463,Aire de jeux de foot Ichmoul,AJF,Aire de jeux football,commune de Ichmoul,ICHEMOUL,ICHEMOUL,05,BATNA,30,2013,true,false,4750,,35.3105,6.506,https://sig.mjs.gov.dz/dashboard/viewer
464,aire de jeux de football,AJF,Aire de jeux football,commune de batna,BATNA,BATNA,05,BATNA,30,,true,false,4750,,35.5226,6.1967,https://sig.mjs.gov.dz/dashboard/viewer
465,Aire de jeux de football,AJF,Aire de jeux football,commune de Boumia,BOUMIA,EL MADHER,05,BATNA,30,,true,false,4750,,35.6759,6.481,https://sig.mjs.gov.dz/dashboard/viewer
466,Aire de jeux de football,AJF,Aire de jeux football,commune de Batna,BATNA,BATNA,05,BATNA,30,,true,false,4750,,35.553,6.1805,https://sig.mjs.gov.dz/dashboard/viewer
467,Aire de jeux de football,AJF,Aire de jeux football,commune de oued chaaba,OUED CHAABA,BATNA,05,BATNA,30,,true,false,4750,,35.5307,6.0846,https://sig.mjs.gov.dz/dashboard/viewer
468,Aire de jeux de football,AJF,Aire de jeux football,Commune de Guigba,GUIGBA,RAS EL AIOUN,05,BATNA,30,,true,false,4750,,35.7386,5.5835,https://sig.mjs.gov.dz/dashboard/viewer
469,aire de jeux de football Djezzar,AJF,Aire de jeux football,commune de Djezzar,DJEZZAR,DJEZZAR,05,BATNA,30,2013,true,false,4750,,35.4928,5.2573,https://sig.mjs.gov.dz/dashboard/viewer
470,aire de jeux de Football Gosbat,AJF,Aire de jeux football,commune de Gosbat,GOSBAT,RAS EL AIOUN,05,BATNA,30,,true,false,4750,,35.6451,5.4592,https://sig.mjs.gov.dz/dashboard/viewer
471,aire de jeux de football Talkhemt,AJF,Aire de jeux football,commune de Talkhemt,TALKHAMT,RAS EL AIOUN,05,BATNA,30,2013,true,false,4750,,35.6757,5.7846,https://sig.mjs.gov.dz/dashboard/viewer
472,aire de jeux de football Thniet el abed,AJF,Aire de jeux football,commune de Thniet el abed,TENIET EL ABED,THENIET EL ABED,05,BATNA,30,2013,true,false,4750,,35.2564,6.2011,https://sig.mjs.gov.dz/dashboard/viewer
473,aire de jeux El Rahbat,AJF,Aire de jeux football,commune de El Rahbat,RAHBAT,RAS EL AIOUN,05,BATNA,30,,true,false,4750,,35.6824,5.6527,https://sig.mjs.gov.dz/dashboard/viewer
474,aire de jeux Fesdis,AJF,Aire de jeux football,commune de Fesdis,FESDIS,BATNA,05,BATNA,30,,true,false,4750,,35.6229,6.2428,https://sig.mjs.gov.dz/dashboard/viewer
475,aire de jeux Mdoukal,AJF,Aire de jeux football,commune de Mdoukal,M DOUKAL,BARIKA,05,BATNA,30,,true,false,4750,,35.1227,5.1845,https://sig.mjs.gov.dz/dashboard/viewer
476,aire de jeux Ouled sellam,AJF,Aire de jeux football,commune de Ouled sellam,OULED SELLEM,RAS EL AIOUN,05,BATNA,30,,true,false,4750,,35.8259,5.8859,https://sig.mjs.gov.dz/dashboard/viewer
477,aire de jeux Seggana,AJF,Aire de jeux football,commune de Seggana,SEGGANA,SEGGANA,05,BATNA,30,,true,false,4750,,35.3655,5.5783,https://sig.mjs.gov.dz/dashboard/viewer
478,aire de jeux Zana El Beida,AJF,Aire de jeux football,commune de Zana El Beida,ZANET EL BEIDA,SERIANA,05,BATNA,30,,true,false,4750,,35.7737,6.0823,https://sig.mjs.gov.dz/dashboard/viewer
479,Bassin de natation,BN,Bassin de natation,Commune de Ras layoune,RAS EL AIOUN,RAS EL AIOUN,05,BATNA,200,2007,true,false,3006,,35.6699,5.654,https://sig.mjs.gov.dz/dashboard/viewer
480,Bassin de natation,BN,Bassin de natation,Commune de Merouana,MEROUANA,MEROUANA,05,BATNA,100,2006,true,false,,,35.6303,5.9086,https://sig.mjs.gov.dz/dashboard/viewer
481,Bassin de natation,BN,Bassin de natation,Commune de N'gaous,N GAOUS,N'GAOUS,05,BATNA,100,2006,true,false,,,35.57061,5.615292,https://sig.mjs.gov.dz/dashboard/viewer
482,bassin de natation ain touta,BN,Bassin de natation,commune ain touta,AIN TOUTA,AIN TOUTA,05,BATNA,200,2007,true,false,,,35.3701,5.889,https://sig.mjs.gov.dz/dashboard/viewer
483,Bassin de natation Chemora,BN,Bassin de natation,commune de chemora,CHEMORA,CHEMORA,05,BATNA,200,2007,true,false,,2700,35.66487,6.639503,https://sig.mjs.gov.dz/dashboard/viewer
484,Bassin de natation Djezzar,BN,Bassin de natation,commune de El Djezzar,DJEZZAR,DJEZZAR,05,BATNA,100,2007,true,false,,1200,35.5062,5.2705,https://sig.mjs.gov.dz/dashboard/viewer
485,centre equestre Djerma,CE,Centre équestre,commune de djerma,DJERMA,EL MADHER,05,BATNA,500,2019,true,false,52000,156000,35.7119,6.3239,https://sig.mjs.gov.dz/dashboard/viewer
486,piscine 25 m Barika,P25,Piscine 25 m,complexe sportif commune de Barika,BARIKA,BARIKA,05,BATNA,300,2011,true,false,,1958,35.3767,5.3716,https://sig.mjs.gov.dz/dashboard/viewer
487,Piscine 25 m HAMLA,P25,Piscine 25 m,hamla commune de Oued Chaaba,OUED CHAABA,BATNA,05,BATNA,100,2017,true,false,,4012,35.5319,6.1007,https://sig.mjs.gov.dz/dashboard/viewer
488,piscine 25 m Kechida,P25,Piscine 25 m,Pôle sportif et culturel Kechida Batna,BATNA,BATNA,05,BATNA,100,2010,true,false,,5400,35.5529,6.1616,https://sig.mjs.gov.dz/dashboard/viewer
489,piscine 25m OPOW,P25,Piscine 25 m,opow Batna,BATNA,BATNA,05,BATNA,100,,true,false,,,35.5593,6.1878,https://sig.mjs.gov.dz/dashboard/viewer
490,piste d'athlétisme Barika,PA,Piste d'athlétisme,commune de Barika,BARIKA,BARIKA,05,BATNA,20,2017,true,false,4141,14895,35.3778,5.3708,https://sig.mjs.gov.dz/dashboard/viewer
491,piscine de proximité Ain Yagout,PP,Piscine de proximité,Route de constantine commune de Ain Yagout,AIN YAGOUT,EL MADHER,05,BATNA,100,2019,true,false,,,35.7718,6.4084,https://sig.mjs.gov.dz/dashboard/viewer
492,piscine de proximité Arris,PP,Piscine de proximité,Cité 1 er Novembre commune de Arris,ARRIS,ARRIS,05,BATNA,100,2012,true,false,,780,35.2568,6.3658,https://sig.mjs.gov.dz/dashboard/viewer
493,piscine de proximité Bitam,PP,Piscine de proximité,commune de Bitam,BITAM,BARIKA,05,BATNA,200,,true,false,,,35.3111,5.3764,https://sig.mjs.gov.dz/dashboard/viewer
494,Stade d'athlétisme batna,SA,Stade d'athlétisme,commune de Batna,BATNA,BATNA,05,BATNA,5400,2001,true,false,,,35.5263,6.1859,https://sig.mjs.gov.dz/dashboard/viewer
495,Stade 1500 places Hamla,SF,Stade de football,Hamla 3 Oued Chaaba Batna,OUED CHAABA,BATNA,05,BATNA,1500,2022,true,true,,,35.5366,6.0966,https://sig.mjs.gov.dz/dashboard/viewer
496,Stade 5400 places à Barika,SF,Stade de football,route de Msila commune de Barika,BARIKA,BARIKA,05,BATNA,5400,2011,true,false,,20883,35.4153,5.3685,https://sig.mjs.gov.dz/dashboard/viewer
497,stade 5400 places Arris,SF,Stade de football,Dachra Hamra commune de Arris,ARRIS,ARRIS,05,BATNA,5400,2011,true,false,,15974,35.24,6.3224,https://sig.mjs.gov.dz/dashboard/viewer
498,stade de foot 5400 places,SF,Stade de football,Commune de Ras layoune,RAS EL AIOUN,RAS EL AIOUN,05,BATNA,5400,2011,true,false,,,35.6721,5.6473,https://sig.mjs.gov.dz/dashboard/viewer
499,stade intercommunal Timgad,SF,Stade de football,commune de timgad,TIMGAD,TIMGAD,05,BATNA,1000,2009,true,false,,20020,35.4963,6.479,https://sig.mjs.gov.dz/dashboard/viewer
500,Salle OMS,SOMS,Salle OMS,"""route de Ras layoune Commune de N'gaoues""",N GAOUS,N'GAOUS,05,BATNA,500,2004,true,false,3782,3794,35.5703,5.6146,https://sig.mjs.gov.dz/dashboard/viewer
501,salle oms 1000 places,SOMS,Salle OMS,opow 1er nov Batna,BATNA,BATNA,05,BATNA,1000,,true,false,,,35.5596,6.1876,https://sig.mjs.gov.dz/dashboard/viewer
502,salle oms 3000 places,SOMS,Salle OMS,opow 1er nov Batna,BATNA,BATNA,05,BATNA,3000,2010,true,false,2207,49600000,35.5585,6.1892,https://sig.mjs.gov.dz/dashboard/viewer
503,salle oms 500 places Ain Djasser,SOMS,Salle OMS,Route de sétif commune de Ain Djasser,AIN DJASSER,AIN DJASSER,05,BATNA,500,2019,true,false,,,35.8602,5.9956,https://sig.mjs.gov.dz/dashboard/viewer
504,salle oms 500 places El Madher,SOMS,Salle OMS,commune de El Madher,EL MADHER,EL MADHER,05,BATNA,500,2019,true,false,,,35.6262,6.3757,https://sig.mjs.gov.dz/dashboard/viewer
505,salle oms 500 places Kechida,SOMS,Salle OMS,Pôle sportif et culturel Kechida Batna,BATNA,BATNA,05,BATNA,500,2016,true,false,3007,3792,35.5522,6.1602,https://sig.mjs.gov.dz/dashboard/viewer
506,salle oms Ain Touta,SOMS,Salle OMS,commune ain touta,AIN TOUTA,AIN TOUTA,05,BATNA,500,,true,false,,5759,35.3702,5.8902,https://sig.mjs.gov.dz/dashboard/viewer
507,salle oms Arris,SOMS,Salle OMS,EX:FAJ commune de Arris,ARRIS,ARRIS,05,BATNA,500,,true,false,2207,49600,35.2536,6.3533,https://sig.mjs.gov.dz/dashboard/viewer
508,salle oms Barika,SOMS,Salle OMS,complexe sportif commune de Barika,BARIKA,BARIKA,05,BATNA,500,,true,false,,19333,35.3771,5.3706,https://sig.mjs.gov.dz/dashboard/viewer
509,salle oms Merouana,SOMS,Salle OMS,route de sétif Commune de Merouana,MEROUANA,MEROUANA,05,BATNA,500,2004,true,false,5000,,35.629,5.9103,https://sig.mjs.gov.dz/dashboard/viewer
510,Salle d'haltérophilie Barika,SS,Salle spécialisée,complexe sportif commune de Barika,BARIKA,BARIKA,05,BATNA,50,,true,false,,498,35.3781,5.3731,https://sig.mjs.gov.dz/dashboard/viewer
511,Salle Spécialisée,SS,Salle spécialisée,commune de Ain lassafir,OUYOUN EL ASSAFIR,TAZOULT,05,BATNA,50,2020,true,false,,,35.5237,6.3809,https://sig.mjs.gov.dz/dashboard/viewer
512,Salle Spécialisée,SS,Salle spécialisée,commune de ouled fadhel,OULED FADEL,TIMGAD,05,BATNA,50,2013,true,false,404,,35.5133,6.7497,https://sig.mjs.gov.dz/dashboard/viewer
513,salle spécialisée chir,SS,Salle spécialisée,commune de chir,CHIR,THENIET EL ABED,05,BATNA,50,2013,true,false,404,,35.2289,6.1289,https://sig.mjs.gov.dz/dashboard/viewer
514,stade OMS,STOMS,Stade OMS,opow 1er nov,BATNA,BATNA,05,BATNA,9000,,true,false,9524,116212.1,35.5572,6.1879,https://sig.mjs.gov.dz/dashboard/viewer
515,stade OMS Ain Touta,STOMS,Stade OMS,commune ain touta,AIN TOUTA,AIN TOUTA,05,BATNA,5400,2001,true,false,,,35.3682,5.8881,https://sig.mjs.gov.dz/dashboard/viewer
516,Terrainde football Batna,TF,Terrain de football,commune de Batna,BATNA,BATNA,05,BATNA,30,,true,false,7140,,35.5414,6.1682,https://sig.mjs.gov.dz/dashboard/viewer
517,Terrain de proximité 1020 logts Batna,TSP,Terrain sportif de proximité,cité 1020 commune de Batna,BATNA,BATNA,05,BATNA,30,2006,true,false,1125,,35.5489,6.1496,https://sig.mjs.gov.dz/dashboard/viewer
518,Terrain de proximité Ain Yagout,TSP,Terrain sportif de proximité,commune de Dhraa Boultif,AIN YAGOUT,EL MADHER,05,BATNA,30,2006,true,false,1125,,35.8302,6.3674,https://sig.mjs.gov.dz/dashboard/viewer
519,Terrain de proximité Ain Yagout,TSP,Terrain sportif de proximité,commune de Ain Yagout,AIN YAGOUT,EL MADHER,05,BATNA,30,2006,true,false,1125,,35.7737,6.4111,https://sig.mjs.gov.dz/dashboard/viewer
520,Terrain de proximité Arris,TSP,Terrain sportif de proximité,commune de Arris,ARRIS,ARRIS,05,BATNA,30,2006,true,false,1125,,35.2681,6.4008,https://sig.mjs.gov.dz/dashboard/viewer
521,Terrain de proximité Arris,TSP,Terrain sportif de proximité,commune de Arris,ARRIS,ARRIS,05,BATNA,30,2010,true,false,1125,,35.2571,6.3667,https://sig.mjs.gov.dz/dashboard/viewer
522,Terrain de proximité Barika,TSP,Terrain sportif de proximité,commune de Barika,BARIKA,BARIKA,05,BATNA,30,2006,true,false,1125,,35.4058,5.371,https://sig.mjs.gov.dz/dashboard/viewer
523,Terrain de proximité Batna,TSP,Terrain sportif de proximité,Bouzourane commune de Batna,BATNA,BATNA,05,BATNA,30,2010,true,false,1125,,35.5622,6.1924,https://sig.mjs.gov.dz/dashboard/viewer
524,Terrain de proximité Batna,TSP,Terrain sportif de proximité,commune de Batna,BATNA,BATNA,05,BATNA,30,,true,false,1125,,35.5627,6.1965,https://sig.mjs.gov.dz/dashboard/viewer
525,Terrain de proximité Batna,TSP,Terrain sportif de proximité,commune de Batna,BATNA,BATNA,05,BATNA,30,2010,true,false,1125,,35.5412,6.1685,https://sig.mjs.gov.dz/dashboard/viewer
526,Terrain de proximité Batna,TSP,Terrain sportif de proximité,commune de Batna,BATNA,BATNA,05,BATNA,30,2010,true,false,1125,,35.5536,6.1613,https://sig.mjs.gov.dz/dashboard/viewer
527,Terrain de proximité Batna,TSP,Terrain sportif de proximité,kéchida commune de Batna,BATNA,BATNA,05,BATNA,30,2010,true,false,1125,,35.5573,6.1564,https://sig.mjs.gov.dz/dashboard/viewer
528,Terrain de proximité Batna,TSP,Terrain sportif de proximité,commune de Batna,BATNA,BATNA,05,BATNA,30,2010,true,false,1125,,35.5467,6.1583,https://sig.mjs.gov.dz/dashboard/viewer
529,Terrain de proximité Batna,TSP,Terrain sportif de proximité,Université de Batna commune de Batna,BATNA,BATNA,05,BATNA,30,2010,true,false,1125,,35.5416,6.1612,https://sig.mjs.gov.dz/dashboard/viewer
530,Terrain de proximité Batna,TSP,Terrain sportif de proximité,commune de Batna,BATNA,BATNA,05,BATNA,30,2012,true,false,1125,,35.5489,6.1496,https://sig.mjs.gov.dz/dashboard/viewer
531,Terrain de proximité Batna,TSP,Terrain sportif de proximité,commune de Batna,BATNA,BATNA,05,BATNA,30,2010,true,false,1125,,35.5586,6.1867,https://sig.mjs.gov.dz/dashboard/viewer
532,Terrain de proximité Batna,TSP,Terrain sportif de proximité,commune de Batna,BATNA,BATNA,05,BATNA,30,,true,false,1125,,35.5314,6.1634,https://sig.mjs.gov.dz/dashboard/viewer
533,Terrain de proximité Beni Fedala el hakania,TSP,Terrain sportif de proximité,commune de Beni Fedala el hakania,BENI FOUDHALA EL HAKANIA,AIN TOUTA,05,BATNA,30,2006,true,false,1125,,35.3832,6.0484,https://sig.mjs.gov.dz/dashboard/viewer
534,Terrain de proximité Boumia,TSP,Terrain sportif de proximité,commune de Boumia,BOUMIA,EL MADHER,05,BATNA,30,2006,true,false,1125,,35.6754,6.4809,https://sig.mjs.gov.dz/dashboard/viewer
535,Terrain de proximité Boumia,TSP,Terrain sportif de proximité,commune de Boumia,BOUMIA,EL MADHER,05,BATNA,30,2010,true,false,1125,,35.6754,6.4814,https://sig.mjs.gov.dz/dashboard/viewer
536,Terrain de proximité Djerma,TSP,Terrain sportif de proximité,commune de Djerma,DJERMA,EL MADHER,05,BATNA,30,2010,true,false,1125,,35.661,6.3022,https://sig.mjs.gov.dz/dashboard/viewer
537,terrain de proximité Guigba,TSP,Terrain sportif de proximité,Commune de Guigba,GUIGBA,RAS EL AIOUN,05,BATNA,30,2006,true,false,1125,,35.7327,5.5943,https://sig.mjs.gov.dz/dashboard/viewer
538,Terrain de proximité Ichmoul,TSP,Terrain sportif de proximité,commune de Ichmoul,ICHEMOUL,ICHEMOUL,05,BATNA,30,2010,true,false,1125,,35.3084,6.5127,https://sig.mjs.gov.dz/dashboard/viewer
539,Terrain de proximité Ichmoul,TSP,Terrain sportif de proximité,commune de Ichmoul,ICHEMOUL,ICHEMOUL,05,BATNA,30,2006,true,false,1125,,35.3097,6.5067,https://sig.mjs.gov.dz/dashboard/viewer
540,Terrain de proximité Ichmoul,TSP,Terrain sportif de proximité,commune de Ichmoul,ICHEMOUL,ICHEMOUL,05,BATNA,30,2006,true,false,1125,,35.2681,6.4005,https://sig.mjs.gov.dz/dashboard/viewer
541,Terrain de proximité Ichmoul,TSP,Terrain sportif de proximité,commune de Ichmoul,ICHEMOUL,ICHEMOUL,05,BATNA,30,2010,true,false,1125,,35.3067,6.5004,https://sig.mjs.gov.dz/dashboard/viewer
542,Terrain de proximité Inoughissen,TSP,Terrain sportif de proximité,commune de Inoughissen,INOUGHISSEN,ICHEMOUL,05,BATNA,30,2012,true,false,1125,,35.2945,6.5389,https://sig.mjs.gov.dz/dashboard/viewer
543,Terrain de proximité kechida Batna,TSP,Terrain sportif de proximité,kechida commune de Batna,BATNA,BATNA,05,BATNA,30,2006,true,false,1125,,35.552,6.1548,https://sig.mjs.gov.dz/dashboard/viewer
544,Terrain de proximité Lamcene,TSP,Terrain sportif de proximité,commune de Lamcene,LEMCENE,OULED SI SLIMANE,05,BATNA,30,2010,true,false,1125,,35.6571,5.7987,https://sig.mjs.gov.dz/dashboard/viewer
545,Terrain de proximité Lamcene,TSP,Terrain sportif de proximité,commune de Lamcene,LEMCENE,OULED SI SLIMANE,05,BATNA,30,2006,true,false,1125,,35.6566,5.7997,https://sig.mjs.gov.dz/dashboard/viewer
546,Terrain de proximité Maafa,TSP,Terrain sportif de proximité,commune de Maafa,MAAFA,AIN TOUTA,05,BATNA,30,2010,true,false,1125,,35.2839,5.7983,https://sig.mjs.gov.dz/dashboard/viewer
547,terrain de proximité Menaa,TSP,Terrain sportif de proximité,Commune de Menaa,MENAA,MENAA,05,BATNA,30,2006,true,false,1125,,35.176,5.9994,https://sig.mjs.gov.dz/dashboard/viewer
548,Terrain de proximité Menaa,TSP,Terrain sportif de proximité,commune de Menaa,MENAA,MENAA,05,BATNA,30,2010,true,false,1125,,35.1751,5.9972,https://sig.mjs.gov.dz/dashboard/viewer
549,Terrain de proximité ouled fadhel,TSP,Terrain sportif de proximité,commune de ouled fadhel,OULED FADEL,TIMGAD,05,BATNA,30,2010,true,false,1125,,35.4837,6.6224,https://sig.mjs.gov.dz/dashboard/viewer
550,Terrain de proximité Ouled si slimane,TSP,Terrain sportif de proximité,commune de Ouled si slimane,OULED SI SLIMANE,OULED SI SLIMANE,05,BATNA,30,2006,true,false,1125,,35.6098,5.6356,https://sig.mjs.gov.dz/dashboard/viewer
551,Terrain de proximité Taxlent,TSP,Terrain sportif de proximité,commune de Taxlent,TAXLENT,OULED SI SLIMANE,05,BATNA,30,2006,true,false,1125,,35.6031,5.8137,https://sig.mjs.gov.dz/dashboard/viewer
552,Terrain de proximité Tighanimine,TSP,Terrain sportif de proximité,commune de Tighanimine,TIGHANIMINE,ARRIS,05,BATNA,30,2006,true,false,1125,,35.2099,6.2993,https://sig.mjs.gov.dz/dashboard/viewer
553,Terrain de proximité Tighanimine,TSP,Terrain sportif de proximité,commune de Tighanimine,TIGHANIMINE,ARRIS,05,BATNA,30,2010,true,false,1125,,35.2191,6.3118,https://sig.mjs.gov.dz/dashboard/viewer
554,Terrain de proximité Tigharghar,TSP,Terrain sportif de proximité,commune de Tigharghar,TIGHARGHAR,MENAA,05,BATNA,30,2006,true,false,1125,,35.1632,5.9687,https://sig.mjs.gov.dz/dashboard/viewer
555,Terrain de proximité Timgad,TSP,Terrain sportif de proximité,commune de timgad,TIMGAD,TIMGAD,05,BATNA,30,2006,true,false,1125,,35.4935,6.4758,https://sig.mjs.gov.dz/dashboard/viewer
