[
 {
  "name_ar": "محطة عين مليلة - المركز الوطني للبحوث في عصور ما قبل التاريخ وعلم الإنسان والتاريخ",
  "name_fr": "STATION AIN MLILA, CNRPAH",
  "layer": "cultural-center",
  "lat": 36.041472,
  "lng": 6.562639,
  "wilaya_code": "04",
  "wilaya_name_ar": "أم البواقي",
  "wilaya_name_fr": "Oum El Bouaghi",
  "nid_ar": null,
  "nid_fr": "773",
  "match_m": null,
  "source": "patrimoineculturelalgerien.org",
  "name": "STATION AIN MLILA, CNRPAH",
  "has_virtual_tour": false
 },
 {
  "name_ar": "مركز الدراسات الأندلسية، محطة المركز الوطني للبحوث ما قبل التاريخ",
  "name_fr": "Centre des études andalouses, Station CNRPAH",
  "layer": "cultural-center",
  "lat": 34.881044,
  "lng": -1.334187,
  "wilaya_code": "13",
  "wilaya_name_ar": "تلمسان",
  "wilaya_name_fr": "Tlemcen",
  "nid_ar": null,
  "nid_fr": "771",
  "match_m": null,
  "source": "patrimoineculturelalgerien.org",
  "name": "Centre des études andalouses, Station CNRPAH",
  "has_virtual_tour": false
 },
 {
  "name_ar": "مركز الدراسات الخلدونية",
  "name_fr": "Centre des études khaldouniennes",
  "layer": "cultural-center",
  "lat": 35.350991,
  "lng": 1.309988,
  "wilaya_code": "14",
  "wilaya_name_ar": "تيارت",
  "wilaya_name_fr": "Tiaret",
  "nid_ar": null,
  "nid_fr": "772",
  "match_m": null,
  "source": "patrimoineculturelalgerien.org",
  "name": "Centre des études khaldouniennes",
  "has_virtual_tour": false
 },
 {
  "name_ar": "المركز الوطني للسينما والسمعي البصري",
  "name_fr": "Centre National du Cinéma et de l’Audiovisuel (CNCA)",
  "layer": "cultural-center",
  "lat": 36.77603,
  "lng": 3.054396,
  "wilaya_code": "16",
  "wilaya_name_ar": "الجزائر",
  "wilaya_name_fr": "Alger",
  "nid_ar": null,
  "nid_fr": "813",
  "match_m": null,
  "source": "patrimoineculturelalgerien.org",
  "name": "Centre National du Cinéma et de l’Audiovisuel (CNCA)",
  "has_virtual_tour": false
 },
 {
  "name_ar": "مركز الفنون والثقافة \"قصر الرياس\"",
  "name_fr": "Centre des Arts et de la Culture « PALAIS DES RAÏS »",
  "layer": "cultural-center",
  "lat": 36.7883,
  "lng": 3.063994,
  "wilaya_code": "16",
  "wilaya_name_ar": "الجزائر",
  "wilaya_name_fr": "Alger",
  "nid_ar": null,
  "nid_fr": "123",
  "match_m": null,
  "source": "patrimoineculturelalgerien.org",
  "name": "Centre des Arts et de la Culture « PALAIS DES RAÏS »",
  "has_virtual_tour": false
 },
 {
  "name_ar": "المركز الجزائري للسينما (السينماتيك)",
  "name_fr": "Centre Algérien de la Cinématographie (Cinémathèque)",
  "layer": "cultural-center",
  "lat": 36.774603,
  "lng": 3.058865,
  "wilaya_code": "16",
  "wilaya_name_ar": "الجزائر",
  "wilaya_name_fr": "Alger",
  "nid_ar": null,
  "nid_fr": "471",
  "match_m": null,
  "source": "patrimoineculturelalgerien.org",
  "name": "Centre Algérien de la Cinématographie (Cinémathèque)",
  "has_virtual_tour": false
 },
 {
  "name_ar": "المركز الوطني للبحث في علم الآثار",
  "name_fr": "Centre National de Recherche en Archéologie",
  "layer": "cultural-center",
  "lat": 36.76467,
  "lng": 3.04532,
  "wilaya_code": "16",
  "wilaya_name_ar": "الجزائر",
  "wilaya_name_fr": "Alger",
  "nid_ar": "1298",
  "nid_fr": "812",
  "match_m": null,
  "source": "patrimoineculturelalgerien.org",
  "name": "Centre National de Recherche en Archéologie",
  "has_virtual_tour": false
 },
 {
  "name_ar": "قرية الفنانين",
  "name_fr": "Village des Artistes",
  "layer": "cultural-center",
  "lat": 36.689317,
  "lng": 2.827552,
  "wilaya_code": "16",
  "wilaya_name_ar": "الجزائر",
  "wilaya_name_fr": "Alger",
  "nid_ar": null,
  "nid_fr": "1548",
  "match_m": null,
  "source": "patrimoineculturelalgerien.org",
  "name": "Village des Artistes",
  "has_virtual_tour": false
 },
 {
  "name_ar": "CNRPAH ملحقة المركز الوطني للبحوث في عصور ما قبل التاريخ وفى علم الإنسان والتاريخ",
  "name_fr": "02.\tAnnexe du centre national de recherches préhistoriques, anthropologiques et historiques.",
  "layer": "cultural-center",
  "lat": 35.236407,
  "lng": 4.162894,
  "wilaya_code": "28",
  "wilaya_name_ar": "المسيلة",
  "wilaya_name_fr": "M'Sila",
  "nid_ar": "1122",
  "nid_fr": "1550",
  "match_m": null,
  "source": "patrimoineculturelalgerien.org",
  "name": "02.\tAnnexe du centre national de recherches préhistoriques, anthropologiques et historiques.",
  "has_virtual_tour": false
 },
 {
  "name_ar": "المركز العربي للآثار",
  "name_fr": "Centre arabe d'archéologie",
  "layer": "cultural-center",
  "lat": 36.591684,
  "lng": 2.459237,
  "wilaya_code": "42",
  "wilaya_name_ar": "تيبازة",
  "wilaya_name_fr": "Tipaza",
  "nid_ar": null,
  "nid_fr": "18",
  "match_m": null,
  "source": "patrimoineculturelalgerien.org",
  "name": "Centre arabe d'archéologie",
  "has_virtual_tour": false
 },
 {
  "name_ar": "دار الثقافة مبارك الميلي",
  "name_fr": "Maison de la Culture Moubarak El-Mili",
  "layer": "cultural-center",
  "lat": 36.442071,
  "lng": 6.258075,
  "wilaya_code": "43",
  "wilaya_name_ar": "ميلة",
  "wilaya_name_fr": "Mila",
  "nid_ar": "496",
  "nid_fr": "1554",
  "match_m": null,
  "source": "patrimoineculturelalgerien.org",
  "name": "Maison de la Culture Moubarak El-Mili",
  "has_virtual_tour": false
 },
 {
  "name_ar": "المركز الوطني للمخطوطات",
  "name_fr": "Centre national des manuscrits",
  "layer": "cultural-center",
  "lat": 27.886836,
  "lng": -0.286745,
  "wilaya_code": "01",
  "wilaya_name_ar": "أدرار",
  "wilaya_name_fr": "Adrar",
  "nid_ar": "643",
  "nid_fr": null,
  "match_m": null,
  "source": "patrimoineculturelalgerien.org",
  "name": "Centre national des manuscrits",
  "has_virtual_tour": false
 },
 {
  "name_ar": "المركز الوطني للبحث في علم الأثار –ملحقة تازولت- باتنة-",
  "name_fr": "Centre national de recherche en archéologie - annexe de Tazoult - Batna",
  "layer": "cultural-center",
  "lat": 35.494775,
  "lng": 6.247816,
  "wilaya_code": "05",
  "wilaya_name_ar": "باتنة",
  "wilaya_name_fr": "Batna",
  "nid_ar": "465",
  "nid_fr": null,
  "match_m": null,
  "source": "patrimoineculturelalgerien.org",
  "name": "Centre national de recherche en archéologie - annexe de Tazoult - Batna",
  "has_virtual_tour": false
 },
 {
  "name_ar": "ملحقة المركز الوطني للمخطوطات",
  "name_fr": "Annexe du Centre national des manuscrits",
  "layer": "cultural-center",
  "lat": 34.847289,
  "lng": 5.699688,
  "wilaya_code": "07",
  "wilaya_name_ar": "بسكرة",
  "wilaya_name_fr": "Biskra",
  "nid_ar": "738",
  "nid_fr": null,
  "match_m": null,
  "source": "patrimoineculturelalgerien.org",
  "name": "Annexe du Centre national des manuscrits",
  "has_virtual_tour": false
 },
 {
  "name_ar": "مركز الفنون و المعارض تلمسان",
  "name_fr": "Centre des arts et des expositions de Tlemcen",
  "layer": "cultural-center",
  "lat": 34.91156,
  "lng": 1.339969,
  "wilaya_code": "13",
  "wilaya_name_ar": "تلمسان",
  "wilaya_name_fr": "Tlemcen",
  "nid_ar": "1019",
  "nid_fr": null,
  "match_m": null,
  "source": "patrimoineculturelalgerien.org",
  "name": "Centre des arts et des expositions de Tlemcen",
  "has_virtual_tour": false
 }
]