[
 {
  "name_ar": "المكتبة الرئيسية للمطالعة العمومية لولاية خنشلة",
  "name_fr": "La principale bibliothèque de lecture publique",
  "layer": "library",
  "lat": 35.437191,
  "lng": 7.135182,
  "wilaya_code": "40",
  "wilaya_name_ar": "خنشلة",
  "wilaya_name_fr": "Khenchela",
  "nid_ar": "217",
  "nid_fr": "1354",
  "match_m": 0,
  "source": "patrimoineculturelalgerien.org",
  "name": "La principale bibliothèque de lecture publique",
  "has_virtual_tour": false
 },
 {
  "name_ar": "المكتبة الرئيسية للمطالعة العمومية الشهيدة فرنسواز لويز",
  "name_fr": "Bibliothèque principale de lecture publique martyre Françoise Louise",
  "layer": "library",
  "lat": 36.761173,
  "lng": 8.3142,
  "wilaya_code": "36",
  "wilaya_name_ar": "الطارف",
  "wilaya_name_fr": "El Tarf",
  "nid_ar": "237",
  "nid_fr": null,
  "match_m": null,
  "source": "patrimoineculturelalgerien.org",
  "name": "Bibliothèque principale de lecture publique martyre Françoise Louise",
  "has_virtual_tour": false
 },
 {
  "name_ar": "المكتبة الرئيسية للمطالعة العمومية لولاية باتنة",
  "name_fr": "Bibliothèque principale de lecture publique de la wilaya de Batna",
  "layer": "library",
  "lat": 35.5439,
  "lng": 6.1234,
  "wilaya_code": "05",
  "wilaya_name_ar": "باتنة",
  "wilaya_name_fr": "Batna",
  "nid_ar": "239",
  "nid_fr": null,
  "match_m": null,
  "source": "patrimoineculturelalgerien.org",
  "name": "Bibliothèque principale de lecture publique de la wilaya de Batna",
  "has_virtual_tour": false
 },
 {
  "name_ar": "المكتبة الوطنية الحامة",
  "name_fr": "Bibliothèque nationale d'El Hamma",
  "layer": "library",
  "lat": 36.748636,
  "lng": 3.071795,
  "wilaya_code": "16",
  "wilaya_name_ar": "الجزائر",
  "wilaya_name_fr": "Alger",
  "nid_ar": "240",
  "nid_fr": null,
  "match_m": null,
  "source": "patrimoineculturelalgerien.org",
  "name": "Bibliothèque nationale d'El Hamma",
  "has_virtual_tour": true
 },
 {
  "name_ar": "المكتبة العمومية للمطالعة عين الدفلى",
  "name_fr": "Bibliothèque publique de lecture d'Aïn Defla",
  "layer": "library",
  "lat": 36.261496,
  "lng": 1.95752,
  "wilaya_code": "44",
  "wilaya_name_ar": "عين الدفلى",
  "wilaya_name_fr": "Aïn Defla",
  "nid_ar": "278",
  "nid_fr": null,
  "match_m": null,
  "source": "patrimoineculturelalgerien.org",
  "name": "Bibliothèque publique de lecture d'Aïn Defla",
  "has_virtual_tour": false
 },
 {
  "name_ar": "المكتبة الرئيسية للمطالعة العمومية برادعي احمد تامنغست",
  "name_fr": "Bibliothèque principale de lecture publique Beradaï Ahmed – Tamanrasset",
  "layer": "library",
  "lat": 22.791308,
  "lng": 5.525744,
  "wilaya_code": "11",
  "wilaya_name_ar": "تمنراست",
  "wilaya_name_fr": "Tamanrasset",
  "nid_ar": "281",
  "nid_fr": null,
  "match_m": null,
  "source": "patrimoineculturelalgerien.org",
  "name": "Bibliothèque principale de lecture publique Beradaï Ahmed – Tamanrasset",
  "has_virtual_tour": false
 },
 {
  "name_ar": "المكتبة الرئيسية للمطالعة العمومية وانزار عبد الكريم",
  "name_fr": "Bibliothèque principale de lecture publique Ouanzar Abdelkrim",
  "layer": "library",
  "lat": 34.836756,
  "lng": 0.147872,
  "wilaya_code": "20",
  "wilaya_name_ar": "سعيدة",
  "wilaya_name_fr": "Saïda",
  "nid_ar": "285",
  "nid_fr": null,
  "match_m": null,
  "source": "patrimoineculturelalgerien.org",
  "name": "Bibliothèque principale de lecture publique Ouanzar Abdelkrim",
  "has_virtual_tour": false
 },
 {
  "name_ar": "مكتبة المطالعة بلدية الرقاصة",
  "name_fr": "Bibliothèque de lecture publique – commune d'El Reggassa",
  "layer": "library",
  "lat": 34.017083,
  "lng": 0.927904,
  "wilaya_code": "32",
  "wilaya_name_ar": "البيض",
  "wilaya_name_fr": "El Bayadh",
  "nid_ar": "289",
  "nid_fr": null,
  "match_m": null,
  "source": "patrimoineculturelalgerien.org",
  "name": "Bibliothèque de lecture publique – commune d'El Reggassa",
  "has_virtual_tour": false
 },
 {
  "name_ar": "مكتبة المطالعة بوقطب",
  "name_fr": "Bibliothèque de lecture publique de Bougtoub",
  "layer": "library",
  "lat": 34.044092,
  "lng": 0.089507,
  "wilaya_code": "32",
  "wilaya_name_ar": "البيض",
  "wilaya_name_fr": "El Bayadh",
  "nid_ar": "290",
  "nid_fr": null,
  "match_m": null,
  "source": "patrimoineculturelalgerien.org",
  "name": "Bibliothèque de lecture publique de Bougtoub",
  "has_virtual_tour": false
 },
 {
  "name_ar": "مكتبة المطالعة العمومية مالك بن نبي لبلدية سيدي بوبكر",
  "name_fr": "Bibliothèque de lecture publique Malek Bennabi – commune de Sidi Boubekeur",
  "layer": "library",
  "lat": 35.027964,
  "lng": 0.058807,
  "wilaya_code": "20",
  "wilaya_name_ar": "سعيدة",
  "wilaya_name_fr": "Saïda",
  "nid_ar": "291",
  "nid_fr": null,
  "match_m": null,
  "source": "patrimoineculturelalgerien.org",
  "name": "Bibliothèque de lecture publique Malek Bennabi – commune de Sidi Boubekeur",
  "has_virtual_tour": false
 },
 {
  "name_ar": "مكتبة المطالعة بريزينة",
  "name_fr": "Bibliothèque de lecture publique de Brézina",
  "layer": "library",
  "lat": 33.101985,
  "lng": 1.268961,
  "wilaya_code": "32",
  "wilaya_name_ar": "البيض",
  "wilaya_name_fr": "El Bayadh",
  "nid_ar": "292",
  "nid_fr": null,
  "match_m": null,
  "source": "patrimoineculturelalgerien.org",
  "name": "Bibliothèque de lecture publique de Brézina",
  "has_virtual_tour": false
 },
 {
  "name_ar": "مكتبة المطالعة العمومية د.أحمد عروة",
  "name_fr": "Bibliothèque de lecture publique Dr Ahmed Aroua",
  "layer": "library",
  "lat": 35.119845,
  "lng": -0.149415,
  "wilaya_code": "20",
  "wilaya_name_ar": "سعيدة",
  "wilaya_name_fr": "Saïda",
  "nid_ar": "293",
  "nid_fr": null,
  "match_m": null,
  "source": "patrimoineculturelalgerien.org",
  "name": "Bibliothèque de lecture publique Dr Ahmed Aroua",
  "has_virtual_tour": false
 },
 {
  "name_ar": "مكتبة الشهيد سعودي جلول",
  "name_fr": "Bibliothèque martyr Saoudi Djeloul",
  "layer": "library",
  "lat": 36.065876,
  "lng": 3.333123,
  "wilaya_code": "26",
  "wilaya_name_ar": "المدية",
  "wilaya_name_fr": "Médéa",
  "nid_ar": "294",
  "nid_fr": null,
  "match_m": null,
  "source": "patrimoineculturelalgerien.org",
  "name": "Bibliothèque martyr Saoudi Djeloul",
  "has_virtual_tour": false
 },
 {
  "name_ar": "المكتبة الرئيسية للمطالعة العموممية الرق الحاج بن عامر",
  "name_fr": "Bibliothèque principale de lecture publique Hadj Ben Amer",
  "layer": "library",
  "lat": 33.670388,
  "lng": 1.025464,
  "wilaya_code": "32",
  "wilaya_name_ar": "البيض",
  "wilaya_name_fr": "El Bayadh",
  "nid_ar": "300",
  "nid_fr": null,
  "match_m": null,
  "source": "patrimoineculturelalgerien.org",
  "name": "Bibliothèque principale de lecture publique Hadj Ben Amer",
  "has_virtual_tour": false
 },
 {
  "name_ar": "مكتبة المطالعة العمومية أبو القاسم سعد الله",
  "name_fr": "Bibliothèque de lecture publique Abou El Kacem Saâdallah",
  "layer": "library",
  "lat": 34.920304,
  "lng": -0.211388,
  "wilaya_code": "20",
  "wilaya_name_ar": "سعيدة",
  "wilaya_name_fr": "Saïda",
  "nid_ar": "301",
  "nid_fr": null,
  "match_m": null,
  "source": "patrimoineculturelalgerien.org",
  "name": "Bibliothèque de lecture publique Abou El Kacem Saâdallah",
  "has_virtual_tour": false
 },
 {
  "name_ar": "المكتبة الرئيسية للمطالعة العمومية مولاي بلحميسي",
  "name_fr": "Bibliothèque principale de lecture publique Moulay Belhamissi",
  "layer": "library",
  "lat": 35.927505,
  "lng": 0.0792,
  "wilaya_code": "27",
  "wilaya_name_ar": "مستغانم",
  "wilaya_name_fr": "Mostaganem",
  "nid_ar": "303",
  "nid_fr": null,
  "match_m": null,
  "source": "patrimoineculturelalgerien.org",
  "name": "Bibliothèque principale de lecture publique Moulay Belhamissi",
  "has_virtual_tour": false
 },
 {
  "name_ar": "مكتبة المجاهد العربي محمد ببلدية جواب",
  "name_fr": "Bibliothèque Moudjahid El Arbi Mohamed – commune de Djouab",
  "layer": "library",
  "lat": 36.139461,
  "lng": 3.424249,
  "wilaya_code": "26",
  "wilaya_name_ar": "المدية",
  "wilaya_name_fr": "Médéa",
  "nid_ar": "304",
  "nid_fr": null,
  "match_m": null,
  "source": "patrimoineculturelalgerien.org",
  "name": "Bibliothèque Moudjahid El Arbi Mohamed – commune de Djouab",
  "has_virtual_tour": false
 },
 {
  "name_ar": "مكتبة الشهيد ابراهيمي محمد ببلدية جواب",
  "name_fr": "Bibliothèque martyr Brahimi Mohamed – commune de Djouab",
  "layer": "library",
  "lat": 36.137452,
  "lng": 3.433355,
  "wilaya_code": "26",
  "wilaya_name_ar": "المدية",
  "wilaya_name_fr": "Médéa",
  "nid_ar": "307",
  "nid_fr": null,
  "match_m": null,
  "source": "patrimoineculturelalgerien.org",
  "name": "Bibliothèque martyr Brahimi Mohamed – commune de Djouab",
  "has_virtual_tour": false
 },
 {
  "name_ar": "مكتبة المطالعة العمومية مالك حداد",
  "name_fr": "Bibliothèque de lecture publique Malek Haddad",
  "layer": "library",
  "lat": 34.893774,
  "lng": -0.078502,
  "wilaya_code": "20",
  "wilaya_name_ar": "سعيدة",
  "wilaya_name_fr": "Saïda",
  "nid_ar": "308",
  "nid_fr": null,
  "match_m": null,
  "source": "patrimoineculturelalgerien.org",
  "name": "Bibliothèque de lecture publique Malek Haddad",
  "has_virtual_tour": false
 },
 {
  "name_ar": "المكتبة الرئيسية للمطالعة العمومية \"الشيخ البشيرالإبراهيمي\"",
  "name_fr": "Bibliothèque principale de lecture publique Cheikh El Bachir El Ibrahimi",
  "layer": "library",
  "lat": 33.79678,
  "lng": 2.852791,
  "wilaya_code": "03",
  "wilaya_name_ar": "الأغواط",
  "wilaya_name_fr": "Laghouat",
  "nid_ar": "310",
  "nid_fr": null,
  "match_m": null,
  "source": "patrimoineculturelalgerien.org",
  "name": "Bibliothèque principale de lecture publique Cheikh El Bachir El Ibrahimi",
  "has_virtual_tour": false
 },
 {
  "name_ar": "مكتبة بلدية قصر البخاري",
  "name_fr": "Bibliothèque communale de Ksar El Boukhari",
  "layer": "library",
  "lat": 35.87592,
  "lng": 2.747389,
  "wilaya_code": "26",
  "wilaya_name_ar": "المدية",
  "wilaya_name_fr": "Médéa",
  "nid_ar": "311",
  "nid_fr": null,
  "match_m": null,
  "source": "patrimoineculturelalgerien.org",
  "name": "Bibliothèque communale de Ksar El Boukhari",
  "has_virtual_tour": false
 },
 {
  "name_ar": "مكتبة بليل",
  "name_fr": "Bibliothèque de Bellil",
  "layer": "library",
  "lat": 33.266758,
  "lng": 3.200949,
  "wilaya_code": "03",
  "wilaya_name_ar": "الأغواط",
  "wilaya_name_fr": "Laghouat",
  "nid_ar": "313",
  "nid_fr": null,
  "match_m": null,
  "source": "patrimoineculturelalgerien.org",
  "name": "Bibliothèque de Bellil",
  "has_virtual_tour": false
 },
 {
  "name_ar": "مكتبة المجاهد لوصيف عمار المفاتحة",
  "name_fr": "Bibliothèque Moudjahid Loucif Ammar – El Mfatha",
  "layer": "library",
  "lat": 35.884068,
  "lng": 2.935359,
  "wilaya_code": "26",
  "wilaya_name_ar": "المدية",
  "wilaya_name_fr": "Médéa",
  "nid_ar": "314",
  "nid_fr": null,
  "match_m": null,
  "source": "patrimoineculturelalgerien.org",
  "name": "Bibliothèque Moudjahid Loucif Ammar – El Mfatha",
  "has_virtual_tour": false
 },
 {
  "name_ar": "المكتبة الحضرية \"الفنان محمد الصغير\"",
  "name_fr": "Bibliothèque urbaine Artiste Mohamed Seghir",
  "layer": "library",
  "lat": 33.794209,
  "lng": 2.880549,
  "wilaya_code": "03",
  "wilaya_name_ar": "الأغواط",
  "wilaya_name_fr": "Laghouat",
  "nid_ar": "318",
  "nid_fr": null,
  "match_m": null,
  "source": "patrimoineculturelalgerien.org",
  "name": "Bibliothèque urbaine Artiste Mohamed Seghir",
  "has_virtual_tour": false
 },
 {
  "name_ar": "مكتبة الشيخ البشير الابراهيمي ببلدية سانق",
  "name_fr": "Bibliothèque Cheikh El Bachir El Ibrahimi – commune de Saneg",
  "layer": "library",
  "lat": 35.84788,
  "lng": 2.889219,
  "wilaya_code": "26",
  "wilaya_name_ar": "المدية",
  "wilaya_name_fr": "Médéa",
  "nid_ar": "319",
  "nid_fr": null,
  "match_m": null,
  "source": "patrimoineculturelalgerien.org",
  "name": "Bibliothèque Cheikh El Bachir El Ibrahimi – commune de Saneg",
  "has_virtual_tour": false
 },
 {
  "name_ar": "مكتبة عين ماضي ”العلامة الشيخ دهسي أحمد لعناية“",
  "name_fr": "Zaouia Tidjania",
  "layer": "library",
  "lat": 33.795698,
  "lng": 2.304893,
  "wilaya_code": "03",
  "wilaya_name_ar": "الأغواط",
  "wilaya_name_fr": "Laghouat",
  "nid_ar": "320",
  "nid_fr": "52",
  "match_m": 107,
  "source": "patrimoineculturelalgerien.org",
  "name": "Zaouia Tidjania",
  "has_virtual_tour": false
 },
 {
  "name_ar": "المكتبة الرئيسية للمطالعة العمومية  سعد دحلب",
  "name_fr": "Bibliothèque principale de lecture publique Saâd Dahlab",
  "layer": "library",
  "lat": 35.357241,
  "lng": 1.325522,
  "wilaya_code": "14",
  "wilaya_name_ar": "تيارت",
  "wilaya_name_fr": "Tiaret",
  "nid_ar": "322",
  "nid_fr": null,
  "match_m": null,
  "source": "patrimoineculturelalgerien.org",
  "name": "Bibliothèque principale de lecture publique Saâd Dahlab",
  "has_virtual_tour": false
 },
 {
  "name_ar": "المكتبة الرئيسية للمطالعة العمومية المجاهد خمايس بكتة",
  "name_fr": "Bibliothèque principale de lecture publique Moudjahid Khemaïs Bekta",
  "layer": "library",
  "lat": 26.5169,
  "lng": 8.479701,
  "wilaya_code": "33",
  "wilaya_name_ar": "إليزي",
  "wilaya_name_fr": "Illizi",
  "nid_ar": "323",
  "nid_fr": null,
  "match_m": null,
  "source": "patrimoineculturelalgerien.org",
  "name": "Bibliothèque principale de lecture publique Moudjahid Khemaïs Bekta",
  "has_virtual_tour": false
 },
 {
  "name_ar": "مكتبة الشهيد حواسين قاسي بلدية الشهبونية",
  "name_fr": "Bibliothèque martyr Haouassine Kaci – commune de Chahbounia",
  "layer": "library",
  "lat": 35.54267,
  "lng": 2.60533,
  "wilaya_code": "26",
  "wilaya_name_ar": "المدية",
  "wilaya_name_fr": "Médéa",
  "nid_ar": "324",
  "nid_fr": null,
  "match_m": null,
  "source": "patrimoineculturelalgerien.org",
  "name": "Bibliothèque martyr Haouassine Kaci – commune de Chahbounia",
  "has_virtual_tour": false
 },
 {
  "name_ar": "مكتبة الغيشة ”المجاهد المرحوم ناهي الشيخ“",
  "name_fr": "Bibliothèque d'El Ghicha – Moudjahid feu Nahi Cheikh",
  "layer": "library",
  "lat": 33.932211,
  "lng": 2.142199,
  "wilaya_code": "03",
  "wilaya_name_ar": "الأغواط",
  "wilaya_name_fr": "Laghouat",
  "nid_ar": "325",
  "nid_fr": null,
  "match_m": null,
  "source": "patrimoineculturelalgerien.org",
  "name": "Bibliothèque d'El Ghicha – Moudjahid feu Nahi Cheikh",
  "has_virtual_tour": false
 },
 {
  "name_ar": "المكتبة الرئيسية للمطالعة العمومية معمري علي بن سعيد سوق أهراس",
  "name_fr": "Bibliothèque principale de la lecture publique martyr Maamri Ali Ben Said Souk Ahras",
  "layer": "library",
  "lat": 36.282354,
  "lng": 7.935515,
  "wilaya_code": "41",
  "wilaya_name_ar": "سوق أهراس",
  "wilaya_name_fr": "Souk Ahras",
  "nid_ar": "327",
  "nid_fr": "1353",
  "match_m": 0,
  "source": "patrimoineculturelalgerien.org",
  "name": "Bibliothèque principale de la lecture publique martyr Maamri Ali Ben Said Souk Ahras",
  "has_virtual_tour": false
 },
 {
  "name_ar": "مكتبة المجاهد حميدي محمد ببلدية بوغزول",
  "name_fr": "Bibliothèque Moudjahid Hamidi Mohamed – commune de Boughezoul",
  "layer": "library",
  "lat": 35.703481,
  "lng": 2.857018,
  "wilaya_code": "26",
  "wilaya_name_ar": "المدية",
  "wilaya_name_fr": "Médéa",
  "nid_ar": "328",
  "nid_fr": null,
  "match_m": null,
  "source": "patrimoineculturelalgerien.org",
  "name": "Bibliothèque Moudjahid Hamidi Mohamed – commune de Boughezoul",
  "has_virtual_tour": false
 },
 {
  "name_ar": "المكتبة البلدية 02 البواعيش",
  "name_fr": "Bibliothèque communale n°2 – El Bouaïch",
  "layer": "library",
  "lat": 35.553257,
  "lng": 2.358615,
  "wilaya_code": "26",
  "wilaya_name_ar": "المدية",
  "wilaya_name_fr": "Médéa",
  "nid_ar": "330",
  "nid_fr": null,
  "match_m": null,
  "source": "patrimoineculturelalgerien.org",
  "name": "Bibliothèque communale n°2 – El Bouaïch",
  "has_virtual_tour": false
 },
 {
  "name_ar": "المكتبة الريفية \"الشهيد سعيدي قدور\"",
  "name_fr": "Bibliothèque rurale martyr Saïdi Kaddour",
  "layer": "library",
  "lat": 33.906355,
  "lng": 1.786558,
  "wilaya_code": "03",
  "wilaya_name_ar": "الأغواط",
  "wilaya_name_fr": "Laghouat",
  "nid_ar": "335",
  "nid_fr": null,
  "match_m": null,
  "source": "patrimoineculturelalgerien.org",
  "name": "Bibliothèque rurale martyr Saïdi Kaddour",
  "has_virtual_tour": false
 },
 {
  "name_ar": "مكتبة بلدية عزيز",
  "name_fr": "Bibliothèque communale d'Aziz",
  "layer": "library",
  "lat": 35.826497,
  "lng": 2.456258,
  "wilaya_code": "26",
  "wilaya_name_ar": "المدية",
  "wilaya_name_fr": "Médéa",
  "nid_ar": "336",
  "nid_fr": null,
  "match_m": null,
  "source": "patrimoineculturelalgerien.org",
  "name": "Bibliothèque communale d'Aziz",
  "has_virtual_tour": false
 },
 {
  "name_ar": "مكتبة الشهيد تافيفت احمد دراق",
  "name_fr": "Bibliothèque martyr Tafift Ahmed Derrag",
  "layer": "library",
  "lat": 35.862107,
  "lng": 2.3617,
  "wilaya_code": "26",
  "wilaya_name_ar": "المدية",
  "wilaya_name_fr": "Médéa",
  "nid_ar": "337",
  "nid_fr": null,
  "match_m": null,
  "source": "patrimoineculturelalgerien.org",
  "name": "Bibliothèque martyr Tafift Ahmed Derrag",
  "has_virtual_tour": false
 },
 {
  "name_ar": "مكتبة بلدية أم الجليل",
  "name_fr": "Bibliothèque communale d'Oum El Djelil",
  "layer": "library",
  "lat": 35.830911,
  "lng": 2.621139,
  "wilaya_code": "26",
  "wilaya_name_ar": "المدية",
  "wilaya_name_fr": "Médéa",
  "nid_ar": "339",
  "nid_fr": null,
  "match_m": null,
  "source": "patrimoineculturelalgerien.org",
  "name": "Bibliothèque communale d'Oum El Djelil",
  "has_virtual_tour": false
 },
 {
  "name_ar": "مكتبة الشاعر مفدي زكريا  بلدية عين بوسيف",
  "name_fr": "Bibliothèque du poète Moufdi Zakaria – commune d'Aïn Boucif",
  "layer": "library",
  "lat": 35.891107,
  "lng": 3.139023,
  "wilaya_code": "26",
  "wilaya_name_ar": "المدية",
  "wilaya_name_fr": "Médéa",
  "nid_ar": "344",
  "nid_fr": null,
  "match_m": null,
  "source": "patrimoineculturelalgerien.org",
  "name": "Bibliothèque du poète Moufdi Zakaria – commune d'Aïn Boucif",
  "has_virtual_tour": false
 },
 {
  "name_ar": "مكتبة الشهيد ملاح لخضر بلدية العوينات",
  "name_fr": "Bibliothèque martyr Mellah Lakhdar – commune d'El Ouinet",
  "layer": "library",
  "lat": 35.89348,
  "lng": 3.034761,
  "wilaya_code": "26",
  "wilaya_name_ar": "المدية",
  "wilaya_name_fr": "Médéa",
  "nid_ar": "346",
  "nid_fr": null,
  "match_m": null,
  "source": "patrimoineculturelalgerien.org",
  "name": "Bibliothèque martyr Mellah Lakhdar – commune d'El Ouinet",
  "has_virtual_tour": false
 },
 {
  "name_ar": "مكتبة المجاهد شريفي محمد بلدية الكاف لخضر",
  "name_fr": "Bibliothèque Moudjahid Chrifi Mohamed – commune d'El Kaf Lakhdar",
  "layer": "library",
  "lat": 35.929504,
  "lng": 3.29127,
  "wilaya_code": "26",
  "wilaya_name_ar": "المدية",
  "wilaya_name_fr": "Médéa",
  "nid_ar": "347",
  "nid_fr": null,
  "match_m": null,
  "source": "patrimoineculturelalgerien.org",
  "name": "Bibliothèque Moudjahid Chrifi Mohamed – commune d'El Kaf Lakhdar",
  "has_virtual_tour": false
 },
 {
  "name_ar": "مكتبة الشهيد  العيد بوعبعوب بلدية الشنيقل",
  "name_fr": "Bibliothèque martyr El Aïd Bouabboub – commune de Chéniguel",
  "layer": "library",
  "lat": 35.921005,
  "lng": 3.564298,
  "wilaya_code": "26",
  "wilaya_name_ar": "المدية",
  "wilaya_name_fr": "Médéa",
  "nid_ar": "350",
  "nid_fr": null,
  "match_m": null,
  "source": "patrimoineculturelalgerien.org",
  "name": "Bibliothèque martyr El Aïd Bouabboub – commune de Chéniguel",
  "has_virtual_tour": false
 },
 {
  "name_ar": "مكتبة الشهيد عبدي محمود بلدية ذراع السمار",
  "name_fr": "Bibliothèque martyr Abdi Mahmoud – commune de Draâ Essemar",
  "layer": "library",
  "lat": 36.275029,
  "lng": 2.71645,
  "wilaya_code": "26",
  "wilaya_name_ar": "المدية",
  "wilaya_name_fr": "Médéa",
  "nid_ar": "351",
  "nid_fr": null,
  "match_m": null,
  "source": "patrimoineculturelalgerien.org",
  "name": "Bibliothèque martyr Abdi Mahmoud – commune de Draâ Essemar",
  "has_virtual_tour": false
 },
 {
  "name_ar": "مكتبة \"الشهيد شريط محمد\"",
  "name_fr": "Bibliothèque martyr Cherit Mohamed",
  "layer": "library",
  "lat": 34.116897,
  "lng": 2.107789,
  "wilaya_code": "03",
  "wilaya_name_ar": "الأغواط",
  "wilaya_name_fr": "Laghouat",
  "nid_ar": "355",
  "nid_fr": null,
  "match_m": null,
  "source": "patrimoineculturelalgerien.org",
  "name": "Bibliothèque martyr Cherit Mohamed",
  "has_virtual_tour": false
 },
 {
  "name_ar": "مكتبة المطالعة العمومية عبد الله شريط",
  "name_fr": "Bibliothèque de lecture publique Abdallah Cherit",
  "layer": "library",
  "lat": 34.969496,
  "lng": 0.30315,
  "wilaya_code": "20",
  "wilaya_name_ar": "سعيدة",
  "wilaya_name_fr": "Saïda",
  "nid_ar": "377",
  "nid_fr": null,
  "match_m": null,
  "source": "patrimoineculturelalgerien.org",
  "name": "Bibliothèque de lecture publique Abdallah Cherit",
  "has_virtual_tour": false
 },
 {
  "name_ar": "مكتبة المطالعة العمومية المجاهد هشماوي علي",
  "name_fr": "Bibliothèque de lecture publique Moudjahid Hechmaoui Ali",
  "layer": "library",
  "lat": 34.883739,
  "lng": 0.154458,
  "wilaya_code": "20",
  "wilaya_name_ar": "سعيدة",
  "wilaya_name_fr": "Saïda",
  "nid_ar": "386",
  "nid_fr": null,
  "match_m": null,
  "source": "patrimoineculturelalgerien.org",
  "name": "Bibliothèque de lecture publique Moudjahid Hechmaoui Ali",
  "has_virtual_tour": false
 },
 {
  "name_ar": "مكتبة المطالعة العمومية محمد الأخضر السائحي",
  "name_fr": "Bibliothèque de lecture publique Mohamed Lakhdar Essaïhi",
  "layer": "library",
  "lat": 34.85714,
  "lng": 0.15023,
  "wilaya_code": "20",
  "wilaya_name_ar": "سعيدة",
  "wilaya_name_fr": "Saïda",
  "nid_ar": "387",
  "nid_fr": null,
  "match_m": null,
  "source": "patrimoineculturelalgerien.org",
  "name": "Bibliothèque de lecture publique Mohamed Lakhdar Essaïhi",
  "has_virtual_tour": false
 },
 {
  "name_ar": "مكتبة المطالعة العمومية محمد ذيب بلدية المعمورة",
  "name_fr": "Bibliothèque de lecture publique Mohamed Dib – commune d'El Maâmoura",
  "layer": "library",
  "lat": 34.685752,
  "lng": 0.502399,
  "wilaya_code": "20",
  "wilaya_name_ar": "سعيدة",
  "wilaya_name_fr": "Saïda",
  "nid_ar": "389",
  "nid_fr": null,
  "match_m": null,
  "source": "patrimoineculturelalgerien.org",
  "name": "Bibliothèque de lecture publique Mohamed Dib – commune d'El Maâmoura",
  "has_virtual_tour": false
 },
 {
  "name_ar": "مكتبة المطالعة العمومية بلغزالي بن براهيم",
  "name_fr": "Bibliothèque de lecture publique Belghazali Benbrahim",
  "layer": "library",
  "lat": 34.986208,
  "lng": 0.471894,
  "wilaya_code": "20",
  "wilaya_name_ar": "سعيدة",
  "wilaya_name_fr": "Saïda",
  "nid_ar": "392",
  "nid_fr": null,
  "match_m": null,
  "source": "patrimoineculturelalgerien.org",
  "name": "Bibliothèque de lecture publique Belghazali Benbrahim",
  "has_virtual_tour": false
 },
 {
  "name_ar": "مكتبة المطالعة العمومية مصطفاي الطيب",
  "name_fr": "Bibliothèque de lecture publique Mostefaï Tayeb",
  "layer": "library",
  "lat": 35.024849,
  "lng": 0.107415,
  "wilaya_code": "20",
  "wilaya_name_ar": "سعيدة",
  "wilaya_name_fr": "Saïda",
  "nid_ar": "395",
  "nid_fr": null,
  "match_m": null,
  "source": "patrimoineculturelalgerien.org",
  "name": "Bibliothèque de lecture publique Mostefaï Tayeb",
  "has_virtual_tour": false
 },
 {
  "name_ar": "مكتبة المطالعة العمومية عبد الحميد بن هدوقة",
  "name_fr": "Bibliothèque de lecture publique Abdelhamid Benhedouga",
  "layer": "library",
  "lat": 34.902019,
  "lng": 0.557633,
  "wilaya_code": "20",
  "wilaya_name_ar": "سعيدة",
  "wilaya_name_fr": "Saïda",
  "nid_ar": "396",
  "nid_fr": null,
  "match_m": null,
  "source": "patrimoineculturelalgerien.org",
  "name": "Bibliothèque de lecture publique Abdelhamid Benhedouga",
  "has_virtual_tour": false
 },
 {
  "name_ar": "مكتبة المطالعة العمومية عبد الرحمان الجيلالي",
  "name_fr": "Bibliothèque de lecture publique Abderrahmane El Djilali",
  "layer": "library",
  "lat": 34.82317,
  "lng": 0.323475,
  "wilaya_code": "20",
  "wilaya_name_ar": "سعيدة",
  "wilaya_name_fr": "Saïda",
  "nid_ar": "397",
  "nid_fr": null,
  "match_m": null,
  "source": "patrimoineculturelalgerien.org",
  "name": "Bibliothèque de lecture publique Abderrahmane El Djilali",
  "has_virtual_tour": false
 },
 {
  "name_ar": "مكتبة المطالعة العمومية حاجي عيسى",
  "name_fr": "Bibliothèque de lecture publique Hadji Aïssa",
  "layer": "library",
  "lat": 34.647818,
  "lng": 0.013729,
  "wilaya_code": "20",
  "wilaya_name_ar": "سعيدة",
  "wilaya_name_fr": "Saïda",
  "nid_ar": "398",
  "nid_fr": null,
  "match_m": null,
  "source": "patrimoineculturelalgerien.org",
  "name": "Bibliothèque de lecture publique Hadji Aïssa",
  "has_virtual_tour": false
 },
 {
  "name_ar": "مكتبة المطالعة العمومية مصطفى الأشرف",
  "name_fr": "Bibliothèque de lecture publique Mostefa Lacheraf",
  "layer": "library",
  "lat": 34.761861,
  "lng": 0.143687,
  "wilaya_code": "20",
  "wilaya_name_ar": "سعيدة",
  "wilaya_name_fr": "Saïda",
  "nid_ar": "399",
  "nid_fr": null,
  "match_m": null,
  "source": "patrimoineculturelalgerien.org",
  "name": "Bibliothèque de lecture publique Mostefa Lacheraf",
  "has_virtual_tour": false
 },
 {
  "name_ar": "مكتبة المطالعة العمومية كاتب ياسين",
  "name_fr": "Bibliothèque de lecture publique Kateb Yacine",
  "layer": "library",
  "lat": 34.546111,
  "lng": 0.261785,
  "wilaya_code": "20",
  "wilaya_name_ar": "سعيدة",
  "wilaya_name_fr": "Saïda",
  "nid_ar": "400",
  "nid_fr": null,
  "match_m": null,
  "source": "patrimoineculturelalgerien.org",
  "name": "Bibliothèque de lecture publique Kateb Yacine",
  "has_virtual_tour": false
 },
 {
  "name_ar": "المكتبة الرئيسية للمطالعة العمومية \" الدكتور بوبكر بن علي\" لولاية بشار",
  "name_fr": "Bibliothèque principale de lecture publique Docteur Boubekeur Benali – wilaya de Béchar",
  "layer": "library",
  "lat": 31.59272,
  "lng": -2.224475,
  "wilaya_code": "08",
  "wilaya_name_ar": "بشار",
  "wilaya_name_fr": "Bechar",
  "nid_ar": "437",
  "nid_fr": null,
  "match_m": null,
  "source": "patrimoineculturelalgerien.org",
  "name": "Bibliothèque principale de lecture publique Docteur Boubekeur Benali – wilaya de Béchar",
  "has_virtual_tour": false
 },
 {
  "name_ar": "المكتبة الرئيسية للمطالعة العمومية أم البواقي",
  "name_fr": "Bibliothèque principale de lecture publique d'Oum El Bouaghi",
  "layer": "library",
  "lat": 35.869865,
  "lng": 7.108188,
  "wilaya_code": "04",
  "wilaya_name_ar": "أم البواقي",
  "wilaya_name_fr": "Oum El Bouaghi",
  "nid_ar": "445",
  "nid_fr": null,
  "match_m": null,
  "source": "patrimoineculturelalgerien.org",
  "name": "Bibliothèque principale de lecture publique d'Oum El Bouaghi",
  "has_virtual_tour": false
 },
 {
  "name_ar": "المكتبة البلدية بوخليفة السعيد",
  "name_fr": "Bibliothèque communale Boukhlifa Saïd",
  "layer": "library",
  "lat": 36.049077,
  "lng": 4.799361,
  "wilaya_code": "34",
  "wilaya_name_ar": "برج بوعريريج",
  "wilaya_name_fr": "Bordj Bou Arreridj",
  "nid_ar": "446",
  "nid_fr": null,
  "match_m": null,
  "source": "patrimoineculturelalgerien.org",
  "name": "Bibliothèque communale Boukhlifa Saïd",
  "has_virtual_tour": false
 },
 {
  "name_ar": "المكتبة البلدية بن محمد البشير",
  "name_fr": "Bibliothèque communale Ben Mohamed El Bachir",
  "layer": "library",
  "lat": 36.072777,
  "lng": 4.619444,
  "wilaya_code": "34",
  "wilaya_name_ar": "برج بوعريريج",
  "wilaya_name_fr": "Bordj Bou Arreridj",
  "nid_ar": "449",
  "nid_fr": null,
  "match_m": null,
  "source": "patrimoineculturelalgerien.org",
  "name": "Bibliothèque communale Ben Mohamed El Bachir",
  "has_virtual_tour": false
 },
 {
  "name_ar": "مكتبة المطالعة العمومية الشهيد مامنية خليفة بير بوحوش",
  "name_fr": "Bibliothèque de la lecture publique martyr Mamnia Khelifa Bir Bouhouch",
  "layer": "library",
  "lat": 36.009247,
  "lng": 7.426144,
  "wilaya_code": "41",
  "wilaya_name_ar": "سوق أهراس",
  "wilaya_name_fr": "Souk Ahras",
  "nid_ar": "453",
  "nid_fr": "1384",
  "match_m": 0,
  "source": "patrimoineculturelalgerien.org",
  "name": "Bibliothèque de la lecture publique martyr Mamnia Khelifa Bir Bouhouch",
  "has_virtual_tour": false
 },
 {
  "name_ar": "مكتبة المطالعة العمومية الشهيد شنوف عمر سافل الويدان",
  "name_fr": "Bibliothèque de la lecture publique martyr Chenouf Amor Safel Louidene",
  "layer": "library",
  "lat": 35.931207,
  "lng": 7.492119,
  "wilaya_code": "41",
  "wilaya_name_ar": "سوق أهراس",
  "wilaya_name_fr": "Souk Ahras",
  "nid_ar": "455",
  "nid_fr": "1382",
  "match_m": 0,
  "source": "patrimoineculturelalgerien.org",
  "name": "Bibliothèque de la lecture publique martyr Chenouf Amor Safel Louidene",
  "has_virtual_tour": false
 },
 {
  "name_ar": "المكتبة الرئيسية للمطالعة العمومية لولاية البيض",
  "name_fr": "Bibliothèque principale de lecture publique de la wilaya d'El Bayadh",
  "layer": "library",
  "lat": 33.6705,
  "lng": 1.025417,
  "wilaya_code": "32",
  "wilaya_name_ar": "البيض",
  "wilaya_name_fr": "El Bayadh",
  "nid_ar": "459",
  "nid_fr": null,
  "match_m": null,
  "source": "patrimoineculturelalgerien.org",
  "name": "Bibliothèque principale de lecture publique de la wilaya d'El Bayadh",
  "has_virtual_tour": false
 },
 {
  "name_ar": "مكتبة المطالعة العمومية الشهيد مرايحية عثمان ام العظايم",
  "name_fr": "Bibliothèque de la lecture publique martyr Meraihia Otmane Om Ladhaim",
  "layer": "library",
  "lat": 36.026499,
  "lng": 7.606273,
  "wilaya_code": "41",
  "wilaya_name_ar": "سوق أهراس",
  "wilaya_name_fr": "Souk Ahras",
  "nid_ar": "460",
  "nid_fr": "1374",
  "match_m": 0,
  "source": "patrimoineculturelalgerien.org",
  "name": "Bibliothèque de la lecture publique martyr Meraihia Otmane Om Ladhaim",
  "has_virtual_tour": false
 },
 {
  "name_ar": "مكتبة المطالعة العمومية الشهيد بعطوش ليتيم واد كبريت",
  "name_fr": "Bibliothèque de la lecture publique martyr Batouch Litim Oued Kebrit",
  "layer": "library",
  "lat": 35.923373,
  "lng": 7.917689,
  "wilaya_code": "41",
  "wilaya_name_ar": "سوق أهراس",
  "wilaya_name_fr": "Souk Ahras",
  "nid_ar": "461",
  "nid_fr": "1381",
  "match_m": 0,
  "source": "patrimoineculturelalgerien.org",
  "name": "Bibliothèque de la lecture publique martyr Batouch Litim Oued Kebrit",
  "has_virtual_tour": false
 },
 {
  "name_ar": "مكتبة المطالعة العمومية ونزة",
  "name_fr": "Bibliothèque de lecture publique d'El Ouenza",
  "layer": "library",
  "lat": 35.955927,
  "lng": 8.141073,
  "wilaya_code": "12",
  "wilaya_name_ar": "تبسة",
  "wilaya_name_fr": "Tébessa",
  "nid_ar": "464",
  "nid_fr": null,
  "match_m": null,
  "source": "patrimoineculturelalgerien.org",
  "name": "Bibliothèque de lecture publique d'El Ouenza",
  "has_virtual_tour": false
 },
 {
  "name_ar": "مكتبة المطالعة العمومية الشهيد شنايزية عمارة الدريعة",
  "name_fr": "Bibliothèque de la lecture publique martyr Chenairia Amara Draia",
  "layer": "library",
  "lat": 36.118838,
  "lng": 7.879163,
  "wilaya_code": "41",
  "wilaya_name_ar": "سوق أهراس",
  "wilaya_name_fr": "Souk Ahras",
  "nid_ar": "466",
  "nid_fr": "1379",
  "match_m": 0,
  "source": "patrimoineculturelalgerien.org",
  "name": "Bibliothèque de la lecture publique martyr Chenairia Amara Draia",
  "has_virtual_tour": false
 },
 {
  "name_ar": "مكتبة المطالعة العمومية منايلي احمد الصالح تاورة",
  "name_fr": "Bibliothèque de la lecture publique martyr Menaili Ahmed Esaleh Taoura",
  "layer": "library",
  "lat": 36.166187,
  "lng": 8.03266,
  "wilaya_code": "41",
  "wilaya_name_ar": "سوق أهراس",
  "wilaya_name_fr": "Souk Ahras",
  "nid_ar": "467",
  "nid_fr": "1375",
  "match_m": 0,
  "source": "patrimoineculturelalgerien.org",
  "name": "Bibliothèque de la lecture publique martyr Menaili Ahmed Esaleh Taoura",
  "has_virtual_tour": false
 },
 {
  "name_ar": "المكتبة الرئيسية للمطالعة العمومية ملحقة العقلة",
  "name_fr": "Bibliothèque principale de lecture publique – annexe d'El Ogla",
  "layer": "library",
  "lat": 35.187441,
  "lng": 7.473032,
  "wilaya_code": "12",
  "wilaya_name_ar": "تبسة",
  "wilaya_name_fr": "Tébessa",
  "nid_ar": "468",
  "nid_fr": null,
  "match_m": null,
  "source": "patrimoineculturelalgerien.org",
  "name": "Bibliothèque principale de lecture publique – annexe d'El Ogla",
  "has_virtual_tour": false
 },
 {
  "name_ar": "مكتبة المطالعة العمومية الشهيد عثامنية علي سيدي فرج",
  "name_fr": "Bibliothèque de la lecture publique martyr Atamnia Ali Sidi Feradj",
  "layer": "library",
  "lat": 36.152367,
  "lng": 8.198398,
  "wilaya_code": "41",
  "wilaya_name_ar": "سوق أهراس",
  "wilaya_name_fr": "Souk Ahras",
  "nid_ar": "470",
  "nid_fr": "1373",
  "match_m": 0,
  "source": "patrimoineculturelalgerien.org",
  "name": "Bibliothèque de la lecture publique martyr Atamnia Ali Sidi Feradj",
  "has_virtual_tour": false
 },
 {
  "name_ar": "مكتبة المطالعة العمومية الشهيد قماقمة لحبيب مداوروش",
  "name_fr": "Bibliothèque de la lecture publique martyr Guemaguema Lehbib Medaourouch",
  "layer": "library",
  "lat": 36.082195,
  "lng": 7.823241,
  "wilaya_code": "41",
  "wilaya_name_ar": "سوق أهراس",
  "wilaya_name_fr": "Souk Ahras",
  "nid_ar": "473",
  "nid_fr": "1371",
  "match_m": 0,
  "source": "patrimoineculturelalgerien.org",
  "name": "Bibliothèque de la lecture publique martyr Guemaguema Lehbib Medaourouch",
  "has_virtual_tour": false
 },
 {
  "name_ar": "الكلومتر الثالث جيجل",
  "name_fr": "Bibliothèque du 3e Kilomètre – Jijel",
  "layer": "library",
  "lat": 36.802306,
  "lng": 5.790917,
  "wilaya_code": "18",
  "wilaya_name_ar": "جيجل",
  "wilaya_name_fr": "Jijel",
  "nid_ar": "475",
  "nid_fr": null,
  "match_m": null,
  "source": "patrimoineculturelalgerien.org",
  "name": "Bibliothèque du 3e Kilomètre – Jijel",
  "has_virtual_tour": false
 },
 {
  "name_ar": "المكتبة الرئيسية للمطالعة العمومية \"بركات سليمان\" عنابة",
  "name_fr": "Bibliothèque Centrale de Annaba",
  "layer": "library",
  "lat": 36.902692,
  "lng": 7.758492,
  "wilaya_code": "23",
  "wilaya_name_ar": "عنابة",
  "wilaya_name_fr": "Annaba",
  "nid_ar": "476",
  "nid_fr": "91",
  "match_m": 5,
  "source": "patrimoineculturelalgerien.org",
  "name": "Bibliothèque Centrale de Annaba",
  "has_virtual_tour": false
 },
 {
  "name_ar": "المكتبة الرئيسية للمطالعة العمومية \"عبد الحميد بن باديس\"",
  "name_fr": "Bibliothèque principale de lecture publique Abdelhamid Ben Badis",
  "layer": "library",
  "lat": 33.270297,
  "lng": -0.31795,
  "wilaya_code": "45",
  "wilaya_name_ar": "النعامة",
  "wilaya_name_fr": "Naâma",
  "nid_ar": "479",
  "nid_fr": null,
  "match_m": null,
  "source": "patrimoineculturelalgerien.org",
  "name": "Bibliothèque principale de lecture publique Abdelhamid Ben Badis",
  "has_virtual_tour": false
 },
 {
  "name_ar": "مكتبة المطالعة العمومية إدلس",
  "name_fr": "Bibliothèque de lecture publique d'Idlès",
  "layer": "library",
  "lat": 23.816729,
  "lng": 5.933128,
  "wilaya_code": "11",
  "wilaya_name_ar": "تمنراست",
  "wilaya_name_fr": "Tamanrasset",
  "nid_ar": "482",
  "nid_fr": null,
  "match_m": null,
  "source": "patrimoineculturelalgerien.org",
  "name": "Bibliothèque de lecture publique d'Idlès",
  "has_virtual_tour": false
 },
 {
  "name_ar": "مكتبة المطالعة العمومية الجزار",
  "name_fr": "Bibliothèque de lecture publique d'El Djezzar",
  "layer": "library",
  "lat": 35.308722,
  "lng": 5.264849,
  "wilaya_code": "05",
  "wilaya_name_ar": "باتنة",
  "wilaya_name_fr": "Batna",
  "nid_ar": "489",
  "nid_fr": null,
  "match_m": null,
  "source": "patrimoineculturelalgerien.org",
  "name": "Bibliothèque de lecture publique d'El Djezzar",
  "has_virtual_tour": false
 },
 {
  "name_ar": "المكتبة الرئيسية للمطالعة العمومية لولاية تبسة",
  "name_fr": "Bibliothèque principale de lecture publique de la wilaya de Tébessa",
  "layer": "library",
  "lat": 35.424559,
  "lng": 8.060949,
  "wilaya_code": "12",
  "wilaya_name_ar": "تبسة",
  "wilaya_name_fr": "Tébessa",
  "nid_ar": "490",
  "nid_fr": null,
  "match_m": null,
  "source": "patrimoineculturelalgerien.org",
  "name": "Bibliothèque principale de lecture publique de la wilaya de Tébessa",
  "has_virtual_tour": false
 },
 {
  "name_ar": "مكتبة المطالعة العمومية الشمرة",
  "name_fr": "Bibliothèque de lecture publique de Chemora",
  "layer": "library",
  "lat": 35.665471,
  "lng": 6.642762,
  "wilaya_code": "05",
  "wilaya_name_ar": "باتنة",
  "wilaya_name_fr": "Batna",
  "nid_ar": "492",
  "nid_fr": null,
  "match_m": null,
  "source": "patrimoineculturelalgerien.org",
  "name": "Bibliothèque de lecture publique de Chemora",
  "has_virtual_tour": false
 },
 {
  "name_ar": "مكتبة المطالعة العمومية أمدوكال",
  "name_fr": "Bibliothèque de lecture publique d'Amdoukal",
  "layer": "library",
  "lat": 35.120375,
  "lng": 5.177497,
  "wilaya_code": "05",
  "wilaya_name_ar": "باتنة",
  "wilaya_name_fr": "Batna",
  "nid_ar": "494",
  "nid_fr": null,
  "match_m": null,
  "source": "patrimoineculturelalgerien.org",
  "name": "Bibliothèque de lecture publique d'Amdoukal",
  "has_virtual_tour": false
 },
 {
  "name_ar": "المكتبة الرئيسية للمطالعة العمومية قسنطينة",
  "name_fr": "Bibliothèque principale de lecture publique de Constantine",
  "layer": "library",
  "lat": 36.365682,
  "lng": 6.616923,
  "wilaya_code": "25",
  "wilaya_name_ar": "قسنطينة",
  "wilaya_name_fr": "Constantine",
  "nid_ar": "495",
  "nid_fr": null,
  "match_m": null,
  "source": "patrimoineculturelalgerien.org",
  "name": "Bibliothèque principale de lecture publique de Constantine",
  "has_virtual_tour": false
 },
 {
  "name_ar": "مكتبة المطــالعة العموميــة أولاد سـلام",
  "name_fr": "Bibliothèque de lecture publique d'Ouled Sellam",
  "layer": "library",
  "lat": 35.827722,
  "lng": 5.885111,
  "wilaya_code": "05",
  "wilaya_name_ar": "باتنة",
  "wilaya_name_fr": "Batna",
  "nid_ar": "497",
  "nid_fr": null,
  "match_m": null,
  "source": "patrimoineculturelalgerien.org",
  "name": "Bibliothèque de lecture publique d'Ouled Sellam",
  "has_virtual_tour": false
 },
 {
  "name_ar": "مكتبة المطالعة العمومية الإخوة الشهداء أمغشوش بوزينة",
  "name_fr": "Bibliothèque de lecture publique Frères martyrs Amghchouch – Bouzina",
  "layer": "library",
  "lat": 35.265367,
  "lng": 6.09865,
  "wilaya_code": "05",
  "wilaya_name_ar": "باتنة",
  "wilaya_name_fr": "Batna",
  "nid_ar": "500",
  "nid_fr": null,
  "match_m": null,
  "source": "patrimoineculturelalgerien.org",
  "name": "Bibliothèque de lecture publique Frères martyrs Amghchouch – Bouzina",
  "has_virtual_tour": false
 },
 {
  "name_ar": "مكتبة المطالعة العمومية تكوت",
  "name_fr": "Bibliothèque de lecture publique de Tkout",
  "layer": "library",
  "lat": 35.147412,
  "lng": 6.311029,
  "wilaya_code": "05",
  "wilaya_name_ar": "باتنة",
  "wilaya_name_fr": "Batna",
  "nid_ar": "503",
  "nid_fr": null,
  "match_m": null,
  "source": "patrimoineculturelalgerien.org",
  "name": "Bibliothèque de lecture publique de Tkout",
  "has_virtual_tour": false
 },
 {
  "name_ar": "مكتبة المطالعة العمومية المجاهد العلامة ساعد حب الدين",
  "name_fr": "Bibliothèque de lecture publique Moudjahid allama Saâd Hob Eddine",
  "layer": "library",
  "lat": 35.253138,
  "lng": 6.19713,
  "wilaya_code": "05",
  "wilaya_name_ar": "باتنة",
  "wilaya_name_fr": "Batna",
  "nid_ar": "506",
  "nid_fr": null,
  "match_m": null,
  "source": "patrimoineculturelalgerien.org",
  "name": "Bibliothèque de lecture publique Moudjahid allama Saâd Hob Eddine",
  "has_virtual_tour": false
 },
 {
  "name_ar": "مكتبة المطالعة العمومية سريانة",
  "name_fr": "Bibliothèque de lecture publique de Seriana",
  "layer": "library",
  "lat": 35.690912,
  "lng": 6.18754,
  "wilaya_code": "05",
  "wilaya_name_ar": "باتنة",
  "wilaya_name_fr": "Batna",
  "nid_ar": "507",
  "nid_fr": null,
  "match_m": null,
  "source": "patrimoineculturelalgerien.org",
  "name": "Bibliothèque de lecture publique de Seriana",
  "has_virtual_tour": false
 },
 {
  "name_ar": "مكتبة المطالعة العمومية  عين جاسر",
  "name_fr": "Bibliothèque de lecture publique d'Aïn Djasser",
  "layer": "library",
  "lat": 35.860611,
  "lng": 5.997917,
  "wilaya_code": "05",
  "wilaya_name_ar": "باتنة",
  "wilaya_name_fr": "Batna",
  "nid_ar": "509",
  "nid_fr": null,
  "match_m": null,
  "source": "patrimoineculturelalgerien.org",
  "name": "Bibliothèque de lecture publique d'Aïn Djasser",
  "has_virtual_tour": false
 },
 {
  "name_ar": "مكتبة المطالعة العمومية عين ياقوت",
  "name_fr": "Bibliothèque de lecture publique d'Aïn Yagout",
  "layer": "library",
  "lat": 35.77709,
  "lng": 6.418692,
  "wilaya_code": "05",
  "wilaya_name_ar": "باتنة",
  "wilaya_name_fr": "Batna",
  "nid_ar": "510",
  "nid_fr": null,
  "match_m": null,
  "source": "patrimoineculturelalgerien.org",
  "name": "Bibliothèque de lecture publique d'Aïn Yagout",
  "has_virtual_tour": false
 },
 {
  "name_ar": "مكتبة المطالعة العمومية نقاوس",
  "name_fr": "Bibliothèque de lecture publique de N'Gaous",
  "layer": "library",
  "lat": 35.551158,
  "lng": 5.614964,
  "wilaya_code": "05",
  "wilaya_name_ar": "باتنة",
  "wilaya_name_fr": "Batna",
  "nid_ar": "511",
  "nid_fr": null,
  "match_m": null,
  "source": "patrimoineculturelalgerien.org",
  "name": "Bibliothèque de lecture publique de N'Gaous",
  "has_virtual_tour": false
 },
 {
  "name_ar": "المكتبة الرئيسية للمطالعة العمومية تبسة ملحقة الحمامات",
  "name_fr": "Bibliothèque principale de lecture publique de Tébessa – annexe d'El Hammamet",
  "layer": "library",
  "lat": 35.456575,
  "lng": 7.952608,
  "wilaya_code": "12",
  "wilaya_name_ar": "تبسة",
  "wilaya_name_fr": "Tébessa",
  "nid_ar": "512",
  "nid_fr": null,
  "match_m": null,
  "source": "patrimoineculturelalgerien.org",
  "name": "Bibliothèque principale de lecture publique de Tébessa – annexe d'El Hammamet",
  "has_virtual_tour": false
 },
 {
  "name_ar": "المكتبة الرئيسية للمطالعة العمومية تبسة ( ملحقة العوينات)",
  "name_fr": "Bibliothèque principale de lecture publique de Tébessa (annexe d'El Aouinet)",
  "layer": "library",
  "lat": 35.867743,
  "lng": 7.888072,
  "wilaya_code": "12",
  "wilaya_name_ar": "تبسة",
  "wilaya_name_fr": "Tébessa",
  "nid_ar": "513",
  "nid_fr": null,
  "match_m": null,
  "source": "patrimoineculturelalgerien.org",
  "name": "Bibliothèque principale de lecture publique de Tébessa (annexe d'El Aouinet)",
  "has_virtual_tour": false
 },
 {
  "name_ar": "مكتبة المطالعة العمومية وادي الماء.",
  "name_fr": "Bibliothèque de lecture publique d'Oued El Ma",
  "layer": "library",
  "lat": 35.640935,
  "lng": 5.995339,
  "wilaya_code": "05",
  "wilaya_name_ar": "باتنة",
  "wilaya_name_fr": "Batna",
  "nid_ar": "514",
  "nid_fr": null,
  "match_m": null,
  "source": "patrimoineculturelalgerien.org",
  "name": "Bibliothèque de lecture publique d'Oued El Ma",
  "has_virtual_tour": false
 },
 {
  "name_ar": "المكتبة الرئسية للمطالعة العمومية  - ملحقة تبسة -",
  "name_fr": "Bibliothèque principale de lecture publique – annexe de Tébessa",
  "layer": "library",
  "lat": 35.403033,
  "lng": 8.09294,
  "wilaya_code": "12",
  "wilaya_name_ar": "تبسة",
  "wilaya_name_fr": "Tébessa",
  "nid_ar": "519",
  "nid_fr": null,
  "match_m": null,
  "source": "patrimoineculturelalgerien.org",
  "name": "Bibliothèque principale de lecture publique – annexe de Tébessa",
  "has_virtual_tour": false
 },
 {
  "name_ar": "مكتبة المطالعة العمومية منصوري محمد علي - أنكوف",
  "name_fr": "Bibliothèque de lecture publique Mansouri Mohamed Ali – Ankouf",
  "layer": "library",
  "lat": 22.771891,
  "lng": 5.541118,
  "wilaya_code": "11",
  "wilaya_name_ar": "تمنراست",
  "wilaya_name_fr": "Tamanrasset",
  "nid_ar": "552",
  "nid_fr": null,
  "match_m": null,
  "source": "patrimoineculturelalgerien.org",
  "name": "Bibliothèque de lecture publique Mansouri Mohamed Ali – Ankouf",
  "has_virtual_tour": false
 },
 {
  "name_ar": "مكتبة المطالعة العمومية الشهيدة \" فالي خامسة \"",
  "name_fr": "Bibliothèque de lecture publique martyre Fali Khamsa",
  "layer": "library",
  "lat": 32.775066,
  "lng": -0.408643,
  "wilaya_code": "45",
  "wilaya_name_ar": "النعامة",
  "wilaya_name_fr": "Naâma",
  "nid_ar": "554",
  "nid_fr": null,
  "match_m": null,
  "source": "patrimoineculturelalgerien.org",
  "name": "Bibliothèque de lecture publique martyre Fali Khamsa",
  "has_virtual_tour": false
 },
 {
  "name_ar": "مكتبة المطالعة العمومية الشهيد\"بن ساسي أمحمد\"",
  "name_fr": "Bibliothèque de lecture publique martyr Bensassi M'hamed",
  "layer": "library",
  "lat": 33.004066,
  "lng": -0.077499,
  "wilaya_code": "45",
  "wilaya_name_ar": "النعامة",
  "wilaya_name_fr": "Naâma",
  "nid_ar": "558",
  "nid_fr": null,
  "match_m": null,
  "source": "patrimoineculturelalgerien.org",
  "name": "Bibliothèque de lecture publique martyr Bensassi M'hamed",
  "has_virtual_tour": false
 },
 {
  "name_ar": "مكتبة المطالعة العمومية \"مفدي زكريا\"",
  "name_fr": "Bibliothèque de lecture publique Moufdi Zakaria",
  "layer": "library",
  "lat": 33.271128,
  "lng": -0.308588,
  "wilaya_code": "45",
  "wilaya_name_ar": "النعامة",
  "wilaya_name_fr": "Naâma",
  "nid_ar": "569",
  "nid_fr": null,
  "match_m": null,
  "source": "patrimoineculturelalgerien.org",
  "name": "Bibliothèque de lecture publique Moufdi Zakaria",
  "has_virtual_tour": false
 },
 {
  "name_ar": "المكتبة الرئيسية للمطالعة العمومية لأدرار المجاهد المرحوم هاشمي قويدر",
  "name_fr": "Bibliothèque principale de lecture publique d'Adrar – Moudjahid feu Hachemi Gueddour",
  "layer": "library",
  "lat": 27.878204,
  "lng": -0.289199,
  "wilaya_code": "01",
  "wilaya_name_ar": "أدرار",
  "wilaya_name_fr": "Adrar",
  "nid_ar": "583",
  "nid_fr": null,
  "match_m": null,
  "source": "patrimoineculturelalgerien.org",
  "name": "Bibliothèque principale de lecture publique d'Adrar – Moudjahid feu Hachemi Gueddour",
  "has_virtual_tour": false
 },
 {
  "name_ar": "مكتبة المطالعة العمومية بوهراوة عبد الحفيظ",
  "name_fr": "Bibliothèque de lecture publique Bouhraoua Abdelhafid",
  "layer": "library",
  "lat": 35.665833,
  "lng": 7.510833,
  "wilaya_code": "04",
  "wilaya_name_ar": "أم البواقي",
  "wilaya_name_fr": "Oum El Bouaghi",
  "nid_ar": "607",
  "nid_fr": null,
  "match_m": null,
  "source": "patrimoineculturelalgerien.org",
  "name": "Bibliothèque de lecture publique Bouhraoua Abdelhafid",
  "has_virtual_tour": false
 },
 {
  "name_ar": "المكتبة الرئيسية للمطالعة محمد الطاهر العدواني",
  "name_fr": "Bibliothèque principale de lecture publique Mohamed Tahar El Adouani",
  "layer": "library",
  "lat": 33.481225,
  "lng": 6.902787,
  "wilaya_code": "39",
  "wilaya_name_ar": "الوادي",
  "wilaya_name_fr": "El Oued",
  "nid_ar": "611",
  "nid_fr": null,
  "match_m": null,
  "source": "patrimoineculturelalgerien.org",
  "name": "Bibliothèque principale de lecture publique Mohamed Tahar El Adouani",
  "has_virtual_tour": false
 },
 {
  "name_ar": "مكتبة المطالعة القنادسة",
  "name_fr": "Bibliothèque de lecture publique de Kenadsa",
  "layer": "library",
  "lat": 31.55413,
  "lng": -2.416565,
  "wilaya_code": "08",
  "wilaya_name_ar": "بشار",
  "wilaya_name_fr": "Bechar",
  "nid_ar": "613",
  "nid_fr": null,
  "match_m": null,
  "source": "patrimoineculturelalgerien.org",
  "name": "Bibliothèque de lecture publique de Kenadsa",
  "has_virtual_tour": false
 },
 {
  "name_ar": "مكتبة المطالعة تاغيت",
  "name_fr": "Bibliothèque de lecture publique de Taghit",
  "layer": "library",
  "lat": 30.918049,
  "lng": -2.028791,
  "wilaya_code": "08",
  "wilaya_name_ar": "بشار",
  "wilaya_name_fr": "Bechar",
  "nid_ar": "614",
  "nid_fr": null,
  "match_m": null,
  "source": "patrimoineculturelalgerien.org",
  "name": "Bibliothèque de lecture publique de Taghit",
  "has_virtual_tour": false
 },
 {
  "name_ar": "مكتبة المطالعة العبادلة",
  "name_fr": "Bibliothèque de lecture publique d'Abadla",
  "layer": "library",
  "lat": 31.0269,
  "lng": -2.709125,
  "wilaya_code": "08",
  "wilaya_name_ar": "بشار",
  "wilaya_name_fr": "Bechar",
  "nid_ar": "615",
  "nid_fr": null,
  "match_m": null,
  "source": "patrimoineculturelalgerien.org",
  "name": "Bibliothèque de lecture publique d'Abadla",
  "has_virtual_tour": false
 },
 {
  "name_ar": "مكتبة المطالعة تبلبالة",
  "name_fr": "Bibliothèque de lecture publique de Tabelbala",
  "layer": "library",
  "lat": 29.408006,
  "lng": -3.261803,
  "wilaya_code": "08",
  "wilaya_name_ar": "بشار",
  "wilaya_name_fr": "Bechar",
  "nid_ar": "617",
  "nid_fr": null,
  "match_m": null,
  "source": "patrimoineculturelalgerien.org",
  "name": "Bibliothèque de lecture publique de Tabelbala",
  "has_virtual_tour": false
 },
 {
  "name_ar": "مكتبة المطالعة الواتة",
  "name_fr": "Bibliothèque de lecture publique d'El Ouata",
  "layer": "library",
  "lat": 29.857982,
  "lng": -1.854095,
  "wilaya_code": "08",
  "wilaya_name_ar": "بشار",
  "wilaya_name_fr": "Bechar",
  "nid_ar": "619",
  "nid_fr": null,
  "match_m": null,
  "source": "patrimoineculturelalgerien.org",
  "name": "Bibliothèque de lecture publique d'El Ouata",
  "has_virtual_tour": false
 },
 {
  "name_ar": "مكتبة المطالعة إڨلي",
  "name_fr": "Bibliothèque de lecture publique d'Igli",
  "layer": "library",
  "lat": 30.451444,
  "lng": -2.288583,
  "wilaya_code": "08",
  "wilaya_name_ar": "بشار",
  "wilaya_name_fr": "Bechar",
  "nid_ar": "620",
  "nid_fr": null,
  "match_m": null,
  "source": "patrimoineculturelalgerien.org",
  "name": "Bibliothèque de lecture publique d'Igli",
  "has_virtual_tour": false
 },
 {
  "name_ar": "مكتبة المطالعة العمومية الشهيد غوباش عومار بن عثمان تارقالت",
  "name_fr": "Bibliothèque de la lecture publique martyr Goubach Omar Ben Outman Tareguelt",
  "layer": "library",
  "lat": 35.88775,
  "lng": 7.594972,
  "wilaya_code": "41",
  "wilaya_name_ar": "سوق أهراس",
  "wilaya_name_fr": "Souk Ahras",
  "nid_ar": "623",
  "nid_fr": "1366",
  "match_m": 0,
  "source": "patrimoineculturelalgerien.org",
  "name": "Bibliothèque de la lecture publique martyr Goubach Omar Ben Outman Tareguelt",
  "has_virtual_tour": false
 },
 {
  "name_ar": "مكتبة المطالعة العمومية ملحقة تيميمون",
  "name_fr": "Bibliothèque de lecture publique – annexe de Timimoun",
  "layer": "library",
  "lat": 29.254944,
  "lng": 0.226889,
  "wilaya_code": "01",
  "wilaya_name_ar": "أدرار",
  "wilaya_name_fr": "Adrar",
  "nid_ar": "625",
  "nid_fr": null,
  "match_m": null,
  "source": "patrimoineculturelalgerien.org",
  "name": "Bibliothèque de lecture publique – annexe de Timimoun",
  "has_virtual_tour": false
 },
 {
  "name_ar": "المكتبة الرئيسية للمطالعة العمومية لولاية غارداية",
  "name_fr": "Bibliothèque principale de lecture publique de la wilaya de Ghardaïa",
  "layer": "library",
  "lat": 32.262122,
  "lng": 3.619976,
  "wilaya_code": "47",
  "wilaya_name_ar": "غرداية",
  "wilaya_name_fr": "Ghardaïa",
  "nid_ar": "640",
  "nid_fr": null,
  "match_m": null,
  "source": "patrimoineculturelalgerien.org",
  "name": "Bibliothèque principale de lecture publique de la wilaya de Ghardaïa",
  "has_virtual_tour": false
 },
 {
  "name_ar": "المكتبة الرئيسية للمطالعة العمومية تبسة ملحقة رأس العيون",
  "name_fr": "Bibliothèque principale de lecture publique de Tébessa – annexe de Ras El Aïoun",
  "layer": "library",
  "lat": 35.515665,
  "lng": 8.30292,
  "wilaya_code": "12",
  "wilaya_name_ar": "تبسة",
  "wilaya_name_fr": "Tébessa",
  "nid_ar": "648",
  "nid_fr": null,
  "match_m": null,
  "source": "patrimoineculturelalgerien.org",
  "name": "Bibliothèque principale de lecture publique de Tébessa – annexe de Ras El Aïoun",
  "has_virtual_tour": false
 },
 {
  "name_ar": "المكتبة الرئيسية للمطالعة العمومية لولاية ورقلة",
  "name_fr": "Bibliothèque principale de lecture publique de la wilaya de Ouargla",
  "layer": "library",
  "lat": 31.941806,
  "lng": 5.302472,
  "wilaya_code": "30",
  "wilaya_name_ar": "ورقلة",
  "wilaya_name_fr": "Ouargla",
  "nid_ar": "666",
  "nid_fr": null,
  "match_m": null,
  "source": "patrimoineculturelalgerien.org",
  "name": "Bibliothèque principale de lecture publique de la wilaya de Ouargla",
  "has_virtual_tour": false
 },
 {
  "name_ar": "المكتبة الرئيسية للمطالعة العمومية المجاهد محمد عصامي",
  "name_fr": "Bibliothèque principale de lecture publique Moudjahid Mohamed Issami",
  "layer": "library",
  "lat": 34.859038,
  "lng": 5.710413,
  "wilaya_code": "07",
  "wilaya_name_ar": "بسكرة",
  "wilaya_name_fr": "Biskra",
  "nid_ar": "674",
  "nid_fr": null,
  "match_m": null,
  "source": "patrimoineculturelalgerien.org",
  "name": "Bibliothèque principale de lecture publique Moudjahid Mohamed Issami",
  "has_virtual_tour": false
 },
 {
  "name_ar": "مكتبة المطالعة العمومية الشهيد عاشور عبد الرحمان لبلدية الحاجب",
  "name_fr": "Bibliothèque de lecture publique martyr Achour Abderrahmane – commune d'El Hadjeb",
  "layer": "library",
  "lat": 34.789846,
  "lng": 5.593046,
  "wilaya_code": "07",
  "wilaya_name_ar": "بسكرة",
  "wilaya_name_fr": "Biskra",
  "nid_ar": "675",
  "nid_fr": null,
  "match_m": null,
  "source": "patrimoineculturelalgerien.org",
  "name": "Bibliothèque de lecture publique martyr Achour Abderrahmane – commune d'El Hadjeb",
  "has_virtual_tour": false
 },
 {
  "name_ar": "مكتبة المطالعة العمومية برقان",
  "name_fr": "Bibliothèque de lecture publique de Reggane",
  "layer": "library",
  "lat": 26.730194,
  "lng": 0.163806,
  "wilaya_code": "01",
  "wilaya_name_ar": "أدرار",
  "wilaya_name_fr": "Adrar",
  "nid_ar": "680",
  "nid_fr": null,
  "match_m": null,
  "source": "patrimoineculturelalgerien.org",
  "name": "Bibliothèque de lecture publique de Reggane",
  "has_virtual_tour": false
 },
 {
  "name_ar": "مكتبة المطالعة العمومية بأولف",
  "name_fr": "Bibliothèque de lecture publique d'Aoulef",
  "layer": "library",
  "lat": 26.974444,
  "lng": 1.086833,
  "wilaya_code": "01",
  "wilaya_name_ar": "أدرار",
  "wilaya_name_fr": "Adrar",
  "nid_ar": "682",
  "nid_fr": null,
  "match_m": null,
  "source": "patrimoineculturelalgerien.org",
  "name": "Bibliothèque de lecture publique d'Aoulef",
  "has_virtual_tour": false
 },
 {
  "name_ar": "مكتبة المطالعة العمومية بتسابيت",
  "name_fr": "Bibliothèque de lecture publique de Tsabit",
  "layer": "library",
  "lat": 28.395778,
  "lng": -0.232028,
  "wilaya_code": "01",
  "wilaya_name_ar": "أدرار",
  "wilaya_name_fr": "Adrar",
  "nid_ar": "683",
  "nid_fr": null,
  "match_m": null,
  "source": "patrimoineculturelalgerien.org",
  "name": "Bibliothèque de lecture publique de Tsabit",
  "has_virtual_tour": false
 },
 {
  "name_ar": "مكتبة المطالعة العمومية ملحقة شروين",
  "name_fr": "Bibliothèque de lecture publique – annexe de Charouine",
  "layer": "library",
  "lat": 29.021528,
  "lng": -0.253361,
  "wilaya_code": "01",
  "wilaya_name_ar": "أدرار",
  "wilaya_name_fr": "Adrar",
  "nid_ar": "684",
  "nid_fr": null,
  "match_m": null,
  "source": "patrimoineculturelalgerien.org",
  "name": "Bibliothèque de lecture publique – annexe de Charouine",
  "has_virtual_tour": false
 },
 {
  "name_ar": "مكتبة المطالعة العمومية  ملحقة أولاد سعيد",
  "name_fr": "Bibliothèque de lecture publique – annexe d'Ouled Saïd",
  "layer": "library",
  "lat": 29.411167,
  "lng": 0.243861,
  "wilaya_code": "01",
  "wilaya_name_ar": "أدرار",
  "wilaya_name_fr": "Adrar",
  "nid_ar": "685",
  "nid_fr": null,
  "match_m": null,
  "source": "patrimoineculturelalgerien.org",
  "name": "Bibliothèque de lecture publique – annexe d'Ouled Saïd",
  "has_virtual_tour": false
 },
 {
  "name_ar": "المكتبة الرئيسية للمطالعة العمومية القباطي محمد",
  "name_fr": "Bibliothèque principale de lecture publique El Guebbati Mohamed",
  "layer": "library",
  "lat": 35.198447,
  "lng": -0.635413,
  "wilaya_code": "22",
  "wilaya_name_ar": "سيدي بلعباس",
  "wilaya_name_fr": "Sidi Bel Abbès",
  "nid_ar": "687",
  "nid_fr": null,
  "match_m": null,
  "source": "patrimoineculturelalgerien.org",
  "name": "Bibliothèque principale de lecture publique El Guebbati Mohamed",
  "has_virtual_tour": false
 },
 {
  "name_ar": "المكتبة الرئيسية للمطالعة العمومية سكيكدة",
  "name_fr": "Bibliothèque principale de lecture publique de Skikda",
  "layer": "library",
  "lat": 36.874039,
  "lng": 6.91058,
  "wilaya_code": "21",
  "wilaya_name_ar": "سكيكدة",
  "wilaya_name_fr": "Skikda",
  "nid_ar": "692",
  "nid_fr": null,
  "match_m": null,
  "source": "patrimoineculturelalgerien.org",
  "name": "Bibliothèque principale de lecture publique de Skikda",
  "has_virtual_tour": false
 },
 {
  "name_ar": "مكتبة المطالعة العمومية الشهيد ابراهيم العيدي",
  "name_fr": "Bibliothèque de lecture publique martyr Brahim El Aïdi",
  "layer": "library",
  "lat": 34.740855,
  "lng": 5.485678,
  "wilaya_code": "07",
  "wilaya_name_ar": "بسكرة",
  "wilaya_name_fr": "Biskra",
  "nid_ar": "711",
  "nid_fr": null,
  "match_m": null,
  "source": "patrimoineculturelalgerien.org",
  "name": "Bibliothèque de lecture publique martyr Brahim El Aïdi",
  "has_virtual_tour": false
 },
 {
  "name_ar": "المكتبة الرئيسية للمطالعة العمومية حمدان حجاجي",
  "name_fr": "Bibliothèque principale de lecture publique Hamdane Hadjadji",
  "layer": "library",
  "lat": 36.261447,
  "lng": 1.957331,
  "wilaya_code": "44",
  "wilaya_name_ar": "عين الدفلى",
  "wilaya_name_fr": "Aïn Defla",
  "nid_ar": "726",
  "nid_fr": null,
  "match_m": null,
  "source": "patrimoineculturelalgerien.org",
  "name": "Bibliothèque principale de lecture publique Hamdane Hadjadji",
  "has_virtual_tour": false
 },
 {
  "name_ar": "مكتبة المطالعة العمومية  الشهيد أحمد بلوس",
  "name_fr": "Bibliothèque de lecture publique martyr Ahmed Belous",
  "layer": "library",
  "lat": 35.14406,
  "lng": 5.835813,
  "wilaya_code": "07",
  "wilaya_name_ar": "بسكرة",
  "wilaya_name_fr": "Biskra",
  "nid_ar": "732",
  "nid_fr": null,
  "match_m": null,
  "source": "patrimoineculturelalgerien.org",
  "name": "Bibliothèque de lecture publique martyr Ahmed Belous",
  "has_virtual_tour": false
 },
 {
  "name_ar": "مكتبة المطالعة العمومية محبوب بوزيدي",
  "name_fr": "Bibliothèque de lecture publique Mahboub Bouzidi",
  "layer": "library",
  "lat": 34.184268,
  "lng": 4.45405,
  "wilaya_code": "07",
  "wilaya_name_ar": "بسكرة",
  "wilaya_name_fr": "Biskra",
  "nid_ar": "734",
  "nid_fr": null,
  "match_m": null,
  "source": "patrimoineculturelalgerien.org",
  "name": "Bibliothèque de lecture publique Mahboub Bouzidi",
  "has_virtual_tour": false
 },
 {
  "name_ar": "مكتبة المطالعة العمومية - بلدية الدوسن",
  "name_fr": "Bibliothèque de lecture publique – commune de Doucen",
  "layer": "library",
  "lat": 34.592528,
  "lng": 5.099907,
  "wilaya_code": "07",
  "wilaya_name_ar": "بسكرة",
  "wilaya_name_fr": "Biskra",
  "nid_ar": "735",
  "nid_fr": null,
  "match_m": null,
  "source": "patrimoineculturelalgerien.org",
  "name": "Bibliothèque de lecture publique – commune de Doucen",
  "has_virtual_tour": false
 },
 {
  "name_ar": "مكتبة المطالعة العمومية - بلدية امخادمة",
  "name_fr": "Bibliothèque de lecture publique – commune de M'Khadma",
  "layer": "library",
  "lat": 34.653012,
  "lng": 5.474884,
  "wilaya_code": "07",
  "wilaya_name_ar": "بسكرة",
  "wilaya_name_fr": "Biskra",
  "nid_ar": "743",
  "nid_fr": null,
  "match_m": null,
  "source": "patrimoineculturelalgerien.org",
  "name": "Bibliothèque de lecture publique – commune de M'Khadma",
  "has_virtual_tour": false
 },
 {
  "name_ar": "مكتبة المطالعة العمومية الشهيد فرج الله خرخاش مسعود - بلدية ليوة",
  "name_fr": "Bibliothèque de lecture publique martyr Faradjallah Kherkhache Messaoud – commune de Lioua",
  "layer": "library",
  "lat": 34.633046,
  "lng": 5.401823,
  "wilaya_code": "07",
  "wilaya_name_ar": "بسكرة",
  "wilaya_name_fr": "Biskra",
  "nid_ar": "744",
  "nid_fr": null,
  "match_m": null,
  "source": "patrimoineculturelalgerien.org",
  "name": "Bibliothèque de lecture publique martyr Faradjallah Kherkhache Messaoud – commune de Lioua",
  "has_virtual_tour": false
 },
 {
  "name_ar": "المكتبة الرئيسية للمطالعة العمومية إيليزي",
  "name_fr": "Bibliothèque principale de lecture publique d'Illizi",
  "layer": "library",
  "lat": 26.517045,
  "lng": 8.479571,
  "wilaya_code": "33",
  "wilaya_name_ar": "إليزي",
  "wilaya_name_fr": "Illizi",
  "nid_ar": "746",
  "nid_fr": null,
  "match_m": null,
  "source": "patrimoineculturelalgerien.org",
  "name": "Bibliothèque principale de lecture publique d'Illizi",
  "has_virtual_tour": false
 },
 {
  "name_ar": "المكتبة الرئيسية للمطالعة العمومية ' امبارك بن صالح '",
  "name_fr": "Bibliothèque principale de lecture publique Mbarek Ben Salah",
  "layer": "library",
  "lat": 36.449875,
  "lng": 6.267147,
  "wilaya_code": "43",
  "wilaya_name_ar": "ميلة",
  "wilaya_name_fr": "Mila",
  "nid_ar": "748",
  "nid_fr": null,
  "match_m": null,
  "source": "patrimoineculturelalgerien.org",
  "name": "Bibliothèque principale de lecture publique Mbarek Ben Salah",
  "has_virtual_tour": false
 },
 {
  "name_ar": "مكتبة المطالعة العمومية بلدية الشلال",
  "name_fr": "Bibliothèque de lecture publique – commune de Chellal",
  "layer": "library",
  "lat": 35.516406,
  "lng": 4.38568,
  "wilaya_code": "28",
  "wilaya_name_ar": "المسيلة",
  "wilaya_name_fr": "M'Sila",
  "nid_ar": "824",
  "nid_fr": null,
  "match_m": null,
  "source": "patrimoineculturelalgerien.org",
  "name": "Bibliothèque de lecture publique – commune de Chellal",
  "has_virtual_tour": false
 },
 {
  "name_ar": "مكتبة المطالعة العمومية ببلدية عين الحجل",
  "name_fr": "Bibliothèque de lecture publique – commune d'Aïn El Hadjel",
  "layer": "library",
  "lat": 35.676105,
  "lng": 3.885922,
  "wilaya_code": "28",
  "wilaya_name_ar": "المسيلة",
  "wilaya_name_fr": "M'Sila",
  "nid_ar": "826",
  "nid_fr": null,
  "match_m": null,
  "source": "patrimoineculturelalgerien.org",
  "name": "Bibliothèque de lecture publique – commune d'Aïn El Hadjel",
  "has_virtual_tour": false
 },
 {
  "name_ar": "المكتبة المطالعة العمومية - قايس -",
  "name_fr": "Bibliothèque de lecture publique – Kaïs",
  "layer": "library",
  "lat": 35.49006,
  "lng": 6.92743,
  "wilaya_code": "40",
  "wilaya_name_ar": "خنشلة",
  "wilaya_name_fr": "Khenchela",
  "nid_ar": "852",
  "nid_fr": null,
  "match_m": null,
  "source": "patrimoineculturelalgerien.org",
  "name": "Bibliothèque de lecture publique – Kaïs",
  "has_virtual_tour": false
 },
 {
  "name_ar": "مكتبة المطالعة العموميـة\" المجاهد لكبير التونسي\" بلدية سوق النعمان",
  "name_fr": "Bibliothèque de lecture publique Moudjahid Lakbir Ettounsi – commune de Souk Naâmane",
  "layer": "library",
  "lat": 35.894804,
  "lng": 6.389497,
  "wilaya_code": "04",
  "wilaya_name_ar": "أم البواقي",
  "wilaya_name_fr": "Oum El Bouaghi",
  "nid_ar": "854",
  "nid_fr": null,
  "match_m": null,
  "source": "patrimoineculturelalgerien.org",
  "name": "Bibliothèque de lecture publique Moudjahid Lakbir Ettounsi – commune de Souk Naâmane",
  "has_virtual_tour": false
 },
 {
  "name_ar": "مكتبة المطالعة العموميـــة\" الشهيد العايب علاوة\" ببلدية بحير الشرقي",
  "name_fr": "Bibliothèque de lecture publique martyr El Aïb Allaoua – commune de Behir Chergui",
  "layer": "library",
  "lat": 35.795008,
  "lng": 7.717631,
  "wilaya_code": "04",
  "wilaya_name_ar": "أم البواقي",
  "wilaya_name_fr": "Oum El Bouaghi",
  "nid_ar": "856",
  "nid_fr": null,
  "match_m": null,
  "source": "patrimoineculturelalgerien.org",
  "name": "Bibliothèque de lecture publique martyr El Aïb Allaoua – commune de Behir Chergui",
  "has_virtual_tour": false
 },
 {
  "name_ar": "مكتبة المطالعة العموميـة\" حمة بوجمعة\" ببلدية مسكيانة",
  "name_fr": "Bibliothèque de lecture publique Hama Boudjemaa – commune de Meskiana",
  "layer": "library",
  "lat": 35.638818,
  "lng": 7.667199,
  "wilaya_code": "04",
  "wilaya_name_ar": "أم البواقي",
  "wilaya_name_fr": "Oum El Bouaghi",
  "nid_ar": "859",
  "nid_fr": null,
  "match_m": null,
  "source": "patrimoineculturelalgerien.org",
  "name": "Bibliothèque de lecture publique Hama Boudjemaa – commune de Meskiana",
  "has_virtual_tour": false
 },
 {
  "name_ar": "مكتبة المطالعة العمومية\" ربيعي العمراوي\" ببلدية بريش",
  "name_fr": "Bibliothèque de lecture publique Rabii El Amraoui – commune de Berriche",
  "layer": "library",
  "lat": 35.913998,
  "lng": 7.373493,
  "wilaya_code": "04",
  "wilaya_name_ar": "أم البواقي",
  "wilaya_name_fr": "Oum El Bouaghi",
  "nid_ar": "861",
  "nid_fr": null,
  "match_m": null,
  "source": "patrimoineculturelalgerien.org",
  "name": "Bibliothèque de lecture publique Rabii El Amraoui – commune de Berriche",
  "has_virtual_tour": false
 },
 {
  "name_ar": "مكتبة المطالعة العمومية\" سعودي الحامدي\" ببلدية عين فكرون",
  "name_fr": "Bibliothèque de lecture publique Saoudi El Hamdi – commune d'Aïn Fakroun",
  "layer": "library",
  "lat": 35.972426,
  "lng": 6.862229,
  "wilaya_code": "04",
  "wilaya_name_ar": "أم البواقي",
  "wilaya_name_fr": "Oum El Bouaghi",
  "nid_ar": "865",
  "nid_fr": null,
  "match_m": null,
  "source": "patrimoineculturelalgerien.org",
  "name": "Bibliothèque de lecture publique Saoudi El Hamdi – commune d'Aïn Fakroun",
  "has_virtual_tour": false
 },
 {
  "name_ar": "مكتبة المطالعة العمومية \" الشهيد بوقداح بن عزوز\" ببلدية البلالة",
  "name_fr": "Bibliothèque de lecture publique martyr Bouguedah Benazzouz – commune d'El Belala",
  "layer": "library",
  "lat": 35.663646,
  "lng": 7.788683,
  "wilaya_code": "04",
  "wilaya_name_ar": "أم البواقي",
  "wilaya_name_fr": "Oum El Bouaghi",
  "nid_ar": "866",
  "nid_fr": null,
  "match_m": null,
  "source": "patrimoineculturelalgerien.org",
  "name": "Bibliothèque de lecture publique martyr Bouguedah Benazzouz – commune d'El Belala",
  "has_virtual_tour": false
 },
 {
  "name_ar": "المكتبة البلدية علي مراكشي بالحمادية",
  "name_fr": "Bibliothèque communale Ali Marrakchi – El Hammadia",
  "layer": "library",
  "lat": 35.978486,
  "lng": 4.745973,
  "wilaya_code": "34",
  "wilaya_name_ar": "برج بوعريريج",
  "wilaya_name_fr": "Bordj Bou Arreridj",
  "nid_ar": "894",
  "nid_fr": null,
  "match_m": null,
  "source": "patrimoineculturelalgerien.org",
  "name": "Bibliothèque communale Ali Marrakchi – El Hammadia",
  "has_virtual_tour": false
 },
 {
  "name_ar": "المكتبة الرئيسىية للمطالعة العموموية بوسام محمد لولاية برج بوعريريج",
  "name_fr": "Bibliothèque principale de lecture publique Boussam Mohamed – wilaya de Bordj Bou Arreridj",
  "layer": "library",
  "lat": 36.061186,
  "lng": 4.783938,
  "wilaya_code": "34",
  "wilaya_name_ar": "برج بوعريريج",
  "wilaya_name_fr": "Bordj Bou Arreridj",
  "nid_ar": "898",
  "nid_fr": null,
  "match_m": null,
  "source": "patrimoineculturelalgerien.org",
  "name": "Bibliothèque principale de lecture publique Boussam Mohamed – wilaya de Bordj Bou Arreridj",
  "has_virtual_tour": false
 },
 {
  "name_ar": "مكتبة المطالعة العمومية\" نوري صالح \" ببلدية الرحية",
  "name_fr": "Bibliothèque de lecture publique Nouri Salah – commune d'Errahia",
  "layer": "library",
  "lat": 35.762126,
  "lng": 7.645405,
  "wilaya_code": "04",
  "wilaya_name_ar": "أم البواقي",
  "wilaya_name_fr": "Oum El Bouaghi",
  "nid_ar": "900",
  "nid_fr": null,
  "match_m": null,
  "source": "patrimoineculturelalgerien.org",
  "name": "Bibliothèque de lecture publique Nouri Salah – commune d'Errahia",
  "has_virtual_tour": false
 },
 {
  "name_ar": "مكتبة المطالعة العمومية\" نوري صالح \" ببلدية الرحية",
  "name_fr": "Bibliothèque de lecture publique Nouri Salah – commune d'Errahia",
  "layer": "library",
  "lat": 35.762126,
  "lng": 7.645405,
  "wilaya_code": "04",
  "wilaya_name_ar": "أم البواقي",
  "wilaya_name_fr": "Oum El Bouaghi",
  "nid_ar": "901",
  "nid_fr": null,
  "match_m": null,
  "source": "patrimoineculturelalgerien.org",
  "name": "Bibliothèque de lecture publique Nouri Salah – commune d'Errahia",
  "has_virtual_tour": false
 },
 {
  "name_ar": "مكتبة المطالعة العمومية بلدية مرسط",
  "name_fr": "Bibliothèque de lecture publique – commune de Morsott",
  "layer": "library",
  "lat": 35.659659,
  "lng": 8.017333,
  "wilaya_code": "12",
  "wilaya_name_ar": "تبسة",
  "wilaya_name_fr": "Tébessa",
  "nid_ar": "906",
  "nid_fr": null,
  "match_m": null,
  "source": "patrimoineculturelalgerien.org",
  "name": "Bibliothèque de lecture publique – commune de Morsott",
  "has_virtual_tour": false
 },
 {
  "name_ar": "المكتبة الحضرية بواد الزناتي (مشروع مجمد)",
  "name_fr": "Bibliothèque urbaine d'Oued Zenati (projet gelé)",
  "layer": "library",
  "lat": 36.320614,
  "lng": 7.162843,
  "wilaya_code": "24",
  "wilaya_name_ar": "قالمة",
  "wilaya_name_fr": "Guelma",
  "nid_ar": "977",
  "nid_fr": null,
  "match_m": null,
  "source": "patrimoineculturelalgerien.org",
  "name": "Bibliothèque urbaine d'Oued Zenati (projet gelé)",
  "has_virtual_tour": false
 },
 {
  "name_ar": "المكتبة الرئيسية",
  "name_fr": "Bibliothèque principale",
  "layer": "library",
  "lat": 36.473277,
  "lng": 7.433612,
  "wilaya_code": "24",
  "wilaya_name_ar": "قالمة",
  "wilaya_name_fr": "Guelma",
  "nid_ar": "979",
  "nid_fr": null,
  "match_m": null,
  "source": "patrimoineculturelalgerien.org",
  "name": "Bibliothèque principale",
  "has_virtual_tour": false
 },
 {
  "name_ar": "المكتبة الحضرية بقالمة",
  "name_fr": "Bibliothèque urbaine de Guelma",
  "layer": "library",
  "lat": 36.460306,
  "lng": 7.424,
  "wilaya_code": "24",
  "wilaya_name_ar": "قالمة",
  "wilaya_name_fr": "Guelma",
  "nid_ar": "980",
  "nid_fr": null,
  "match_m": null,
  "source": "patrimoineculturelalgerien.org",
  "name": "Bibliothèque urbaine de Guelma",
  "has_virtual_tour": false
 },
 {
  "name_ar": "المكتبة الرئيسية للمطالعة العمومية –محمد مهدي",
  "name_fr": "Bibliothèque Principale de Lecture Publique - Chlef",
  "layer": "library",
  "lat": 36.162529,
  "lng": 1.327682,
  "wilaya_code": "02",
  "wilaya_name_ar": "الشلف",
  "wilaya_name_fr": "Chlef",
  "nid_ar": "992",
  "nid_fr": "84",
  "match_m": 12,
  "source": "patrimoineculturelalgerien.org",
  "name": "Bibliothèque Principale de Lecture Publique - Chlef",
  "has_virtual_tour": false
 },
 {
  "name_ar": "ملحقة  مكتبة المطالعة العمومية بالشرفة الشلف– الشهيد حبيبي عابد",
  "name_fr": "Annexe de la bibliothèque de lecture publique de Chorfa, Chlef – martyr Habibi Abed",
  "layer": "library",
  "lat": 36.14912,
  "lng": 1.305361,
  "wilaya_code": "02",
  "wilaya_name_ar": "الشلف",
  "wilaya_name_fr": "Chlef",
  "nid_ar": "993",
  "nid_fr": null,
  "match_m": null,
  "source": "patrimoineculturelalgerien.org",
  "name": "Annexe de la bibliothèque de lecture publique de Chorfa, Chlef – martyr Habibi Abed",
  "has_virtual_tour": false
 },
 {
  "name_ar": "المكتبة الرئيسية للمطالعة العمومية \" آسيا جبار\" تيبازة",
  "name_fr": "Bibliothèque Principal de lecture Publique \"Assia Djebar\"de la Wilaya de Tipasa",
  "layer": "library",
  "lat": 36.590678,
  "lng": 2.457362,
  "wilaya_code": "42",
  "wilaya_name_ar": "تيبازة",
  "wilaya_name_fr": "Tipaza",
  "nid_ar": "1005",
  "nid_fr": "1006",
  "match_m": 4,
  "source": "patrimoineculturelalgerien.org",
  "name": "Bibliothèque Principal de lecture Publique \"Assia Djebar\"de la Wilaya de Tipasa",
  "has_virtual_tour": false
 },
 {
  "name_ar": "ملحقة مكتبة المطالعة العمومية بالشطية  – الشهيد العربي عيسى جلول",
  "name_fr": "Annexe de la bibliothèque de lecture publique de Chettia – martyr El Arbi Aïssa Djeloul",
  "layer": "library",
  "lat": 36.207436,
  "lng": 1.246206,
  "wilaya_code": "02",
  "wilaya_name_ar": "الشلف",
  "wilaya_name_fr": "Chlef",
  "nid_ar": "1025",
  "nid_fr": null,
  "match_m": null,
  "source": "patrimoineculturelalgerien.org",
  "name": "Annexe de la bibliothèque de lecture publique de Chettia – martyr El Arbi Aïssa Djeloul",
  "has_virtual_tour": false
 },
 {
  "name_ar": "مكتبة ريفية سي الوليد- الشهيد بوبكر عبد القادر",
  "name_fr": "Bibliothèque rurale de Si El Oulid – martyr Boubekeur Abdelkader",
  "layer": "library",
  "lat": 36.420891,
  "lng": 1.240608,
  "wilaya_code": "02",
  "wilaya_name_ar": "الشلف",
  "wilaya_name_fr": "Chlef",
  "nid_ar": "1026",
  "nid_fr": null,
  "match_m": null,
  "source": "patrimoineculturelalgerien.org",
  "name": "Bibliothèque rurale de Si El Oulid – martyr Boubekeur Abdelkader",
  "has_virtual_tour": false
 },
 {
  "name_ar": "مكتبة ريفية سيدي زيان  -تاجنة - الشهيد فوقة صديق",
  "name_fr": "Bibliothèque rurale de Sidi Ziane – Tadjena – martyr Fouka Seddik",
  "layer": "library",
  "lat": 36.317399,
  "lng": 1.146427,
  "wilaya_code": "02",
  "wilaya_name_ar": "الشلف",
  "wilaya_name_fr": "Chlef",
  "nid_ar": "1027",
  "nid_fr": null,
  "match_m": null,
  "source": "patrimoineculturelalgerien.org",
  "name": "Bibliothèque rurale de Sidi Ziane – Tadjena – martyr Fouka Seddik",
  "has_virtual_tour": false
 },
 {
  "name_ar": "المكتبة النصف حضرية الكريمية  - الشهيد بلبولة هني",
  "name_fr": "Bibliothèque semi-urbaine d'El Karimia – martyr Belboula Henni",
  "layer": "library",
  "lat": 36.112631,
  "lng": 1.551076,
  "wilaya_code": "02",
  "wilaya_name_ar": "الشلف",
  "wilaya_name_fr": "Chlef",
  "nid_ar": "1028",
  "nid_fr": null,
  "match_m": null,
  "source": "patrimoineculturelalgerien.org",
  "name": "Bibliothèque semi-urbaine d'El Karimia – martyr Belboula Henni",
  "has_virtual_tour": false
 },
 {
  "name_ar": "المكتبة الرئيسية للمطالعة العمومية عبد الرحمان بن حميدة",
  "name_fr": "Bibliothèque principale de lecture publique Abderrahmane Benhamida",
  "layer": "library",
  "lat": 36.758015,
  "lng": 3.475974,
  "wilaya_code": "35",
  "wilaya_name_ar": "بومرداس",
  "wilaya_name_fr": "Boumerdès",
  "nid_ar": "1037",
  "nid_fr": null,
  "match_m": null,
  "source": "patrimoineculturelalgerien.org",
  "name": "Bibliothèque principale de lecture publique Abderrahmane Benhamida",
  "has_virtual_tour": false
 },
 {
  "name_ar": "المكتبة النصف حضرية  ملود قاسم نايت بلقاسم لقورصو",
  "name_fr": "Bibliothèque semi-urbaine Mouloud Kacem Naït Belkacem – Corso",
  "layer": "library",
  "lat": 36.750694,
  "lng": 3.441657,
  "wilaya_code": "35",
  "wilaya_name_ar": "بومرداس",
  "wilaya_name_fr": "Boumerdès",
  "nid_ar": "1047",
  "nid_fr": null,
  "match_m": null,
  "source": "patrimoineculturelalgerien.org",
  "name": "Bibliothèque semi-urbaine Mouloud Kacem Naït Belkacem – Corso",
  "has_virtual_tour": false
 },
 {
  "name_ar": "المكتبة الريفية للمطالعة العمومية المجاهد  ڤويڤح مصطفي  بن مرزوقة  بودواو",
  "name_fr": "Bibliothèque rurale de lecture publique Moudjahid Gouigah Mostefa – Ben Merzouga, Boudouaou",
  "layer": "library",
  "lat": 36.714346,
  "lng": 3.419234,
  "wilaya_code": "35",
  "wilaya_name_ar": "بومرداس",
  "wilaya_name_fr": "Boumerdès",
  "nid_ar": "1048",
  "nid_fr": null,
  "match_m": null,
  "source": "patrimoineculturelalgerien.org",
  "name": "Bibliothèque rurale de lecture publique Moudjahid Gouigah Mostefa – Ben Merzouga, Boudouaou",
  "has_virtual_tour": false
 },
 {
  "name_ar": "المكتبة الرئيسية للمطالعة العمومية لولاية معسكر \"الدكتور يحي بوعزيز\"",
  "name_fr": "Bibliothèque Principale de Mascara",
  "layer": "library",
  "lat": 35.397071,
  "lng": 0.139857,
  "wilaya_code": "29",
  "wilaya_name_ar": "معسكر",
  "wilaya_name_fr": "Mascara",
  "nid_ar": "1050",
  "nid_fr": "87",
  "match_m": 21,
  "source": "patrimoineculturelalgerien.org",
  "name": "Bibliothèque Principale de Mascara",
  "has_virtual_tour": false
 },
 {
  "name_ar": "المكتبة الريفية كدية العرائس لقاطة  المجاهد أحمد خير الدين",
  "name_fr": "Bibliothèque rurale de Kedet El Araïs – Legata – Moudjahid Ahmed Kheïreddine",
  "layer": "library",
  "lat": 36.803399,
  "lng": 3.666434,
  "wilaya_code": "35",
  "wilaya_name_ar": "بومرداس",
  "wilaya_name_fr": "Boumerdès",
  "nid_ar": "1051",
  "nid_fr": null,
  "match_m": null,
  "source": "patrimoineculturelalgerien.org",
  "name": "Bibliothèque rurale de Kedet El Araïs – Legata – Moudjahid Ahmed Kheïreddine",
  "has_virtual_tour": false
 },
 {
  "name_ar": "مكتبة المطالعة العمومية\" المجاهد المتوفي بن فطة أحمد\"",
  "name_fr": "Bibliothèque de lecture publique Moudjahid feu Benfatta Ahmed",
  "layer": "library",
  "lat": 35.403104,
  "lng": 0.153489,
  "wilaya_code": "29",
  "wilaya_name_ar": "معسكر",
  "wilaya_name_fr": "Mascara",
  "nid_ar": "1052",
  "nid_fr": null,
  "match_m": null,
  "source": "patrimoineculturelalgerien.org",
  "name": "Bibliothèque de lecture publique Moudjahid feu Benfatta Ahmed",
  "has_virtual_tour": false
 },
 {
  "name_ar": "مكتبة المطالعة العمومية \" الشهيد ابراهيم عبد القادر \"",
  "name_fr": "Bibliothèque de lecture publique martyr Brahim Abdelkader",
  "layer": "library",
  "lat": 35.59274,
  "lng": 0.07408,
  "wilaya_code": "29",
  "wilaya_name_ar": "معسكر",
  "wilaya_name_fr": "Mascara",
  "nid_ar": "1053",
  "nid_fr": null,
  "match_m": null,
  "source": "patrimoineculturelalgerien.org",
  "name": "Bibliothèque de lecture publique martyr Brahim Abdelkader",
  "has_virtual_tour": false
 },
 {
  "name_ar": "المكتبة النصف الحضرية بزهانة \" الشهيد براهيمي محمد\"",
  "name_fr": "Bibliothèque semi-urbaine de Zahana – martyr Brahimi Mohamed",
  "layer": "library",
  "lat": 35.520475,
  "lng": -0.405176,
  "wilaya_code": "29",
  "wilaya_name_ar": "معسكر",
  "wilaya_name_fr": "Mascara",
  "nid_ar": "1054",
  "nid_fr": null,
  "match_m": null,
  "source": "patrimoineculturelalgerien.org",
  "name": "Bibliothèque semi-urbaine de Zahana – martyr Brahimi Mohamed",
  "has_virtual_tour": false
 },
 {
  "name_ar": "المكتبة الريفية للمطالعة العمومية زهرة خطاب قرية عمر  برج منايل",
  "name_fr": "Bibliothèque rurale de lecture publique Zahra Khattab – village Omar, Bordj Menaïel",
  "layer": "library",
  "lat": 36.716757,
  "lng": 3.708055,
  "wilaya_code": "35",
  "wilaya_name_ar": "بومرداس",
  "wilaya_name_fr": "Boumerdès",
  "nid_ar": "1058",
  "nid_fr": null,
  "match_m": null,
  "source": "patrimoineculturelalgerien.org",
  "name": "Bibliothèque rurale de lecture publique Zahra Khattab – village Omar, Bordj Menaïel",
  "has_virtual_tour": false
 },
 {
  "name_ar": "المكتبة البلدية بوطالب",
  "name_fr": "La bibliothèque de BOUTALEB",
  "layer": "library",
  "lat": 35.661265,
  "lng": 5.321741,
  "wilaya_code": "19",
  "wilaya_name_ar": "سطيف",
  "wilaya_name_fr": "Sétif",
  "nid_ar": "1059",
  "nid_fr": "1435",
  "match_m": 0,
  "source": "patrimoineculturelalgerien.org",
  "name": "La bibliothèque de BOUTALEB",
  "has_virtual_tour": false
 },
 {
  "name_ar": "المكتبة البلدية الرصفة",
  "name_fr": "La bibliothèque de rasfa",
  "layer": "library",
  "lat": 35.770443,
  "lng": 5.206004,
  "wilaya_code": "19",
  "wilaya_name_ar": "سطيف",
  "wilaya_name_fr": "Sétif",
  "nid_ar": "1060",
  "nid_fr": "1436",
  "match_m": 0,
  "source": "patrimoineculturelalgerien.org",
  "name": "La bibliothèque de rasfa",
  "has_virtual_tour": false
 },
 {
  "name_ar": "المكتبة البلدية صالح باي",
  "name_fr": "La bibliothèque de saleh bey",
  "layer": "library",
  "lat": 35.852487,
  "lng": 5.284697,
  "wilaya_code": "19",
  "wilaya_name_ar": "سطيف",
  "wilaya_name_fr": "Sétif",
  "nid_ar": "1061",
  "nid_fr": "1438",
  "match_m": 0,
  "source": "patrimoineculturelalgerien.org",
  "name": "La bibliothèque de saleh bey",
  "has_virtual_tour": false
 },
 {
  "name_ar": "المكتبة البلدية عين الحجر",
  "name_fr": "La bibliothèque de « Ain lahdjar »",
  "layer": "library",
  "lat": 35.955217,
  "lng": 5.547548,
  "wilaya_code": "19",
  "wilaya_name_ar": "سطيف",
  "wilaya_name_fr": "Sétif",
  "nid_ar": "1062",
  "nid_fr": "1439",
  "match_m": 0,
  "source": "patrimoineculturelalgerien.org",
  "name": "La bibliothèque de « Ain lahdjar »",
  "has_virtual_tour": false
 },
 {
  "name_ar": "المكتبة البلدية الطاية",
  "name_fr": "La bibliothèque de « taya »",
  "layer": "library",
  "lat": 35.959919,
  "lng": 5.966406,
  "wilaya_code": "19",
  "wilaya_name_ar": "سطيف",
  "wilaya_name_fr": "Sétif",
  "nid_ar": "1063",
  "nid_fr": "1440",
  "match_m": 0,
  "source": "patrimoineculturelalgerien.org",
  "name": "La bibliothèque de « taya »",
  "has_virtual_tour": false
 },
 {
  "name_ar": "المكتبة البلدية التلة",
  "name_fr": "La bibliothèque de «tella »",
  "layer": "library",
  "lat": 36.007724,
  "lng": 5.718,
  "wilaya_code": "19",
  "wilaya_name_ar": "سطيف",
  "wilaya_name_fr": "Sétif",
  "nid_ar": "1064",
  "nid_fr": "1441",
  "match_m": 0,
  "source": "patrimoineculturelalgerien.org",
  "name": "La bibliothèque de «tella »",
  "has_virtual_tour": false
 },
 {
  "name_ar": "المكتبة البلدية حمام السخنة",
  "name_fr": "La bibliothèque de «hammam soukhna»",
  "layer": "library",
  "lat": 35.981079,
  "lng": 5.806794,
  "wilaya_code": "19",
  "wilaya_name_ar": "سطيف",
  "wilaya_name_fr": "Sétif",
  "nid_ar": "1065",
  "nid_fr": "1442",
  "match_m": 0,
  "source": "patrimoineculturelalgerien.org",
  "name": "La bibliothèque de «hammam soukhna»",
  "has_virtual_tour": false
 },
 {
  "name_ar": "المكتبة البلدية بيضاء برج",
  "name_fr": "La bibliothèque de «baida bordj»",
  "layer": "library",
  "lat": 35.900301,
  "lng": 5.666034,
  "wilaya_code": "19",
  "wilaya_name_ar": "سطيف",
  "wilaya_name_fr": "Sétif",
  "nid_ar": "1066",
  "nid_fr": "1443",
  "match_m": 0,
  "source": "patrimoineculturelalgerien.org",
  "name": "La bibliothèque de «baida bordj»",
  "has_virtual_tour": false
 },
 {
  "name_ar": "المكتبة البلدية العلمة",
  "name_fr": "La bibliothèque de «el Eulma»",
  "layer": "library",
  "lat": 36.128474,
  "lng": 5.67513,
  "wilaya_code": "19",
  "wilaya_name_ar": "سطيف",
  "wilaya_name_fr": "Sétif",
  "nid_ar": "1068",
  "nid_fr": "1444",
  "match_m": 0,
  "source": "patrimoineculturelalgerien.org",
  "name": "La bibliothèque de «el Eulma»",
  "has_virtual_tour": false
 },
 {
  "name_ar": "المكتبة البلدية العلمة",
  "name_fr": "Bibliothèque communale d'El Eulma",
  "layer": "library",
  "lat": 36.128474,
  "lng": 5.67513,
  "wilaya_code": "19",
  "wilaya_name_ar": "سطيف",
  "wilaya_name_fr": "Sétif",
  "nid_ar": "1069",
  "nid_fr": null,
  "match_m": null,
  "source": "patrimoineculturelalgerien.org",
  "name": "Bibliothèque communale d'El Eulma",
  "has_virtual_tour": false
 },
 {
  "name_ar": "المكتبة الحضرية بمعسكر \" المجاهد المتوفي دحو مزيان \"",
  "name_fr": "Bibliothèque urbaine de Mascara – Moudjahid feu Dahou Meziane",
  "layer": "library",
  "lat": 35.387935,
  "lng": 0.137441,
  "wilaya_code": "29",
  "wilaya_name_ar": "معسكر",
  "wilaya_name_fr": "Mascara",
  "nid_ar": "1074",
  "nid_fr": null,
  "match_m": null,
  "source": "patrimoineculturelalgerien.org",
  "name": "Bibliothèque urbaine de Mascara – Moudjahid feu Dahou Meziane",
  "has_virtual_tour": false
 },
 {
  "name_ar": "مكتبة المطالعة العمومية ابو القاسم سعد الله بتقرت",
  "name_fr": "Bibliothèque de lecture publique Abou El Kacem Saâdallah – Touggourt",
  "layer": "library",
  "lat": 33.107124,
  "lng": 6.039807,
  "wilaya_code": "30",
  "wilaya_name_ar": "ورقلة",
  "wilaya_name_fr": "Ouargla",
  "nid_ar": "1079",
  "nid_fr": null,
  "match_m": null,
  "source": "patrimoineculturelalgerien.org",
  "name": "Bibliothèque de lecture publique Abou El Kacem Saâdallah – Touggourt",
  "has_virtual_tour": false
 },
 {
  "name_ar": "مكتبة المطالعة العمومية جواحي محمد بن معمر بالعاليـــــــة",
  "name_fr": "Bibliothèque de lecture publique Djouahi Mohamed Ben Maâmar – El Alia",
  "layer": "library",
  "lat": 32.702481,
  "lng": 5.41333,
  "wilaya_code": "30",
  "wilaya_name_ar": "ورقلة",
  "wilaya_name_fr": "Ouargla",
  "nid_ar": "1080",
  "nid_fr": null,
  "match_m": null,
  "source": "patrimoineculturelalgerien.org",
  "name": "Bibliothèque de lecture publique Djouahi Mohamed Ben Maâmar – El Alia",
  "has_virtual_tour": false
 },
 {
  "name_ar": "المكتبة النصف حضرية لدائرة  ناصرية ولاية بومرداس",
  "name_fr": "Bibliothèque semi-urbaine de la daïra de Naciria – wilaya de Boumerdès",
  "layer": "library",
  "lat": 36.747161,
  "lng": 3.822465,
  "wilaya_code": "35",
  "wilaya_name_ar": "بومرداس",
  "wilaya_name_fr": "Boumerdès",
  "nid_ar": "1095",
  "nid_fr": null,
  "match_m": null,
  "source": "patrimoineculturelalgerien.org",
  "name": "Bibliothèque semi-urbaine de la daïra de Naciria – wilaya de Boumerdès",
  "has_virtual_tour": false
 },
 {
  "name_ar": "المكتبة الرئيسية للمطالعة العمومية  أبو القاسم سعد الله",
  "name_fr": "La bibliothèque principale de la lecture publique Abu al-Qasim Saadallah",
  "layer": "library",
  "lat": 27.646827,
  "lng": -8.131158,
  "wilaya_code": "37",
  "wilaya_name_ar": "تندوف",
  "wilaya_name_fr": "Tindouf",
  "nid_ar": "1103",
  "nid_fr": "1558",
  "match_m": 0,
  "source": "patrimoineculturelalgerien.org",
  "name": "La bibliothèque principale de la lecture publique Abu al-Qasim Saadallah",
  "has_virtual_tour": false
 },
 {
  "name_ar": "المكتبة الرئيسية للمطالعة العمومية المجاهد \"رابح سعيداي\" لولاية البويرة",
  "name_fr": "Bibliothèque principale de lecture publique Moudjahid Rabah Saïdani – wilaya de Bouira",
  "layer": "library",
  "lat": 36.372805,
  "lng": 3.830869,
  "wilaya_code": "10",
  "wilaya_name_ar": "البويرة",
  "wilaya_name_fr": "Bouira",
  "nid_ar": "1104",
  "nid_fr": null,
  "match_m": null,
  "source": "patrimoineculturelalgerien.org",
  "name": "Bibliothèque principale de lecture publique Moudjahid Rabah Saïdani – wilaya de Bouira",
  "has_virtual_tour": false
 },
 {
  "name_ar": "مكتبة المطالعة العمومية الخبانة ولاية المسيلة",
  "name_fr": "Bibliothèque de lecture publique d'El Khoubana – wilaya de M'Sila",
  "layer": "library",
  "lat": 35.307725,
  "lng": 4.475809,
  "wilaya_code": "28",
  "wilaya_name_ar": "المسيلة",
  "wilaya_name_fr": "M'Sila",
  "nid_ar": "1108",
  "nid_fr": null,
  "match_m": null,
  "source": "patrimoineculturelalgerien.org",
  "name": "Bibliothèque de lecture publique d'El Khoubana – wilaya de M'Sila",
  "has_virtual_tour": false
 },
 {
  "name_ar": "مكتبة المطالعة العمومية ببوخميسة بلدية المسيلة",
  "name_fr": "Bibliothèque de lecture publique de Boukhmissa – commune de M'Sila",
  "layer": "library",
  "lat": 35.798009,
  "lng": 4.549206,
  "wilaya_code": "28",
  "wilaya_name_ar": "المسيلة",
  "wilaya_name_fr": "M'Sila",
  "nid_ar": "1109",
  "nid_fr": null,
  "match_m": null,
  "source": "patrimoineculturelalgerien.org",
  "name": "Bibliothèque de lecture publique de Boukhmissa – commune de M'Sila",
  "has_virtual_tour": false
 },
 {
  "name_ar": "مكتبة المطالعة العمومية ببانيو ببلدية المعاريف",
  "name_fr": "bibliothèque de lecture publique 'Banio commune de maarif'",
  "layer": "library",
  "lat": 35.371103,
  "lng": 4.372068,
  "wilaya_code": "28",
  "wilaya_name_ar": "المسيلة",
  "wilaya_name_fr": "M'Sila",
  "nid_ar": "1110",
  "nid_fr": "1507",
  "match_m": 0,
  "source": "patrimoineculturelalgerien.org",
  "name": "bibliothèque de lecture publique 'Banio commune de maarif'",
  "has_virtual_tour": false
 },
 {
  "name_ar": "مكتبة المطالعة العمومية ببلدية المعاضيد",
  "name_fr": "Bibliothèque de lecture publique – commune d'El Maâdid",
  "layer": "library",
  "lat": 35.825504,
  "lng": 4.794134,
  "wilaya_code": "28",
  "wilaya_name_ar": "المسيلة",
  "wilaya_name_fr": "M'Sila",
  "nid_ar": "1111",
  "nid_fr": null,
  "match_m": null,
  "source": "patrimoineculturelalgerien.org",
  "name": "Bibliothèque de lecture publique – commune d'El Maâdid",
  "has_virtual_tour": false
 },
 {
  "name_ar": "المكتبة الرئيسية للمطالعة العمومية الشهيد بودراي بلقاسم",
  "name_fr": "La bibliothèque principale de lecture  publique\"  Boudrai belkacem\" wilaya de M'sila",
  "layer": "library",
  "lat": 35.711338,
  "lng": 4.541054,
  "wilaya_code": "28",
  "wilaya_name_ar": "المسيلة",
  "wilaya_name_fr": "M'Sila",
  "nid_ar": "1112",
  "nid_fr": "1504",
  "match_m": 0,
  "source": "patrimoineculturelalgerien.org",
  "name": "La bibliothèque principale de lecture  publique\"  Boudrai belkacem\" wilaya de M'sila",
  "has_virtual_tour": false
 },
 {
  "name_ar": "مكتبة المطالعة العمومية ببلدية الدهاهنة",
  "name_fr": "Bibliothèque de lecture publique – commune de Dehahna",
  "layer": "library",
  "lat": 35.740873,
  "lng": 5.007325,
  "wilaya_code": "28",
  "wilaya_name_ar": "المسيلة",
  "wilaya_name_fr": "M'Sila",
  "nid_ar": "1113",
  "nid_fr": null,
  "match_m": null,
  "source": "patrimoineculturelalgerien.org",
  "name": "Bibliothèque de lecture publique – commune de Dehahna",
  "has_virtual_tour": false
 },
 {
  "name_ar": "مكتبة المطالعة العمومية ببلدية بن سرور",
  "name_fr": "La bibliothèque de lecture publique ' commune de Ben Srour",
  "layer": "library",
  "lat": 35.040644,
  "lng": 4.559967,
  "wilaya_code": "28",
  "wilaya_name_ar": "المسيلة",
  "wilaya_name_fr": "M'Sila",
  "nid_ar": "1114",
  "nid_fr": "1512",
  "match_m": 0,
  "source": "patrimoineculturelalgerien.org",
  "name": "La bibliothèque de lecture publique ' commune de Ben Srour",
  "has_virtual_tour": false
 },
 {
  "name_ar": "مكتبة المطالعة العمومية ببلدية بلعائبة",
  "name_fr": "bibliothèque de lecture publique ' commune Belaiba'",
  "layer": "library",
  "lat": 35.522392,
  "lng": 5.164697,
  "wilaya_code": "28",
  "wilaya_name_ar": "المسيلة",
  "wilaya_name_fr": "M'Sila",
  "nid_ar": "1115",
  "nid_fr": "1506",
  "match_m": 0,
  "source": "patrimoineculturelalgerien.org",
  "name": "bibliothèque de lecture publique ' commune Belaiba'",
  "has_virtual_tour": false
 },
 {
  "name_ar": "مكتبة المطالعة العمومية بالمويلحة بلدية المسيلة",
  "name_fr": "Bibliothèque de lecture publique d'El Mouilha – commune de M'Sila",
  "layer": "library",
  "lat": 35.724746,
  "lng": 4.523828,
  "wilaya_code": "28",
  "wilaya_name_ar": "المسيلة",
  "wilaya_name_fr": "M'Sila",
  "nid_ar": "1116",
  "nid_fr": null,
  "match_m": null,
  "source": "patrimoineculturelalgerien.org",
  "name": "Bibliothèque de lecture publique d'El Mouilha – commune de M'Sila",
  "has_virtual_tour": false
 },
 {
  "name_ar": "مكتبة المطالعة العمومية ببلدية سليم",
  "name_fr": "bibliothèque de lecture publique ' commune de slim'",
  "layer": "library",
  "lat": 34.895421,
  "lng": 3.734392,
  "wilaya_code": "28",
  "wilaya_name_ar": "المسيلة",
  "wilaya_name_fr": "M'Sila",
  "nid_ar": "1117",
  "nid_fr": "1509",
  "match_m": 0,
  "source": "patrimoineculturelalgerien.org",
  "name": "bibliothèque de lecture publique ' commune de slim'",
  "has_virtual_tour": false
 },
 {
  "name_ar": "مكتبة المطالعة العمومية بالحوران بلدية حمام الضلعة",
  "name_fr": "Bibliothèque de lecture publique d'El Houran – commune de Hammam Dhalaa",
  "layer": "library",
  "lat": 35.942283,
  "lng": 4.368924,
  "wilaya_code": "28",
  "wilaya_name_ar": "المسيلة",
  "wilaya_name_fr": "M'Sila",
  "nid_ar": "1118",
  "nid_fr": null,
  "match_m": null,
  "source": "patrimoineculturelalgerien.org",
  "name": "Bibliothèque de lecture publique d'El Houran – commune de Hammam Dhalaa",
  "has_virtual_tour": false
 },
 {
  "name_ar": "مكتبة المطالعة العمومية عبد القادر دلاوي ببلدية بوسعادة",
  "name_fr": "bibliothèque de lecture publique dellaoui abedelkader ' commune de bousaada'",
  "layer": "library",
  "lat": 35.205952,
  "lng": 4.175038,
  "wilaya_code": "28",
  "wilaya_name_ar": "المسيلة",
  "wilaya_name_fr": "M'Sila",
  "nid_ar": "1119",
  "nid_fr": "1510",
  "match_m": 0,
  "source": "patrimoineculturelalgerien.org",
  "name": "bibliothèque de lecture publique dellaoui abedelkader ' commune de bousaada'",
  "has_virtual_tour": false
 },
 {
  "name_ar": "مكتبة المطالعة العمومية ببلدية مقرة",
  "name_fr": "La bibliothèque de lecture publique 'commune  magra'",
  "layer": "library",
  "lat": 35.620236,
  "lng": 5.09875,
  "wilaya_code": "28",
  "wilaya_name_ar": "المسيلة",
  "wilaya_name_fr": "M'Sila",
  "nid_ar": "1120",
  "nid_fr": "1505",
  "match_m": 0,
  "source": "patrimoineculturelalgerien.org",
  "name": "La bibliothèque de lecture publique 'commune  magra'",
  "has_virtual_tour": false
 },
 {
  "name_ar": "مكتبة المطالعة العمومية ببلدية عين الملح",
  "name_fr": "bibliothèque de lecture publique  ' commune de Ain El melh'",
  "layer": "library",
  "lat": 34.858741,
  "lng": 4.153708,
  "wilaya_code": "28",
  "wilaya_name_ar": "المسيلة",
  "wilaya_name_fr": "M'Sila",
  "nid_ar": "1121",
  "nid_fr": "1511",
  "match_m": 0,
  "source": "patrimoineculturelalgerien.org",
  "name": "bibliothèque de lecture publique  ' commune de Ain El melh'",
  "has_virtual_tour": false
 },
 {
  "name_ar": "مكتبة المطالعة العمومية الشهيد\" بوعمامة بن يحي\" بالعين الصفراء:",
  "name_fr": "Bibliothèque de lecture publique martyr Bouamama Benyahia – Aïn Sefra",
  "layer": "library",
  "lat": 32.771018,
  "lng": -0.56408,
  "wilaya_code": "45",
  "wilaya_name_ar": "النعامة",
  "wilaya_name_fr": "Naâma",
  "nid_ar": "1128",
  "nid_fr": null,
  "match_m": null,
  "source": "patrimoineculturelalgerien.org",
  "name": "Bibliothèque de lecture publique martyr Bouamama Benyahia – Aïn Sefra",
  "has_virtual_tour": false
 },
 {
  "name_ar": "مكتبة المطالعة العمومية المجاهد \"مكي بوعلام \" بمغرار:",
  "name_fr": "Bibliothèque de lecture publique Moudjahid Mekki Boualem – Moghrar",
  "layer": "library",
  "lat": 32.538455,
  "lng": -0.49622,
  "wilaya_code": "45",
  "wilaya_name_ar": "النعامة",
  "wilaya_name_fr": "Naâma",
  "nid_ar": "1129",
  "nid_fr": null,
  "match_m": null,
  "source": "patrimoineculturelalgerien.org",
  "name": "Bibliothèque de lecture publique Moudjahid Mekki Boualem – Moghrar",
  "has_virtual_tour": false
 },
 {
  "name_ar": "مكتبة المطالعة العمومية الأخوة\" عبد الجليل\" بالصفيصيفة:",
  "name_fr": "Bibliothèque de lecture publique Frères Abdeldjelil – Sfissifa",
  "layer": "library",
  "lat": 32.72635,
  "lng": -0.860782,
  "wilaya_code": "45",
  "wilaya_name_ar": "النعامة",
  "wilaya_name_fr": "Naâma",
  "nid_ar": "1130",
  "nid_fr": null,
  "match_m": null,
  "source": "patrimoineculturelalgerien.org",
  "name": "Bibliothèque de lecture publique Frères Abdeldjelil – Sfissifa",
  "has_virtual_tour": false
 },
 {
  "name_ar": "مكتبة المطالعة العمومية عين بن خليل:",
  "name_fr": "Bibliothèque de lecture publique d'Aïn Ben Khelil",
  "layer": "library",
  "lat": 33.289418,
  "lng": -0.764473,
  "wilaya_code": "45",
  "wilaya_name_ar": "النعامة",
  "wilaya_name_fr": "Naâma",
  "nid_ar": "1131",
  "nid_fr": null,
  "match_m": null,
  "source": "patrimoineculturelalgerien.org",
  "name": "Bibliothèque de lecture publique d'Aïn Ben Khelil",
  "has_virtual_tour": false
 },
 {
  "name_ar": "مكتبة المطالعة العمومية المجاهد \"رافعي الطيب\" بمكمن بن عمار:",
  "name_fr": "Bibliothèque de lecture publique Moudjahid Rafii Tayeb – Makmen Ben Amar",
  "layer": "library",
  "lat": 33.718707,
  "lng": -0.73287,
  "wilaya_code": "45",
  "wilaya_name_ar": "النعامة",
  "wilaya_name_fr": "Naâma",
  "nid_ar": "1132",
  "nid_fr": null,
  "match_m": null,
  "source": "patrimoineculturelalgerien.org",
  "name": "Bibliothèque de lecture publique Moudjahid Rafii Tayeb – Makmen Ben Amar",
  "has_virtual_tour": false
 },
 {
  "name_ar": "مكتبة المطالعة العمومية الشهيد\" جديد جديد\" بجنين بورزق:",
  "name_fr": "Bibliothèque de lecture publique martyr Djedid Djedid – Djeniene Bourezg",
  "layer": "library",
  "lat": 32.290016,
  "lng": -0.907134,
  "wilaya_code": "45",
  "wilaya_name_ar": "النعامة",
  "wilaya_name_fr": "Naâma",
  "nid_ar": "1133",
  "nid_fr": null,
  "match_m": null,
  "source": "patrimoineculturelalgerien.org",
  "name": "Bibliothèque de lecture publique martyr Djedid Djedid – Djeniene Bourezg",
  "has_virtual_tour": false
 },
 {
  "name_ar": "مكتبة المطالعة العمومية البيوض:",
  "name_fr": "Bibliothèque de lecture publique d'El Biodh",
  "layer": "library",
  "lat": 33.762073,
  "lng": -0.134224,
  "wilaya_code": "45",
  "wilaya_name_ar": "النعامة",
  "wilaya_name_fr": "Naâma",
  "nid_ar": "1134",
  "nid_fr": null,
  "match_m": null,
  "source": "patrimoineculturelalgerien.org",
  "name": "Bibliothèque de lecture publique d'El Biodh",
  "has_virtual_tour": false
 },
 {
  "name_ar": "مكتبة المطالعة العمومية المجاهد\" دقداق علي\" بالقصدير:",
  "name_fr": "Bibliothèque de lecture publique Moudjahid Degdag Ali – El Kasdir",
  "layer": "library",
  "lat": 33.709553,
  "lng": -1.356312,
  "wilaya_code": "45",
  "wilaya_name_ar": "النعامة",
  "wilaya_name_fr": "Naâma",
  "nid_ar": "1135",
  "nid_fr": null,
  "match_m": null,
  "source": "patrimoineculturelalgerien.org",
  "name": "Bibliothèque de lecture publique Moudjahid Degdag Ali – El Kasdir",
  "has_virtual_tour": false
 },
 {
  "name_ar": "مكتبة بلدية",
  "name_fr": "Bibliothèque communale",
  "layer": "library",
  "lat": 35.791946,
  "lng": 0.797587,
  "wilaya_code": "48",
  "wilaya_name_ar": "غليزان",
  "wilaya_name_fr": "Relizane",
  "nid_ar": "1176",
  "nid_fr": null,
  "match_m": null,
  "source": "patrimoineculturelalgerien.org",
  "name": "Bibliothèque communale",
  "has_virtual_tour": false
 },
 {
  "name_ar": "ملحقة مكتبة المطالعة العمومية الشهيد بن علي سعيد ـ الدحموني ـ",
  "name_fr": "Annexe de la bibliothèque de lecture publique martyr Benali Saïd – Dahmouni",
  "layer": "library",
  "lat": 35.416903,
  "lng": 1.472772,
  "wilaya_code": "14",
  "wilaya_name_ar": "تيارت",
  "wilaya_name_fr": "Tiaret",
  "nid_ar": "1177",
  "nid_fr": null,
  "match_m": null,
  "source": "patrimoineculturelalgerien.org",
  "name": "Annexe de la bibliothèque de lecture publique martyr Benali Saïd – Dahmouni",
  "has_virtual_tour": false
 },
 {
  "name_ar": "ملحقة مكتبة المطالعة العمومية للشيخ بوعمامة بلدية الرشايقة",
  "name_fr": "Annexe de la bibliothèque de lecture publique Cheikh Bouamama – commune d'Errechaiga",
  "layer": "library",
  "lat": 35.411804,
  "lng": 1.974215,
  "wilaya_code": "14",
  "wilaya_name_ar": "تيارت",
  "wilaya_name_fr": "Tiaret",
  "nid_ar": "1179",
  "nid_fr": null,
  "match_m": null,
  "source": "patrimoineculturelalgerien.org",
  "name": "Annexe de la bibliothèque de lecture publique Cheikh Bouamama – commune d'Errechaiga",
  "has_virtual_tour": false
 },
 {
  "name_ar": "ملحقة مكتبة المطالعة العمومية الشهيد: جزولي امحمد بلدية توسنينة",
  "name_fr": "Annexe de la bibliothèque de lecture publique martyr Djezouli M'hamed – commune de Tousnina",
  "layer": "library",
  "lat": 35.112675,
  "lng": 1.27718,
  "wilaya_code": "14",
  "wilaya_name_ar": "تيارت",
  "wilaya_name_fr": "Tiaret",
  "nid_ar": "1182",
  "nid_fr": null,
  "match_m": null,
  "source": "patrimoineculturelalgerien.org",
  "name": "Annexe de la bibliothèque de lecture publique martyr Djezouli M'hamed – commune de Tousnina",
  "has_virtual_tour": false
 },
 {
  "name_ar": "ملحقة مكتبة المطالعة العمومية الشهيد \"روان محمد\" لبلدية عين الحديد",
  "name_fr": "Annexe de la bibliothèque de lecture publique martyr Rouan Mohamed – commune d'Aïn El Hadid",
  "layer": "library",
  "lat": 35.056965,
  "lng": 0.885005,
  "wilaya_code": "14",
  "wilaya_name_ar": "تيارت",
  "wilaya_name_fr": "Tiaret",
  "nid_ar": "1186",
  "nid_fr": null,
  "match_m": null,
  "source": "patrimoineculturelalgerien.org",
  "name": "Annexe de la bibliothèque de lecture publique martyr Rouan Mohamed – commune d'Aïn El Hadid",
  "has_virtual_tour": false
 },
 {
  "name_ar": "ملحقة مكتبة المطالعة العمومية  الشهيد بن عمار محمد بلدية عين بوشقيف",
  "name_fr": "Annexe de la bibliothèque de lecture publique martyr Benamar Mohamed – commune d'Aïn Bouchekif",
  "layer": "library",
  "lat": 35.355449,
  "lng": 1.514548,
  "wilaya_code": "14",
  "wilaya_name_ar": "تيارت",
  "wilaya_name_fr": "Tiaret",
  "nid_ar": "1187",
  "nid_fr": null,
  "match_m": null,
  "source": "patrimoineculturelalgerien.org",
  "name": "Annexe de la bibliothèque de lecture publique martyr Benamar Mohamed – commune d'Aïn Bouchekif",
  "has_virtual_tour": false
 },
 {
  "name_ar": "ملحقة مكتبة المطالعة العمومية جاك بارك - فرندة",
  "name_fr": "Annexe de la bibliothèque de lecture publique Jacques Berque – Frenda",
  "layer": "library",
  "lat": 35.059526,
  "lng": 1.050486,
  "wilaya_code": "14",
  "wilaya_name_ar": "تيارت",
  "wilaya_name_fr": "Tiaret",
  "nid_ar": "1188",
  "nid_fr": null,
  "match_m": null,
  "source": "patrimoineculturelalgerien.org",
  "name": "Annexe de la bibliothèque de lecture publique Jacques Berque – Frenda",
  "has_virtual_tour": false
 },
 {
  "name_ar": "ملحقة مكتبة ملحقة الشيخ البشير الابراهيمي قصر الشلالة ولاية تيارت",
  "name_fr": "Annexe de la bibliothèque Cheikh El Bachir El Ibrahimi – Ksar Chellala, wilaya de Tiaret",
  "layer": "library",
  "lat": 35.219444,
  "lng": 2.320556,
  "wilaya_code": "14",
  "wilaya_name_ar": "تيارت",
  "wilaya_name_fr": "Tiaret",
  "nid_ar": "1192",
  "nid_fr": null,
  "match_m": null,
  "source": "patrimoineculturelalgerien.org",
  "name": "Annexe de la bibliothèque Cheikh El Bachir El Ibrahimi – Ksar Chellala, wilaya de Tiaret",
  "has_virtual_tour": false
 },