[
 {
  "name_ar": "متحف المجاهد",
  "name_fr": "Musée du Moudjahid",
  "layer": "museum-moudjahid",
  "lat": 35.699419,
  "lng": -0.603395,
  "wilaya_code": "31",
  "wilaya_name_ar": "وهران",
  "wilaya_name_fr": "Oran",
  "nid_ar": "401",
  "nid_fr": null,
  "match_m": null,
  "source": "patrimoineculturelalgerien.org",
  "name": "Musée du Moudjahid",
  "has_virtual_tour": false
 },
 {
  "name_ar": "متحف المجاهد",
  "name_fr": "Musée du Moudjahid",
  "layer": "museum-moudjahid",
  "lat": 35.930839,
  "lng": 0.077745,
  "wilaya_code": "27",
  "wilaya_name_ar": "مستغانم",
  "wilaya_name_fr": "Mostaganem",
  "nid_ar": "402",
  "nid_fr": null,
  "match_m": null,
  "source": "patrimoineculturelalgerien.org",
  "name": "Musée du Moudjahid",
  "has_virtual_tour": false
 },
 {
  "name_ar": "متحف المجاهد",
  "name_fr": "Musée du Moudjahid",
  "layer": "museum-moudjahid",
  "lat": 35.40391,
  "lng": 0.140277,
  "wilaya_code": "29",
  "wilaya_name_ar": "معسكر",
  "wilaya_name_fr": "Mascara",
  "nid_ar": "403",
  "nid_fr": null,
  "match_m": null,
  "source": "patrimoineculturelalgerien.org",
  "name": "Musée du Moudjahid",
  "has_virtual_tour": false
 },
 {
  "name_ar": "متحف المجاهد",
  "name_fr": "Musée du Moudjahid",
  "layer": "museum-moudjahid",
  "lat": 35.356493,
  "lng": 1.325296,
  "wilaya_code": "14",
  "wilaya_name_ar": "تيارت",
  "wilaya_name_fr": "Tiaret",
  "nid_ar": "404",
  "nid_fr": null,
  "match_m": null,
  "source": "patrimoineculturelalgerien.org",
  "name": "Musée du Moudjahid",
  "has_virtual_tour": false
 },
 {
  "name_ar": "متحف المجاهد",
  "name_fr": "Musée du Moudjahid",
  "layer": "museum-moudjahid",
  "lat": 36.745324,
  "lng": 3.070754,
  "wilaya_code": "16",
  "wilaya_name_ar": "الجزائر",
  "wilaya_name_fr": "Alger",
  "nid_ar": "405",
  "nid_fr": null,
  "match_m": null,
  "source": "patrimoineculturelalgerien.org",
  "name": "Musée du Moudjahid",
  "has_virtual_tour": false
 },
 {
  "name_ar": "متحف المجاهد",
  "name_fr": "Musée du Moudjahid",
  "layer": "museum-moudjahid",
  "lat": 36.495316,
  "lng": 5.273158,
  "wilaya_code": "06",
  "wilaya_name_ar": "بجاية",
  "wilaya_name_fr": "Béjaïa",
  "nid_ar": "406",
  "nid_fr": null,
  "match_m": null,
  "source": "patrimoineculturelalgerien.org",
  "name": "Musée du Moudjahid",
  "has_virtual_tour": false
 },
 {
  "name_ar": "متحف المجاهد",
  "name_fr": "Musée du Moudjahid",
  "layer": "museum-moudjahid",
  "lat": 35.52562,
  "lng": 6.197866,
  "wilaya_code": "05",
  "wilaya_name_ar": "باتنة",
  "wilaya_name_fr": "Batna",
  "nid_ar": "407",
  "nid_fr": null,
  "match_m": null,
  "source": "patrimoineculturelalgerien.org",
  "name": "Musée du Moudjahid",
  "has_virtual_tour": false
 },
 {
  "name_ar": "متحف المجاهد",
  "name_fr": "Musée du Moudjahid",
  "layer": "museum-moudjahid",
  "lat": 35.867982,
  "lng": 7.11247,
  "wilaya_code": "04",
  "wilaya_name_ar": "أم البواقي",
  "wilaya_name_fr": "Oum El Bouaghi",
  "nid_ar": "408",
  "nid_fr": null,
  "match_m": null,
  "source": "patrimoineculturelalgerien.org",
  "name": "Musée du Moudjahid",
  "has_virtual_tour": false
 },
 {
  "name_ar": "متحف المجاهد",
  "name_fr": "Musée du Moudjahid",
  "layer": "museum-moudjahid",
  "lat": 36.287308,
  "lng": 7.967971,
  "wilaya_code": "41",
  "wilaya_name_ar": "سوق أهراس",
  "wilaya_name_fr": "Souk Ahras",
  "nid_ar": "409",
  "nid_fr": null,
  "match_m": null,
  "source": "patrimoineculturelalgerien.org",
  "name": "Musée du Moudjahid",
  "has_virtual_tour": false
 },
 {
  "name_ar": "متحف المجاهد",
  "name_fr": "Musée du Moudjahid",
  "layer": "museum-moudjahid",
  "lat": 32.268862,
  "lng": 3.631627,
  "wilaya_code": "47",
  "wilaya_name_ar": "غرداية",
  "wilaya_name_fr": "Ghardaïa",
  "nid_ar": "410",
  "nid_fr": null,
  "match_m": null,
  "source": "patrimoineculturelalgerien.org",
  "name": "Musée du Moudjahid",
  "has_virtual_tour": false
 },
 {
  "name_ar": "متحف المجاهد",
  "name_fr": "Musée El Moudjahid",
  "layer": "museum-moudjahid",
  "lat": 31.956928,
  "lng": 5.333452,
  "wilaya_code": "30",
  "wilaya_name_ar": "ورقلة",
  "wilaya_name_fr": "Ouargla",
  "nid_ar": "411",
  "nid_fr": "115",
  "match_m": 0,
  "source": "patrimoineculturelalgerien.org",
  "name": "Musée El Moudjahid",
  "has_virtual_tour": false
 },
 {
  "name_ar": "متحف المجاهد",
  "name_fr": "Musée du Moudjahid",
  "layer": "museum-moudjahid",
  "lat": 33.105735,
  "lng": 6.069705,
  "wilaya_code": "30",
  "wilaya_name_ar": "ورقلة",
  "wilaya_name_fr": "Ouargla",
  "nid_ar": "412",
  "nid_fr": null,
  "match_m": null,
  "source": "patrimoineculturelalgerien.org",
  "name": "Musée du Moudjahid",
  "has_virtual_tour": false
 },
 {
  "name_ar": "المتحف الولائي للمجاهد",
  "name_fr": "Musée de wilaya du Moudjahid",
  "layer": "museum-moudjahid",
  "lat": 36.18737,
  "lng": 5.40516,
  "wilaya_code": "19",
  "wilaya_name_ar": "سطيف",
  "wilaya_name_fr": "Sétif",
  "nid_ar": "1091",
  "nid_fr": null,
  "match_m": null,
  "source": "patrimoineculturelalgerien.org",
  "name": "Musée de wilaya du Moudjahid",
  "has_virtual_tour": false
 }
]