[
 {
  "name_ar": "آثار تيبازة",
  "name_fr": "Site de Tipasa",
  "layer": "protected-cultural-property",
  "lat": 36.594712,
  "lng": 2.444023,
  "wilaya_code": "42",
  "wilaya_name_ar": "تيبازة",
  "wilaya_name_fr": "Tipaza",
  "nid_ar": "120",
  "nid_fr": "66",
  "match_m": 0,
  "source": "patrimoineculturelalgerien.org",
  "name": "Site de Tipasa",
  "has_virtual_tour": false
 },
 {
  "name_ar": "تيمقاد",
  "name_fr": "Timgad",
  "layer": "protected-cultural-property",
  "lat": 35.484187,
  "lng": 6.468884,
  "wilaya_code": "05",
  "wilaya_name_ar": "باتنة",
  "wilaya_name_fr": "Batna",
  "nid_ar": "121",
  "nid_fr": "65",
  "match_m": 74,
  "source": "patrimoineculturelalgerien.org",
  "name": "Timgad",
  "has_virtual_tour": false
 },
 {
  "name_ar": "المقبرة الميغالتية لبونوارة",
  "name_fr": "Nécropole mégalithique de Bounouara",
  "layer": "protected-cultural-property",
  "lat": 36.222176,
  "lng": 6.799716,
  "wilaya_code": "25",
  "wilaya_name_ar": "قسنطينة",
  "wilaya_name_fr": "Constantine",
  "nid_ar": "128",
  "nid_fr": null,
  "match_m": null,
  "source": "patrimoineculturelalgerien.org",
  "name": "Nécropole mégalithique de Bounouara",
  "has_virtual_tour": false
 },
 {
  "name_ar": "الموقع الأثري تيديس",
  "name_fr": "Site archéologique de Tiddis",
  "layer": "protected-cultural-property",
  "lat": 36.462911,
  "lng": 6.483054,
  "wilaya_code": "25",
  "wilaya_name_ar": "قسنطينة",
  "wilaya_name_fr": "Constantine",
  "nid_ar": "129",
  "nid_fr": null,
  "match_m": null,
  "source": "patrimoineculturelalgerien.org",
  "name": "Site archéologique de Tiddis",
  "has_virtual_tour": false
 },
 {
  "name_ar": "إيمدغاسن",
  "name_fr": "Tombeau Imedghassen",
  "layer": "protected-cultural-property",
  "lat": 35.70709,
  "lng": 6.434445,
  "wilaya_code": "05",
  "wilaya_name_ar": "باتنة",
  "wilaya_name_fr": "Batna",
  "nid_ar": "133",
  "nid_fr": "106",
  "match_m": 0,
  "source": "patrimoineculturelalgerien.org",
  "name": "Tombeau Imedghassen",
  "has_virtual_tour": false
 },
 {
  "name_ar": "وادي مزاب",
  "name_fr": "La vallée du mzab",
  "layer": "protected-cultural-property",
  "lat": 32.483797,
  "lng": 3.68293,
  "wilaya_code": "47",
  "wilaya_name_ar": "غرداية",
  "wilaya_name_fr": "Ghardaïa",
  "nid_ar": "134",
  "nid_fr": "61",
  "match_m": 0,
  "source": "patrimoineculturelalgerien.org",
  "name": "La vallée du mzab",
  "has_virtual_tour": false
 },
 {
  "name_ar": "قلعة بني حماد",
  "name_fr": "La Kalâa des Béni Hammad",
  "layer": "protected-cultural-property",
  "lat": 35.822427,
  "lng": 4.789549,
  "wilaya_code": "28",
  "wilaya_name_ar": "المسيلة",
  "wilaya_name_fr": "M'Sila",
  "nid_ar": "135",
  "nid_fr": "63",
  "match_m": 142,
  "source": "patrimoineculturelalgerien.org",
  "name": "La Kalâa des Béni Hammad",
  "has_virtual_tour": false
 },
 {
  "name_ar": "طاسيلي ناجر",
  "name_fr": "Le Parc National du Tassili (N'Ajjer)",
  "layer": "protected-cultural-property",
  "lat": 25.813595,
  "lng": 8.133856,
  "wilaya_code": "33",
  "wilaya_name_ar": "إليزي",
  "wilaya_name_fr": "Illizi",
  "nid_ar": "136",
  "nid_fr": "62",
  "match_m": 0,
  "source": "patrimoineculturelalgerien.org",
  "name": "Le Parc National du Tassili (N'Ajjer)",
  "has_virtual_tour": true
 },
 {
  "name_ar": "جامع كتشاوة",
  "name_fr": "Mosquée Ketchaoua",
  "layer": "protected-cultural-property",
  "lat": 36.785047,
  "lng": 3.060767,
  "wilaya_code": "16",
  "wilaya_name_ar": "الجزائر",
  "wilaya_name_fr": "Alger",
  "nid_ar": "137",
  "nid_fr": "58",
  "match_m": 0,
  "source": "patrimoineculturelalgerien.org",
  "name": "Mosquée Ketchaoua",
  "has_virtual_tour": false
 },
 {
  "name_ar": "قصـر تيـــوت",
  "name_fr": "Ksar de Tiout",
  "layer": "protected-cultural-property",
  "lat": 32.771069,
  "lng": -0.417302,
  "wilaya_code": "45",
  "wilaya_name_ar": "النعامة",
  "wilaya_name_fr": "Naâma",
  "nid_ar": "157",
  "nid_fr": null,
  "match_m": null,
  "source": "patrimoineculturelalgerien.org",
  "name": "Ksar de Tiout",
  "has_virtual_tour": false
 },
 {
  "name_ar": "قصـر مغرار التحتاني (قلعة الشيخ بوعمامة)",
  "name_fr": "Ksar de Moghrar Tahtani (citadelle de Cheikh Bouamama)",
  "layer": "protected-cultural-property",
  "lat": 32.493226,
  "lng": -0.466872,
  "wilaya_code": "45",
  "wilaya_name_ar": "النعامة",
  "wilaya_name_fr": "Naâma",
  "nid_ar": "158",
  "nid_fr": null,
  "match_m": null,
  "source": "patrimoineculturelalgerien.org",
  "name": "Ksar de Moghrar Tahtani (citadelle de Cheikh Bouamama)",
  "has_virtual_tour": false
 },
 {
  "name_ar": "قصـر عسلة(صامر)",
  "name_fr": "Ksar d'Asla (Samer)",
  "layer": "protected-cultural-property",
  "lat": 33.012071,
  "lng": -0.081151,
  "wilaya_code": "45",
  "wilaya_name_ar": "النعامة",
  "wilaya_name_fr": "Naâma",
  "nid_ar": "159",
  "nid_fr": null,
  "match_m": null,
  "source": "patrimoineculturelalgerien.org",
  "name": "Ksar d'Asla (Samer)",
  "has_virtual_tour": false
 },
 {
  "name_ar": "المسجد المريني العتيق",
  "name_fr": "Grande Mosquée Al-Merini",
  "layer": "protected-cultural-property",
  "lat": 35.93625,
  "lng": 0.091861,
  "wilaya_code": "27",
  "wilaya_name_ar": "مستغانم",
  "wilaya_name_fr": "Mostaganem",
  "nid_ar": "190",
  "nid_fr": "1364",
  "match_m": 6,
  "source": "patrimoineculturelalgerien.org",
  "name": "Grande Mosquée Al-Merini",
  "has_virtual_tour": false
 },
 {
  "name_ar": "حي العرصة",
  "name_fr": "Quartier d'El Arsa",
  "layer": "protected-cultural-property",
  "lat": 35.934912,
  "lng": 0.099796,
  "wilaya_code": "27",
  "wilaya_name_ar": "مستغانم",
  "wilaya_name_fr": "Mostaganem",
  "nid_ar": "191",
  "nid_fr": null,
  "match_m": null,
  "source": "patrimoineculturelalgerien.org",
  "name": "Quartier d'El Arsa",
  "has_virtual_tour": false
 },
 {
  "name_ar": "دار القايد \"قصبة درب –طبانة \"",
  "name_fr": "dar el kaid",
  "layer": "protected-cultural-property",
  "lat": 35.936242,
  "lng": 0.092952,
  "wilaya_code": "27",
  "wilaya_name_ar": "مستغانم",
  "wilaya_name_fr": "Mostaganem",
  "nid_ar": "192",
  "nid_fr": "1514",
  "match_m": 0,
  "source": "patrimoineculturelalgerien.org",
  "name": "dar el kaid",
  "has_virtual_tour": false
 },
 {
  "name_ar": "ضريح الباي بوشلاغم",
  "name_fr": "Mausolée du bey Mostapha Bouchlaghem",
  "layer": "protected-cultural-property",
  "lat": 35.933104,
  "lng": 0.094787,
  "wilaya_code": "27",
  "wilaya_name_ar": "مستغانم",
  "wilaya_name_fr": "Mostaganem",
  "nid_ar": "193",
  "nid_fr": "1515",
  "match_m": 0,
  "source": "patrimoineculturelalgerien.org",
  "name": "Mausolée du bey Mostapha Bouchlaghem",
  "has_virtual_tour": false
 },
 {
  "name_ar": "موقع ومتحف هيبون الأثري",
  "name_fr": "Musée des Ruines d'Hippone",
  "layer": "protected-cultural-property",
  "lat": 36.881788,
  "lng": 7.750959,
  "wilaya_code": "23",
  "wilaya_name_ar": "عنابة",
  "wilaya_name_fr": "Annaba",
  "nid_ar": "216",
  "nid_fr": "31",
  "match_m": 103,
  "source": "patrimoineculturelalgerien.org",
  "name": "Musée des Ruines d'Hippone",
  "has_virtual_tour": false
 },
 {
  "name_ar": "محطة النقوش الصخرية تيوت",
  "name_fr": "Station de gravures rupestres de Tiout",
  "layer": "protected-cultural-property",
  "lat": 32.76665,
  "lng": -0.39919,
  "wilaya_code": "45",
  "wilaya_name_ar": "النعامة",
  "wilaya_name_fr": "Naâma",
  "nid_ar": "220",
  "nid_fr": null,
  "match_m": null,
  "source": "patrimoineculturelalgerien.org",
  "name": "Station de gravures rupestres de Tiout",
  "has_virtual_tour": false
 },
 {
  "name_ar": "قصر المشرية الصغرى ولاية البيّض",
  "name_fr": "Ksar d'El Mecheria Soghra – wilaya d'El Bayadh",
  "layer": "protected-cultural-property",
  "lat": 33.576784,
  "lng": 1.014623,
  "wilaya_code": "32",
  "wilaya_name_ar": "البيض",
  "wilaya_name_fr": "El Bayadh",
  "nid_ar": "228",
  "nid_fr": null,
  "match_m": null,
  "source": "patrimoineculturelalgerien.org",
  "name": "Ksar d'El Mecheria Soghra – wilaya d'El Bayadh",
  "has_virtual_tour": false
 },
 {
  "name_ar": "فسيفساء سيدي زروق",
  "name_fr": "Mosaïque Sidi Zerrouk",
  "layer": "protected-cultural-property",
  "lat": 36.477419,
  "lng": 5.997181,
  "wilaya_code": "43",
  "wilaya_name_ar": "ميلة",
  "wilaya_name_fr": "Mila",
  "nid_ar": "231",
  "nid_fr": "1408",
  "match_m": 0,
  "source": "patrimoineculturelalgerien.org",
  "name": "Mosaïque Sidi Zerrouk",
  "has_virtual_tour": false
 },
 {
  "name_ar": "قصر الغاسول",
  "name_fr": "Ksar d'El Ghassoul",
  "layer": "protected-cultural-property",
  "lat": 33.386833,
  "lng": 1.195194,
  "wilaya_code": "32",
  "wilaya_name_ar": "البيض",
  "wilaya_name_fr": "El Bayadh",
  "nid_ar": "232",
  "nid_fr": null,
  "match_m": null,
  "source": "patrimoineculturelalgerien.org",
  "name": "Ksar d'El Ghassoul",
  "has_virtual_tour": false
 },
 {
  "name_ar": "القصر الأسعد",
  "name_fr": "Ksar El Asaad",
  "layer": "protected-cultural-property",
  "lat": 32.876306,
  "lng": -0.001194,
  "wilaya_code": "32",
  "wilaya_name_ar": "البيض",
  "wilaya_name_fr": "El Bayadh",
  "nid_ar": "233",
  "nid_fr": null,
  "match_m": null,
  "source": "patrimoineculturelalgerien.org",
  "name": "Ksar El Asaad",
  "has_virtual_tour": false
 },
 {
  "name_ar": "قصر عين حشيفة بالشلالة الڨبلية",
  "name_fr": "Ksar d'Aïn Hachifa à Chellala Gueblia",
  "layer": "protected-cultural-property",
  "lat": 33.030818,
  "lng": 0.168945,
  "wilaya_code": "32",
  "wilaya_name_ar": "البيض",
  "wilaya_name_fr": "El Bayadh",
  "nid_ar": "234",
  "nid_fr": null,
  "match_m": null,
  "source": "patrimoineculturelalgerien.org",
  "name": "Ksar d'Aïn Hachifa à Chellala Gueblia",
  "has_virtual_tour": false
 },
 {
  "name_ar": "مسجد سيدي غانم ( أبو المهاجر دينار )",
  "name_fr": "Mosquée Sidi Ghanem",
  "layer": "protected-cultural-property",
  "lat": 36.450339,
  "lng": 6.271525,
  "wilaya_code": "43",
  "wilaya_name_ar": "ميلة",
  "wilaya_name_fr": "Mila",
  "nid_ar": "235",
  "nid_fr": "1361",
  "match_m": 0,
  "source": "patrimoineculturelalgerien.org",
  "name": "Mosquée Sidi Ghanem",
  "has_virtual_tour": false
 },
 {
  "name_ar": "البرج التركي (برج حمزة)",
  "name_fr": "BORDJ HAMZA",
  "layer": "protected-cultural-property",
  "lat": 36.369623,
  "lng": 3.892806,
  "wilaya_code": "10",
  "wilaya_name_ar": "البويرة",
  "wilaya_name_fr": "Bouira",
  "nid_ar": "242",
  "nid_fr": "440",
  "match_m": 2,
  "source": "patrimoineculturelalgerien.org",
  "name": "BORDJ HAMZA",
  "has_virtual_tour": true
 },
 {
  "name_ar": "صهاريج هيبون",
  "name_fr": "Basilique Saint Augustin",
  "layer": "protected-cultural-property",
  "lat": 36.881922,
  "lng": 7.744932,
  "wilaya_code": "23",
  "wilaya_name_ar": "عنابة",
  "wilaya_name_fr": "Annaba",
  "nid_ar": "245",
  "nid_fr": "105",
  "match_m": 21,
  "source": "patrimoineculturelalgerien.org",
  "name": "Basilique Saint Augustin",
  "has_virtual_tour": false
 },
 {
  "name_ar": "القلعة الحفصية",
  "name_fr": "Citadelle hafside",
  "layer": "protected-cultural-property",
  "lat": 36.905739,
  "lng": 7.765767,
  "wilaya_code": "23",
  "wilaya_name_ar": "عنابة",
  "wilaya_name_fr": "Annaba",
  "nid_ar": "246",
  "nid_fr": null,
  "match_m": null,
  "source": "patrimoineculturelalgerien.org",
  "name": "Citadelle hafside",
  "has_virtual_tour": false
 },
 {
  "name_ar": "محطة الميلق",
  "name_fr": "Station d'El Milok",
  "layer": "protected-cultural-property",
  "lat": 33.862778,
  "lng": 2.749722,
  "wilaya_code": "03",
  "wilaya_name_ar": "الأغواط",
  "wilaya_name_fr": "Laghouat",
  "nid_ar": "247",
  "nid_fr": null,
  "match_m": null,
  "source": "patrimoineculturelalgerien.org",
  "name": "Station d'El Milok",
  "has_virtual_tour": false
 },
 {
  "name_ar": "الساعة القديمة",
  "name_fr": "Ancienne horloge",
  "layer": "protected-cultural-property",
  "lat": 33.805966,
  "lng": 2.883319,
  "wilaya_code": "03",
  "wilaya_name_ar": "الأغواط",
  "wilaya_name_fr": "Laghouat",
  "nid_ar": "248",
  "nid_fr": null,
  "match_m": null,
  "source": "patrimoineculturelalgerien.org",
  "name": "Ancienne horloge",
  "has_virtual_tour": false
 },
 {
  "name_ar": "زاوية سيدي إبراهيم بن تومي",
  "name_fr": "Zaouïa Sidi Brahim Ben Toumi",
  "layer": "protected-cultural-property",
  "lat": 36.88928,
  "lng": 7.748787,
  "wilaya_code": "23",
  "wilaya_name_ar": "عنابة",
  "wilaya_name_fr": "Annaba",
  "nid_ar": "249",
  "nid_fr": null,
  "match_m": null,
  "source": "patrimoineculturelalgerien.org",
  "name": "Zaouïa Sidi Brahim Ben Toumi",
  "has_virtual_tour": false
 },
 {
  "name_ar": "المسجد العتيق الأغواط",
  "name_fr": "Mosquée antique de Laghouat",
  "layer": "protected-cultural-property",
  "lat": 33.804569,
  "lng": 2.881035,
  "wilaya_code": "03",
  "wilaya_name_ar": "الأغواط",
  "wilaya_name_fr": "Laghouat",
  "nid_ar": "250",
  "nid_fr": null,
  "match_m": null,
  "source": "patrimoineculturelalgerien.org",
  "name": "Mosquée antique de Laghouat",
  "has_virtual_tour": false
 },
 {
  "name_ar": "جامع الباي",
  "name_fr": "Mosquée du Bey",
  "layer": "protected-cultural-property",
  "lat": 36.899122,
  "lng": 7.76243,
  "wilaya_code": "23",
  "wilaya_name_ar": "عنابة",
  "wilaya_name_fr": "Annaba",
  "nid_ar": "251",
  "nid_fr": null,
  "match_m": null,
  "source": "patrimoineculturelalgerien.org",
  "name": "Mosquée du Bey",
  "has_virtual_tour": false
 },
 {
  "name_ar": "حصن المعذبين",
  "name_fr": "Fort des Supplicés (Fort El Moâdhabine)",
  "layer": "protected-cultural-property",
  "lat": 36.901793,
  "lng": 7.755404,
  "wilaya_code": "23",
  "wilaya_name_ar": "عنابة",
  "wilaya_name_fr": "Annaba",
  "nid_ar": "252",
  "nid_fr": null,
  "match_m": null,
  "source": "patrimoineculturelalgerien.org",
  "name": "Fort des Supplicés (Fort El Moâdhabine)",
  "has_virtual_tour": false
 },
 {
  "name_ar": "مسجد الصفاح",
  "name_fr": "Mosquée Es Saffah",
  "layer": "protected-cultural-property",
  "lat": 33.804784,
  "lng": 2.881817,
  "wilaya_code": "03",
  "wilaya_name_ar": "الأغواط",
  "wilaya_name_fr": "Laghouat",
  "nid_ar": "253",
  "nid_fr": null,
  "match_m": null,
  "source": "patrimoineculturelalgerien.org",
  "name": "Mosquée Es Saffah",
  "has_virtual_tour": false
 },
 {
  "name_ar": "مسجد أبو مروان الشريف",
  "name_fr": "Mosquée Abou Marouane Echérif",
  "layer": "protected-cultural-property",
  "lat": 36.898679,
  "lng": 7.76411,
  "wilaya_code": "23",
  "wilaya_name_ar": "عنابة",
  "wilaya_name_fr": "Annaba",
  "nid_ar": "254",
  "nid_fr": null,
  "match_m": null,
  "source": "patrimoineculturelalgerien.org",
  "name": "Mosquée Abou Marouane Echérif",
  "has_virtual_tour": false
 },
 {
  "name_ar": "مسجد التاوتي",
  "name_fr": "Mosquée Et Taouti",
  "layer": "protected-cultural-property",
  "lat": 33.805496,
  "lng": 2.879343,
  "wilaya_code": "03",
  "wilaya_name_ar": "الأغواط",
  "wilaya_name_fr": "Laghouat",
  "nid_ar": "255",
  "nid_fr": null,
  "match_m": null,
  "source": "patrimoineculturelalgerien.org",
  "name": "Mosquée Et Taouti",
  "has_virtual_tour": false
 },
 {
  "name_ar": "المدينة القديمة \"بونة\"",
  "name_fr": "Vieille ville (Bône)",
  "layer": "protected-cultural-property",
  "lat": 36.899541,
  "lng": 7.762828,
  "wilaya_code": "23",
  "wilaya_name_ar": "عنابة",
  "wilaya_name_fr": "Annaba",
  "nid_ar": "256",
  "nid_fr": null,
  "match_m": null,
  "source": "patrimoineculturelalgerien.org",
  "name": "Vieille ville (Bône)",
  "has_virtual_tour": false
 },
 {
  "name_ar": "مسجد الشاذلية",
  "name_fr": "Mosquée Ech Chadhilia",
  "layer": "protected-cultural-property",
  "lat": 33.80646,
  "lng": 2.884176,
  "wilaya_code": "03",
  "wilaya_name_ar": "الأغواط",
  "wilaya_name_fr": "Laghouat",
  "nid_ar": "257",
  "nid_fr": null,
  "match_m": null,
  "source": "patrimoineculturelalgerien.org",
  "name": "Mosquée Ech Chadhilia",
  "has_virtual_tour": false
 },
 {
  "name_ar": "مسجد سيدي عبد القادر",
  "name_fr": "Mosquée Sidi Abdelkader",
  "layer": "protected-cultural-property",
  "lat": 33.807223,
  "lng": 2.883948,
  "wilaya_code": "03",
  "wilaya_name_ar": "الأغواط",
  "wilaya_name_fr": "Laghouat",
  "nid_ar": "258",
  "nid_fr": null,
  "match_m": null,
  "source": "patrimoineculturelalgerien.org",
  "name": "Mosquée Sidi Abdelkader",
  "has_virtual_tour": false
 },
 {
  "name_ar": "مسجد الخليفة",
  "name_fr": "Mosquée El Khalifa",
  "layer": "protected-cultural-property",
  "lat": 33.806675,
  "lng": 2.883531,
  "wilaya_code": "03",
  "wilaya_name_ar": "الأغواط",
  "wilaya_name_fr": "Laghouat",
  "nid_ar": "259",
  "nid_fr": null,
  "match_m": null,
  "source": "patrimoineculturelalgerien.org",
  "name": "Mosquée El Khalifa",
  "has_virtual_tour": false
 },
 {
  "name_ar": "دار الولي الصالح سيدي الحاج عيسى",
  "name_fr": "Demeure du saint Sidi El Hadj Aïssa",
  "layer": "protected-cultural-property",
  "lat": 33.807646,
  "lng": 2.883413,
  "wilaya_code": "03",
  "wilaya_name_ar": "الأغواط",
  "wilaya_name_fr": "Laghouat",
  "nid_ar": "260",
  "nid_fr": null,
  "match_m": null,
  "source": "patrimoineculturelalgerien.org",
  "name": "Demeure du saint Sidi El Hadj Aïssa",
  "has_virtual_tour": false
 },
 {
  "name_ar": "دار بوعامر",
  "name_fr": "Dar Bouamer",
  "layer": "protected-cultural-property",
  "lat": 33.804736,
  "lng": 2.880221,
  "wilaya_code": "03",
  "wilaya_name_ar": "الأغواط",
  "wilaya_name_fr": "Laghouat",
  "nid_ar": "261",
  "nid_fr": null,
  "match_m": null,
  "source": "patrimoineculturelalgerien.org",
  "name": "Dar Bouamer",
  "has_virtual_tour": false
 },
 {
  "name_ar": "قصر العسافية",
  "name_fr": "Ksar d'El Assafia",
  "layer": "protected-cultural-property",
  "lat": 33.824996,
  "lng": 2.991532,
  "wilaya_code": "03",
  "wilaya_name_ar": "الأغواط",
  "wilaya_name_fr": "Laghouat",
  "nid_ar": "264",
  "nid_fr": null,
  "match_m": null,
  "source": "patrimoineculturelalgerien.org",
  "name": "Ksar d'El Assafia",
  "has_virtual_tour": false
 },
 {
  "name_ar": "البرج القديم بسيدي مخلوف",
  "name_fr": "Ancien bordj de Sidi Makhlouf",
  "layer": "protected-cultural-property",
  "lat": 34.129266,
  "lng": 3.020563,
  "wilaya_code": "03",
  "wilaya_name_ar": "الأغواط",
  "wilaya_name_fr": "Laghouat",
  "nid_ar": "266",
  "nid_fr": null,
  "match_m": null,
  "source": "patrimoineculturelalgerien.org",
  "name": "Ancien bordj de Sidi Makhlouf",
  "has_virtual_tour": false
 },
 {
  "name_ar": "محطة كعلان",
  "name_fr": "Station de Kaâlan",
  "layer": "protected-cultural-property",
  "lat": 34.199236,
  "lng": 3.057526,
  "wilaya_code": "03",
  "wilaya_name_ar": "الأغواط",
  "wilaya_name_fr": "Laghouat",
  "nid_ar": "267",
  "nid_fr": null,
  "match_m": null,
  "source": "patrimoineculturelalgerien.org",
  "name": "Station de Kaâlan",
  "has_virtual_tour": false
 },
 {
  "name_ar": "قصر تاجرونة",
  "name_fr": "Ksar de Tadjrouna",
  "layer": "protected-cultural-property",
  "lat": 33.501751,
  "lng": 2.104216,
  "wilaya_code": "03",
  "wilaya_name_ar": "الأغواط",
  "wilaya_name_fr": "Laghouat",
  "nid_ar": "269",
  "nid_fr": null,
  "match_m": null,
  "source": "patrimoineculturelalgerien.org",
  "name": "Ksar de Tadjrouna",
  "has_virtual_tour": false
 },
 {
  "name_ar": "مدينة اسلامية تيحمامين",
  "name_fr": "Cité islamique de Tihmamine",
  "layer": "protected-cultural-property",
  "lat": 35.933778,
  "lng": 4.663917,
  "wilaya_code": "34",
  "wilaya_name_ar": "برج بوعريريج",
  "wilaya_name_fr": "Bordj Bou Arreridj",
  "nid_ar": "273",
  "nid_fr": null,
  "match_m": null,
  "source": "patrimoineculturelalgerien.org",
  "name": "Cité islamique de Tihmamine",
  "has_virtual_tour": false
 },
 {
  "name_ar": "خربة زمبيا",
  "name_fr": "Khirbet Zembia",
  "layer": "protected-cultural-property",
  "lat": 35.986056,
  "lng": 4.881833,
  "wilaya_code": "34",
  "wilaya_name_ar": "برج بوعريريج",
  "wilaya_name_fr": "Bordj Bou Arreridj",
  "nid_ar": "274",
  "nid_fr": null,
  "match_m": null,
  "source": "patrimoineculturelalgerien.org",
  "name": "Khirbet Zembia",
  "has_virtual_tour": false
 },
 {
  "name_ar": "برج المقراني",
  "name_fr": "Bordj El Mokrani",
  "layer": "protected-cultural-property",
  "lat": 36.072549,
  "lng": 4.761553,
  "wilaya_code": "34",
  "wilaya_name_ar": "برج بوعريريج",
  "wilaya_name_fr": "Bordj Bou Arreridj",
  "nid_ar": "275",
  "nid_fr": null,
  "match_m": null,
  "source": "patrimoineculturelalgerien.org",
  "name": "Bordj El Mokrani",
  "has_virtual_tour": false
 },
 {
  "name_ar": "قصر عزيزة",
  "name_fr": "Palais Aziza",
  "layer": "protected-cultural-property",
  "lat": 36.540239,
  "lng": 2.829378,
  "wilaya_code": "09",
  "wilaya_name_ar": "البليدة",
  "wilaya_name_fr": "Blida",
  "nid_ar": "277",
  "nid_fr": null,
  "match_m": null,
  "source": "patrimoineculturelalgerien.org",
  "name": "Palais Aziza",
  "has_virtual_tour": false
 },
 {
  "name_ar": "ضريح الولي الصالح سيدي أحمد الكبير",
  "name_fr": "Mausolée du saint Sidi Ahmed El Kébir",
  "layer": "protected-cultural-property",
  "lat": 36.459774,
  "lng": 2.849169,
  "wilaya_code": "09",
  "wilaya_name_ar": "البليدة",
  "wilaya_name_fr": "Blida",
  "nid_ar": "279",
  "nid_fr": null,
  "match_m": null,
  "source": "patrimoineculturelalgerien.org",
  "name": "Mausolée du saint Sidi Ahmed El Kébir",
  "has_virtual_tour": false
 },
 {
  "name_ar": "ضريح الولي الصالح سيدي يعقوب الشريف",
  "name_fr": "Mausolée du saint Sidi Yaâkoub Echérif",
  "layer": "protected-cultural-property",
  "lat": 36.469149,
  "lng": 2.821178,
  "wilaya_code": "09",
  "wilaya_name_ar": "البليدة",
  "wilaya_name_fr": "Blida",
  "nid_ar": "280",
  "nid_fr": null,
  "match_m": null,
  "source": "patrimoineculturelalgerien.org",
  "name": "Mausolée du saint Sidi Yaâkoub Echérif",
  "has_virtual_tour": false
 },
 {
  "name_ar": "المسجد الحنفي التركي",
  "name_fr": "Mosquée hanéfite turque",
  "layer": "protected-cultural-property",
  "lat": 36.471093,
  "lng": 2.829209,
  "wilaya_code": "09",
  "wilaya_name_ar": "البليدة",
  "wilaya_name_fr": "Blida",
  "nid_ar": "282",
  "nid_fr": null,
  "match_m": null,
  "source": "patrimoineculturelalgerien.org",
  "name": "Mosquée hanéfite turque",
  "has_virtual_tour": false
 },
 {
  "name_ar": "مسجد بن سعدون بن بابا علي",
  "name_fr": "Mosquée Ben Saâdoun Ben Baba Ali",
  "layer": "protected-cultural-property",
  "lat": 36.47166,
  "lng": 2.828832,
  "wilaya_code": "09",
  "wilaya_name_ar": "البليدة",
  "wilaya_name_fr": "Blida",
  "nid_ar": "283",
  "nid_fr": null,
  "match_m": null,
  "source": "patrimoineculturelalgerien.org",
  "name": "Mosquée Ben Saâdoun Ben Baba Ali",
  "has_virtual_tour": false
 },
 {
  "name_ar": "الحجرة المكتوبة بلدية تيوت",
  "name_fr": "El Hadjra El Maktouba (pierre gravée) – commune de Tiout",
  "layer": "protected-cultural-property",
  "lat": 32.78019,
  "lng": -0.41064,
  "wilaya_code": "45",
  "wilaya_name_ar": "النعامة",
  "wilaya_name_fr": "Naâma",
  "nid_ar": "287",
  "nid_fr": null,
  "match_m": null,
  "source": "patrimoineculturelalgerien.org",
  "name": "El Hadjra El Maktouba (pierre gravée) – commune de Tiout",
  "has_virtual_tour": false
 },
 {
  "name_ar": "لغرانيق بلدية تيوت1",
  "name_fr": "Les Grues (Lagharaniq) – commune de Tiout 1",
  "layer": "protected-cultural-property",
  "lat": 32.77126,
  "lng": -0.35735,
  "wilaya_code": "45",
  "wilaya_name_ar": "النعامة",
  "wilaya_name_fr": "Naâma",
  "nid_ar": "298",
  "nid_fr": null,
  "match_m": null,
  "source": "patrimoineculturelalgerien.org",
  "name": "Les Grues (Lagharaniq) – commune de Tiout 1",
  "has_virtual_tour": false
 },
 {
  "name_ar": "محطة لمحيصرات عين الصفراء",
  "name_fr": "Station de Lemhaïsrat – Aïn Sefra",
  "layer": "protected-cultural-property",
  "lat": 32.771947,
  "lng": -0.525801,
  "wilaya_code": "45",
  "wilaya_name_ar": "النعامة",
  "wilaya_name_fr": "Naâma",
  "nid_ar": "321",
  "nid_fr": null,
  "match_m": null,
  "source": "patrimoineculturelalgerien.org",
  "name": "Station de Lemhaïsrat – Aïn Sefra",
  "has_virtual_tour": false
 },
 {
  "name_ar": "قصر الآغا - فرجيوة",
  "name_fr": "Le palais d'El-Agha",
  "layer": "protected-cultural-property",
  "lat": 36.406825,
  "lng": 5.943828,
  "wilaya_code": "43",
  "wilaya_name_ar": "ميلة",
  "wilaya_name_fr": "Mila",
  "nid_ar": "326",
  "nid_fr": "1427",
  "match_m": 0,
  "source": "patrimoineculturelalgerien.org",
  "name": "Le palais d'El-Agha",
  "has_virtual_tour": false
 },
 {
  "name_ar": "حصن سانتاكروز",
  "name_fr": "Santa Cruz",
  "layer": "protected-cultural-property",
  "lat": 35.709501,
  "lng": -0.664473,
  "wilaya_code": "31",
  "wilaya_name_ar": "وهران",
  "wilaya_name_fr": "Oran",
  "nid_ar": "332",
  "nid_fr": "107",
  "match_m": 20,
  "source": "patrimoineculturelalgerien.org",
  "name": "Santa Cruz",
  "has_virtual_tour": false
 },
 {
  "name_ar": "قصر تيوت العتيق",
  "name_fr": "Ksar antique de Tiout",
  "layer": "protected-cultural-property",
  "lat": 32.750296,
  "lng": -0.427866,
  "wilaya_code": "45",
  "wilaya_name_ar": "النعامة",
  "wilaya_name_fr": "Naâma",
  "nid_ar": "341",
  "nid_fr": null,
  "match_m": null,
  "source": "patrimoineculturelalgerien.org",
  "name": "Ksar antique de Tiout",
  "has_virtual_tour": false
 },
 {
  "name_ar": "العين الرومانية \"عين البلد\"",
  "name_fr": "La fontaine romaine Ain el-Bled",
  "layer": "protected-cultural-property",
  "lat": 36.451928,
  "lng": 6.274097,
  "wilaya_code": "43",
  "wilaya_name_ar": "ميلة",
  "wilaya_name_fr": "Mila",
  "nid_ar": "342",
  "nid_fr": "1411",
  "match_m": 0,
  "source": "patrimoineculturelalgerien.org",
  "name": "La fontaine romaine Ain el-Bled",
  "has_virtual_tour": false
 },
 {
  "name_ar": "قصبة دلس العتيقة",
  "name_fr": "Casbah antique de Dellys",
  "layer": "protected-cultural-property",
  "lat": 36.913216,
  "lng": 3.902011,
  "wilaya_code": "35",
  "wilaya_name_ar": "بومرداس",
  "wilaya_name_fr": "Boumerdès",
  "nid_ar": "345",
  "nid_fr": null,
  "match_m": null,
  "source": "patrimoineculturelalgerien.org",
  "name": "Casbah antique de Dellys",
  "has_virtual_tour": false
 },
 {
  "name_ar": "الموقع الأثري لمشتة البعالة",
  "name_fr": "Site archéologique d'El-Baala",
  "layer": "protected-cultural-property",
  "lat": 36.2977,
  "lng": 6.224736,
  "wilaya_code": "43",
  "wilaya_name_ar": "ميلة",
  "wilaya_name_fr": "Mila",
  "nid_ar": "348",
  "nid_fr": "1433",
  "match_m": 0,
  "source": "patrimoineculturelalgerien.org",
  "name": "Site archéologique d'El-Baala",
  "has_virtual_tour": false
 },
 {
  "name_ar": "قصر اربوات",
  "name_fr": "Ksar d'Arbaouat",
  "layer": "protected-cultural-property",
  "lat": 33.089579,
  "lng": 0.580182,
  "wilaya_code": "32",
  "wilaya_name_ar": "البيض",
  "wilaya_name_fr": "El Bayadh",
  "nid_ar": "354",
  "nid_fr": null,
  "match_m": null,
  "source": "patrimoineculturelalgerien.org",
  "name": "Ksar d'Arbaouat",
  "has_virtual_tour": false
 },
 {
  "name_ar": "قوس النصر كاراكلا",
  "name_fr": "Arc de triomphe de Caracalla",
  "layer": "protected-cultural-property",
  "lat": 35.404729,
  "lng": 8.123109,
  "wilaya_code": "12",
  "wilaya_name_ar": "تبسة",
  "wilaya_name_fr": "Tébessa",
  "nid_ar": "356",
  "nid_fr": null,
  "match_m": null,
  "source": "patrimoineculturelalgerien.org",
  "name": "Arc de triomphe de Caracalla",
  "has_virtual_tour": false
 },
 {
  "name_ar": "باب سولومو",
  "name_fr": "Porte de Solomon",
  "layer": "protected-cultural-property",
  "lat": 35.402695,
  "lng": 8.122879,
  "wilaya_code": "12",
  "wilaya_name_ar": "تبسة",
  "wilaya_name_fr": "Tébessa",
  "nid_ar": "357",
  "nid_fr": null,
  "match_m": null,
  "source": "patrimoineculturelalgerien.org",
  "name": "Porte de Solomon",
  "has_virtual_tour": false
 },
 {
  "name_ar": "باب شالة",
  "name_fr": "Porte de Chala",
  "layer": "protected-cultural-property",
  "lat": 35.402752,
  "lng": 8.12124,
  "wilaya_code": "12",
  "wilaya_name_ar": "تبسة",
  "wilaya_name_fr": "Tébessa",
  "nid_ar": "358",
  "nid_fr": null,
  "match_m": null,
  "source": "patrimoineculturelalgerien.org",
  "name": "Porte de Chala",
  "has_virtual_tour": false
 },
 {
  "name_ar": "باب قسنطينة",
  "name_fr": "Porte de Constantine",
  "layer": "protected-cultural-property",
  "lat": 35.404252,
  "lng": 8.120227,
  "wilaya_code": "12",
  "wilaya_name_ar": "تبسة",
  "wilaya_name_fr": "Tébessa",
  "nid_ar": "360",
  "nid_fr": null,
  "match_m": null,
  "source": "patrimoineculturelalgerien.org",
  "name": "Porte de Constantine",
  "has_virtual_tour": false
 },
 {
  "name_ar": "السور البزنطي",
  "name_fr": "Rempart byzantin",
  "layer": "protected-cultural-property",
  "lat": 35.405409,
  "lng": 8.121968,
  "wilaya_code": "12",
  "wilaya_name_ar": "تبسة",
  "wilaya_name_fr": "Tébessa",
  "nid_ar": "361",
  "nid_fr": null,
  "match_m": null,
  "source": "patrimoineculturelalgerien.org",
  "name": "Rempart byzantin",
  "has_virtual_tour": false
 },
 {
  "name_ar": "سيدي عبد الله",
  "name_fr": "Sidi Abdallah",
  "layer": "protected-cultural-property",
  "lat": 35.672453,
  "lng": 8.012443,
  "wilaya_code": "12",
  "wilaya_name_ar": "تبسة",
  "wilaya_name_fr": "Tébessa",
  "nid_ar": "362",
  "nid_fr": null,
  "match_m": null,
  "source": "patrimoineculturelalgerien.org",
  "name": "Sidi Abdallah",
  "has_virtual_tour": false
 },
 {
  "name_ar": "الحديقة الأثرية",
  "name_fr": "Jardin archéologique",
  "layer": "protected-cultural-property",
  "lat": 35.404974,
  "lng": 8.119441,
  "wilaya_code": "12",
  "wilaya_name_ar": "تبسة",
  "wilaya_name_fr": "Tébessa",
  "nid_ar": "363",
  "nid_fr": null,
  "match_m": null,
  "source": "patrimoineculturelalgerien.org",
  "name": "Jardin archéologique",
  "has_virtual_tour": false
 },
 {
  "name_ar": "الكنيسة المسيحية",
  "name_fr": "Église chrétienne",
  "layer": "protected-cultural-property",
  "lat": 35.405232,
  "lng": 8.121503,
  "wilaya_code": "12",
  "wilaya_name_ar": "تبسة",
  "wilaya_name_fr": "Tébessa",
  "nid_ar": "365",
  "nid_fr": null,
  "match_m": null,
  "source": "patrimoineculturelalgerien.org",
  "name": "Église chrétienne",
  "has_virtual_tour": false
 },
 {
  "name_ar": "المسرح الروماني المدرج",
  "name_fr": "Amphithéâtre romain",
  "layer": "protected-cultural-property",
  "lat": 35.401143,
  "lng": 8.123788,
  "wilaya_code": "12",
  "wilaya_name_ar": "تبسة",
  "wilaya_name_fr": "Tébessa",
  "nid_ar": "367",
  "nid_fr": null,
  "match_m": null,
  "source": "patrimoineculturelalgerien.org",
  "name": "Amphithéâtre romain",
  "has_virtual_tour": false
 },
 {
  "name_ar": "القصر القديم",
  "name_fr": "Vieux palais",
  "layer": "protected-cultural-property",
  "lat": 35.399394,
  "lng": 8.120594,
  "wilaya_code": "12",
  "wilaya_name_ar": "تبسة",
  "wilaya_name_fr": "Tébessa",
  "nid_ar": "369",
  "nid_fr": null,
  "match_m": null,
  "source": "patrimoineculturelalgerien.org",
  "name": "Vieux palais",
  "has_virtual_tour": false
 },
 {
  "name_ar": "تبسة الخالية",
  "name_fr": "Tébessa Khalia (cité antique)",
  "layer": "protected-cultural-property",
  "lat": 35.383173,
  "lng": 8.099902,
  "wilaya_code": "12",
  "wilaya_name_ar": "تبسة",
  "wilaya_name_fr": "Tébessa",
  "nid_ar": "370",
  "nid_fr": null,
  "match_m": null,
  "source": "patrimoineculturelalgerien.org",
  "name": "Tébessa Khalia (cité antique)",
  "has_virtual_tour": false
 },
 {
  "name_ar": "برج جبل مستيري",
  "name_fr": "Bordj de Djebel Mestiri",
  "layer": "protected-cultural-property",
  "lat": 35.417731,
  "lng": 7.991828,
  "wilaya_code": "12",
  "wilaya_name_ar": "تبسة",
  "wilaya_name_fr": "Tébessa",
  "nid_ar": "373",
  "nid_fr": null,
  "match_m": null,
  "source": "patrimoineculturelalgerien.org",
  "name": "Bordj de Djebel Mestiri",
  "has_virtual_tour": false
 },
 {
  "name_ar": "البازيليك المسيحية",
  "name_fr": "Basilique chrétienne",
  "layer": "protected-cultural-property",
  "lat": 35.409324,
  "lng": 8.126861,
  "wilaya_code": "12",
  "wilaya_name_ar": "تبسة",
  "wilaya_name_fr": "Tébessa",
  "nid_ar": "375",
  "nid_fr": null,
  "match_m": null,
  "source": "patrimoineculturelalgerien.org",
  "name": "Basilique chrétienne",
  "has_virtual_tour": false
 },
 {
  "name_ar": "المتحف البلدي (الكنيسة القديمة)",
  "name_fr": "Musée communal (ancienne église)",
  "layer": "protected-cultural-property",
  "lat": 33.806831,
  "lng": 2.882993,
  "wilaya_code": "03",
  "wilaya_name_ar": "الأغواط",
  "wilaya_name_fr": "Laghouat",
  "nid_ar": "376",
  "nid_fr": null,
  "match_m": null,
  "source": "patrimoineculturelalgerien.org",
  "name": "Musée communal (ancienne église)",
  "has_virtual_tour": false
 },
 {
  "name_ar": "معصرة برزقان",
  "name_fr": "Pressoir de Berzgane",
  "layer": "protected-cultural-property",
  "lat": 35.121296,
  "lng": 8.218144,
  "wilaya_code": "12",
  "wilaya_name_ar": "تبسة",
  "wilaya_name_fr": "Tébessa",
  "nid_ar": "378",
  "nid_fr": null,
  "match_m": null,
  "source": "patrimoineculturelalgerien.org",
  "name": "Pressoir de Berzgane",
  "has_virtual_tour": false
 },
 {
  "name_ar": "قصر كوردان",
  "name_fr": "Ksar de Kourdane",
  "layer": "protected-cultural-property",
  "lat": 33.849803,
  "lng": 2.340597,
  "wilaya_code": "03",
  "wilaya_name_ar": "الأغواط",
  "wilaya_name_fr": "Laghouat",
  "nid_ar": "379",
  "nid_fr": null,
  "match_m": null,
  "source": "patrimoineculturelalgerien.org",
  "name": "Ksar de Kourdane",
  "has_virtual_tour": false
 },
 {
  "name_ar": "قصور نقرين",
  "name_fr": "Ksour de Negrine",
  "layer": "protected-cultural-property",
  "lat": 34.476372,
  "lng": 7.506661,
  "wilaya_code": "12",
  "wilaya_name_ar": "تبسة",
  "wilaya_name_fr": "Tébessa",
  "nid_ar": "380",
  "nid_fr": null,
  "match_m": null,
  "source": "patrimoineculturelalgerien.org",
  "name": "Ksour de Negrine",
  "has_virtual_tour": false
 },
 {
  "name_ar": "محطة صفية البارود",
  "name_fr": "Station de Safiet El Baroud",
  "layer": "protected-cultural-property",
  "lat": 34.110944,
  "lng": 3.076543,
  "wilaya_code": "03",
  "wilaya_name_ar": "الأغواط",
  "wilaya_name_fr": "Laghouat",
  "nid_ar": "382",
  "nid_fr": null,
  "match_m": null,
  "source": "patrimoineculturelalgerien.org",
  "name": "Station de Safiet El Baroud",
  "has_virtual_tour": false
 },
 {
  "name_ar": "مقبرة الدكتور سعدان",
  "name_fr": "Tombeau du docteur Saâdane",
  "layer": "protected-cultural-property",
  "lat": 35.406346,
  "lng": 8.118244,
  "wilaya_code": "12",
  "wilaya_name_ar": "تبسة",
  "wilaya_name_fr": "Tébessa",
  "nid_ar": "383",
  "nid_fr": null,
  "match_m": null,
  "source": "patrimoineculturelalgerien.org",
  "name": "Tombeau du docteur Saâdane",
  "has_virtual_tour": false
 },
 {
  "name_ar": "معبد مينارف",
  "name_fr": "Temple de Minerve",
  "layer": "protected-cultural-property",
  "lat": 35.404663,
  "lng": 8.122497,
  "wilaya_code": "12",
  "wilaya_name_ar": "تبسة",
  "wilaya_name_fr": "Tébessa",
  "nid_ar": "384",
  "nid_fr": null,
  "match_m": null,
  "source": "patrimoineculturelalgerien.org",
  "name": "Temple de Minerve",
  "has_virtual_tour": false
 },
 {
  "name_ar": "الزاوية التجانية",
  "name_fr": "Zaouïa Tidjania",
  "layer": "protected-cultural-property",
  "lat": 33.794057,
  "lng": 2.301312,
  "wilaya_code": "03",
  "wilaya_name_ar": "الأغواط",
  "wilaya_name_fr": "Laghouat",
  "nid_ar": "385",
  "nid_fr": null,
  "match_m": null,
  "source": "patrimoineculturelalgerien.org",
  "name": "Zaouïa Tidjania",
  "has_virtual_tour": false
 },
 {
  "name_ar": "كنيسة القديس أوغستين",
  "name_fr": "Basilique Saint-Augustin",
  "layer": "protected-cultural-property",
  "lat": 36.881805,
  "lng": 7.744749,
  "wilaya_code": "23",
  "wilaya_name_ar": "عنابة",
  "wilaya_name_fr": "Annaba",
  "nid_ar": "388",
  "nid_fr": null,
  "match_m": null,
  "source": "patrimoineculturelalgerien.org",
  "name": "Basilique Saint-Augustin",
  "has_virtual_tour": true
 },
 {
  "name_ar": "قناة جلب المياه الرومانية لبوزيزي ببلدية سيرايدي",
  "name_fr": "Aqueduc romain de Bouzizi – commune de Séraïdi",
  "layer": "protected-cultural-property",
  "lat": 36.903488,
  "lng": 7.650338,
  "wilaya_code": "23",
  "wilaya_name_ar": "عنابة",
  "wilaya_name_fr": "Annaba",
  "nid_ar": "390",
  "nid_fr": null,
  "match_m": null,
  "source": "patrimoineculturelalgerien.org",
  "name": "Aqueduc romain de Bouzizi – commune de Séraïdi",
  "has_virtual_tour": false
 },
 {
  "name_ar": "مواقع تاريخية برأس الحمراء",
  "name_fr": "Sites historiques du Cap de Garde (Ras El Hamra)",
  "layer": "protected-cultural-property",
  "lat": 36.961301,
  "lng": 7.775893,
  "wilaya_code": "23",
  "wilaya_name_ar": "عنابة",
  "wilaya_name_fr": "Annaba",
  "nid_ar": "391",
  "nid_fr": null,
  "match_m": null,
  "source": "patrimoineculturelalgerien.org",
  "name": "Sites historiques du Cap de Garde (Ras El Hamra)",
  "has_virtual_tour": false
 },
 {
  "name_ar": "محطة القطار عنابة",
  "name_fr": "Gare ferroviaire d'Annaba",
  "layer": "protected-cultural-property",
  "lat": 36.896004,
  "lng": 7.758911,
  "wilaya_code": "23",
  "wilaya_name_ar": "عنابة",
  "wilaya_name_fr": "Annaba",
  "nid_ar": "394",
  "nid_fr": null,
  "match_m": null,
  "source": "patrimoineculturelalgerien.org",
  "name": "Gare ferroviaire d'Annaba",
  "has_virtual_tour": false
 },
 {
  "name_ar": "دار الباي او دار الامير عبدالقادر",
  "name_fr": "Minaret de la vieille mosquée",
  "layer": "protected-cultural-property",
  "lat": 36.261662,
  "lng": 2.75139,
  "wilaya_code": "26",
  "wilaya_name_ar": "المدية",
  "wilaya_name_fr": "Médéa",
  "nid_ar": "420",
  "nid_fr": "538",
  "match_m": 129,
  "source": "patrimoineculturelalgerien.org",
  "name": "Minaret de la vieille mosquée",
  "has_virtual_tour": false
 },
 {
  "name_ar": "الموقع الأثري خميسة",
  "name_fr": "Site Archéologique Khemissa (Thubursicu Numidarum)",
  "layer": "protected-cultural-property",
  "lat": 36.194167,
  "lng": 7.655222,
  "wilaya_code": "41",
  "wilaya_name_ar": "سوق أهراس",
  "wilaya_name_fr": "Souk Ahras",
  "nid_ar": "423",
  "nid_fr": "1401",
  "match_m": 0,
  "source": "patrimoineculturelalgerien.org",
  "name": "Site Archéologique Khemissa (Thubursicu Numidarum)",
  "has_virtual_tour": false
 },
 {
  "name_ar": "الموقع الأثري مادور",
  "name_fr": "Site Archéologique Madaure ( Madorus)",
  "layer": "protected-cultural-property",
  "lat": 36.078889,
  "lng": 7.900944,
  "wilaya_code": "41",
  "wilaya_name_ar": "سوق أهراس",
  "wilaya_name_fr": "Souk Ahras",
  "nid_ar": "424",
  "nid_fr": "1400",
  "match_m": 0,
  "source": "patrimoineculturelalgerien.org",
  "name": "Site Archéologique Madaure ( Madorus)",
  "has_virtual_tour": false
 },
 {
  "name_ar": "الموقع الأثري تاورة",
  "name_fr": "Site Archéologique Taoura (Thagura)",
  "layer": "protected-cultural-property",
  "lat": 36.176417,
  "lng": 8.035917,
  "wilaya_code": "41",
  "wilaya_name_ar": "سوق أهراس",
  "wilaya_name_fr": "Souk Ahras",
  "nid_ar": "425",
  "nid_fr": "1399",
  "match_m": 0,
  "source": "patrimoineculturelalgerien.org",
  "name": "Site Archéologique Taoura (Thagura)",
  "has_virtual_tour": false
 },
 {
  "name_ar": "الموقع الأثري تيفاش ( تيبازة النوميدية)",
  "name_fr": "Site Archéologique Tiffeche ( Tipaza de Numidie )",
  "layer": "protected-cultural-property",
  "lat": 36.160333,
  "lng": 7.702833,
  "wilaya_code": "41",
  "wilaya_name_ar": "سوق أهراس",
  "wilaya_name_fr": "Souk Ahras",
  "nid_ar": "426",
  "nid_fr": "1398",
  "match_m": 0,
  "source": "patrimoineculturelalgerien.org",
  "name": "Site Archéologique Tiffeche ( Tipaza de Numidie )",
  "has_virtual_tour": false
 },
 {
  "name_ar": "ضريح قصر لحمر",
  "name_fr": "Mausolée K'sar Lahmar",
  "layer": "protected-cultural-property",
  "lat": 36.061903,
  "lng": 8.103654,
  "wilaya_code": "41",
  "wilaya_name_ar": "سوق أهراس",
  "wilaya_name_fr": "Souk Ahras",
  "nid_ar": "427",
  "nid_fr": "1396",
  "match_m": 0,
  "source": "patrimoineculturelalgerien.org",
  "name": "Mausolée K'sar Lahmar",
  "has_virtual_tour": false
 },
 {
  "name_ar": "موقع ديانا فيتيرانوروم",
  "name_fr": "Site de Diana Veteranorum",
  "layer": "protected-cultural-property",
  "lat": 35.774444,
  "lng": 6.075556,
  "wilaya_code": "05",
  "wilaya_name_ar": "باتنة",
  "wilaya_name_fr": "Batna",
  "nid_ar": "428",
  "nid_fr": null,
  "match_m": null,
  "source": "patrimoineculturelalgerien.org",
  "name": "Site de Diana Veteranorum",
  "has_virtual_tour": false
 },
 {
  "name_ar": "موقع لمبيز - تازولت",
  "name_fr": "Site de Lambèse – Tazoult",
  "layer": "protected-cultural-property",
  "lat": 35.497222,
  "lng": 6.273333,
  "wilaya_code": "05",
  "wilaya_name_ar": "باتنة",
  "wilaya_name_fr": "Batna",
  "nid_ar": "429",
  "nid_fr": null,
  "match_m": null,
  "source": "patrimoineculturelalgerien.org",
  "name": "Site de Lambèse – Tazoult",
  "has_virtual_tour": false
 },
 {
  "name_ar": "اشير",
  "name_fr": "Achir",
  "layer": "protected-cultural-property",
  "lat": 35.945338,
  "lng": 3.284611,
  "wilaya_code": "26",
  "wilaya_name_ar": "المدية",
  "wilaya_name_fr": "Médéa",
  "nid_ar": "430",
  "nid_fr": "122",
  "match_m": 0,
  "source": "patrimoineculturelalgerien.org",
  "name": "Achir",
  "has_virtual_tour": false
 },
 {
  "name_ar": "موقع البنية",
  "name_fr": "Site de Benia",
  "layer": "protected-cultural-property",
  "lat": 35.923576,
  "lng": 3.289032,
  "wilaya_code": "26",
  "wilaya_name_ar": "المدية",
  "wilaya_name_fr": "Médéa",
  "nid_ar": "431",
  "nid_fr": "432",
  "match_m": 0,
  "source": "patrimoineculturelalgerien.org",
  "name": "Site de Benia",
  "has_virtual_tour": false
 },
 {
  "name_ar": "ضريح سيدي  عبد القادر بن محمد المكنى سيدي الشيخ",
  "name_fr": "Mausolée de Sidi Abdelkader Ben Mohamed dit Sidi Cheikh",
  "layer": "protected-cultural-property",
  "lat": 32.891639,
  "lng": 0.54525,
  "wilaya_code": "32",
  "wilaya_name_ar": "البيض",
  "wilaya_name_fr": "El Bayadh",
  "nid_ar": "435",
  "nid_fr": null,
  "match_m": null,
  "source": "patrimoineculturelalgerien.org",
  "name": "Mausolée de Sidi Abdelkader Ben Mohamed dit Sidi Cheikh",
  "has_virtual_tour": false
 },
 {
  "name_ar": "محطة النقش الصخري شبكة الديغم",
  "name_fr": "Station de gravures rupestres de Chebket Edighem",
  "layer": "protected-cultural-property",
  "lat": 33.318824,
  "lng": 0.363383,
  "wilaya_code": "32",
  "wilaya_name_ar": "البيض",
  "wilaya_name_fr": "El Bayadh",
  "nid_ar": "439",
  "nid_fr": null,
  "match_m": null,
  "source": "patrimoineculturelalgerien.org",
  "name": "Station de gravures rupestres de Chebket Edighem",
  "has_virtual_tour": false
 },
 {
  "name_ar": "منارة بن غوث",
  "name_fr": "PHARE BENGUT",
  "layer": "protected-cultural-property",
  "lat": 36.922277,
  "lng": 3.89335,
  "wilaya_code": "35",
  "wilaya_name_ar": "بومرداس",
  "wilaya_name_fr": "Boumerdès",
  "nid_ar": "441",
  "nid_fr": "442",
  "match_m": 0,
  "source": "patrimoineculturelalgerien.org",
  "name": "PHARE BENGUT",
  "has_virtual_tour": false
 },
 {
  "name_ar": "قصر الصفيصيفة العتيق",
  "name_fr": "Ksar antique de Sfissifa",
  "layer": "protected-cultural-property",
  "lat": 32.73092,
  "lng": -0.86986,
  "wilaya_code": "45",
  "wilaya_name_ar": "النعامة",
  "wilaya_name_fr": "Naâma",
  "nid_ar": "443",
  "nid_fr": null,
  "match_m": null,
  "source": "patrimoineculturelalgerien.org",
  "name": "Ksar antique de Sfissifa",
  "has_virtual_tour": false
 },
 {
  "name_ar": "حمام بني قشة",
  "name_fr": "Hammam Beni Guecha",
  "layer": "protected-cultural-property",
  "lat": 36.419575,
  "lng": 5.989239,
  "wilaya_code": "43",
  "wilaya_name_ar": "ميلة",
  "wilaya_name_fr": "Mila",
  "nid_ar": "448",
  "nid_fr": "1430",
  "match_m": 0,
  "source": "patrimoineculturelalgerien.org",
  "name": "Hammam Beni Guecha",
  "has_virtual_tour": false
 },
 {
  "name_ar": "الموقع الأثري رابيدوم",
  "name_fr": "Rapidum",
  "layer": "protected-cultural-property",
  "lat": 36.136315,
  "lng": 3.417607,
  "wilaya_code": "26",
  "wilaya_name_ar": "المدية",
  "wilaya_name_fr": "Médéa",
  "nid_ar": "450",
  "nid_fr": "451",
  "match_m": 0,
  "source": "patrimoineculturelalgerien.org",
  "name": "Rapidum",
  "has_virtual_tour": false
 },
 {
  "name_ar": "ابـار أغـــلاد",
  "name_fr": "Les puits d' Aghlad",
  "layer": "protected-cultural-property",
  "lat": 35.955081,
  "lng": 6.179697,
  "wilaya_code": "43",
  "wilaya_name_ar": "ميلة",
  "wilaya_name_fr": "Mila",
  "nid_ar": "458",
  "nid_fr": "1467",
  "match_m": 0,
  "source": "patrimoineculturelalgerien.org",
  "name": "Les puits d' Aghlad",
  "has_virtual_tour": false
 },
 {
  "name_ar": "تمثال ملو",
  "name_fr": "La statue de M'lou",
  "layer": "protected-cultural-property",
  "lat": 36.450172,
  "lng": 6.271353,
  "wilaya_code": "43",
  "wilaya_name_ar": "ميلة",
  "wilaya_name_fr": "Mila",
  "nid_ar": "462",
  "nid_fr": "1468",
  "match_m": 0,
  "source": "patrimoineculturelalgerien.org",
  "name": "La statue de M'lou",
  "has_virtual_tour": false
 },
 {
  "name_ar": "قصر مغرار التحتاني ( قلعة الشيخ بوعمامة )",
  "name_fr": "Ksar de Moghrar Tahtani (citadelle de Cheikh Bouamama)",
  "layer": "protected-cultural-property",
  "lat": 32.49338,
  "lng": -0.46712,
  "wilaya_code": "45",
  "wilaya_name_ar": "النعامة",
  "wilaya_name_fr": "Naâma",
  "nid_ar": "469",
  "nid_fr": null,
  "match_m": null,
  "source": "patrimoineculturelalgerien.org",
  "name": "Ksar de Moghrar Tahtani (citadelle de Cheikh Bouamama)",
  "has_virtual_tour": false
 },
 {
  "name_ar": "حمام الصالحين",
  "name_fr": "Hammam Essalihine (Aquae Flavianae)",
  "layer": "protected-cultural-property",
  "lat": 35.440528,
  "lng": 7.084742,
  "wilaya_code": "40",
  "wilaya_name_ar": "خنشلة",
  "wilaya_name_fr": "Khenchela",
  "nid_ar": "478",
  "nid_fr": "550",
  "match_m": 34,
  "source": "patrimoineculturelalgerien.org",
  "name": "Hammam Essalihine (Aquae Flavianae)",
  "has_virtual_tour": false
 },
 {
  "name_ar": "قصر مغرار الفوقاني",
  "name_fr": "Ksar de Moghrar Foukani",
  "layer": "protected-cultural-property",
  "lat": 32.51644,
  "lng": -0.58741,
  "wilaya_code": "45",
  "wilaya_name_ar": "النعامة",
  "wilaya_name_fr": "Naâma",
  "nid_ar": "480",
  "nid_fr": null,
  "match_m": null,
  "source": "patrimoineculturelalgerien.org",
  "name": "Ksar de Moghrar Foukani",
  "has_virtual_tour": false
 },
 {
  "name_ar": "ضريح سيدياس",
  "name_fr": "Mausolée Cédais (KSAR DJAZIA)",
  "layer": "protected-cultural-property",
  "lat": 35.322257,
  "lng": 7.234933,
  "wilaya_code": "40",
  "wilaya_name_ar": "خنشلة",
  "wilaya_name_fr": "Khenchela",
  "nid_ar": "484",
  "nid_fr": "1350",
  "match_m": 0,
  "source": "patrimoineculturelalgerien.org",
  "name": "Mausolée Cédais (KSAR DJAZIA)",
  "has_virtual_tour": false
 },
 {
  "name_ar": "مكتبة المطالعة العمومية  بالمشرية",
  "name_fr": "Bibliothèque de lecture publique de Mécheria",
  "layer": "protected-cultural-property",
  "lat": 33.546444,
  "lng": -0.27239,
  "wilaya_code": "45",
  "wilaya_name_ar": "النعامة",
  "wilaya_name_fr": "Naâma",
  "nid_ar": "485",
  "nid_fr": null,
  "match_m": null,
  "source": "patrimoineculturelalgerien.org",
  "name": "Bibliothèque de lecture publique de Mécheria",
  "has_virtual_tour": false
 },
 {
  "name_ar": "الموقع الأثري بوتخماتن",
  "name_fr": "Site archéologique de Boutakhmaten",
  "layer": "protected-cultural-property",
  "lat": 35.945597,
  "lng": 6.187664,
  "wilaya_code": "43",
  "wilaya_name_ar": "ميلة",
  "wilaya_name_fr": "Mila",
  "nid_ar": "488",
  "nid_fr": "1470",
  "match_m": 0,
  "source": "patrimoineculturelalgerien.org",
  "name": "Site archéologique de Boutakhmaten",
  "has_virtual_tour": false
 },
 {
  "name_ar": "قصر بغاي",
  "name_fr": "Palais De Baghay",
  "layer": "protected-cultural-property",
  "lat": 35.539661,
  "lng": 7.120611,
  "wilaya_code": "40",
  "wilaya_name_ar": "خنشلة",
  "wilaya_name_fr": "Khenchela",
  "nid_ar": "498",
  "nid_fr": "1349",
  "match_m": 0,
  "source": "patrimoineculturelalgerien.org",
  "name": "Palais De Baghay",
  "has_virtual_tour": false
 },
 {
  "name_ar": "مسجد الاعظم",
  "name_fr": "Grande Mosquée",
  "layer": "protected-cultural-property",
  "lat": 35.195496,
  "lng": -0.630941,
  "wilaya_code": "22",
  "wilaya_name_ar": "سيدي بلعباس",
  "wilaya_name_fr": "Sidi Bel Abbès",
  "nid_ar": "515",
  "nid_fr": null,
  "match_m": null,
  "source": "patrimoineculturelalgerien.org",
  "name": "Grande Mosquée",
  "has_virtual_tour": false
 },
 {
  "name_ar": "قصر لومي",
  "name_fr": "Palais Lommi",
  "layer": "protected-cultural-property",
  "lat": 35.208382,
  "lng": -0.624164,
  "wilaya_code": "22",
  "wilaya_name_ar": "سيدي بلعباس",
  "wilaya_name_fr": "Sidi Bel Abbès",
  "nid_ar": "516",
  "nid_fr": null,
  "match_m": null,
  "source": "patrimoineculturelalgerien.org",
  "name": "Palais Lommi",
  "has_virtual_tour": false
 },
 {
  "name_ar": "قصر البلدية",
  "name_fr": "Palais de la commune (hôtel de ville)",
  "layer": "protected-cultural-property",
  "lat": 35.191245,
  "lng": -0.631442,
  "wilaya_code": "22",
  "wilaya_name_ar": "سيدي بلعباس",
  "wilaya_name_fr": "Sidi Bel Abbès",
  "nid_ar": "517",
  "nid_fr": null,
  "match_m": null,
  "source": "patrimoineculturelalgerien.org",
  "name": "Palais de la commune (hôtel de ville)",
  "has_virtual_tour": false
 },
 {
  "name_ar": "قصر تحت وصاية جمعية الطيبي العربي",
  "name_fr": "Palais sous tutelle de l'association Tayebi El Arbi",
  "layer": "protected-cultural-property",
  "lat": 35.194652,
  "lng": -0.63432,
  "wilaya_code": "22",
  "wilaya_name_ar": "سيدي بلعباس",
  "wilaya_name_fr": "Sidi Bel Abbès",
  "nid_ar": "518",
  "nid_fr": null,
  "match_m": null,
  "source": "patrimoineculturelalgerien.org",
  "name": "Palais sous tutelle de l'association Tayebi El Arbi",
  "has_virtual_tour": false
 },
 {
  "name_ar": "قصر الجمارك باستيد",
  "name_fr": "Palais des douanes de La Bastide",
  "layer": "protected-cultural-property",
  "lat": 35.188141,
  "lng": -0.626823,
  "wilaya_code": "22",
  "wilaya_name_ar": "سيدي بلعباس",
  "wilaya_name_fr": "Sidi Bel Abbès",
  "nid_ar": "535",
  "nid_fr": null,
  "match_m": null,
  "source": "patrimoineculturelalgerien.org",
  "name": "Palais des douanes de La Bastide",
  "has_virtual_tour": false
 },
 {
  "name_ar": "منارة الجامع العتيق",
  "name_fr": "Minaret de la Mosquée antique",
  "layer": "protected-cultural-property",
  "lat": 36.261858,
  "lng": 2.74997,
  "wilaya_code": "26",
  "wilaya_name_ar": "المدية",
  "wilaya_name_fr": "Médéa",
  "nid_ar": "537",
  "nid_fr": null,
  "match_m": null,
  "source": "patrimoineculturelalgerien.org",
  "name": "Minaret de la Mosquée antique",
  "has_virtual_tour": false
 },
 {
  "name_ar": "برج المراقبة",
  "name_fr": "Fort  de Surveillance",
  "layer": "protected-cultural-property",
  "lat": 36.259898,
  "lng": 2.764982,
  "wilaya_code": "26",
  "wilaya_name_ar": "المدية",
  "wilaya_name_fr": "Médéa",
  "nid_ar": "539",
  "nid_fr": "540",
  "match_m": 0,
  "source": "patrimoineculturelalgerien.org",
  "name": "Fort  de Surveillance",
  "has_virtual_tour": false
 },
 {
  "name_ar": "ضريح سيدي الصحراوي",
  "name_fr": "Mausolée Sidi Sahraoui",
  "layer": "protected-cultural-property",
  "lat": 36.259703,
  "lng": 2.749448,
  "wilaya_code": "26",
  "wilaya_name_ar": "المدية",
  "wilaya_name_fr": "Médéa",
  "nid_ar": "542",
  "nid_fr": "543",
  "match_m": 0,
  "source": "patrimoineculturelalgerien.org",
  "name": "Mausolée Sidi Sahraoui",
  "has_virtual_tour": false
 },
 {
  "name_ar": "قصر سيدي بوتخيل بالعين الصفراء",
  "name_fr": "Ksar de Sidi Boutkhil – Aïn Sefra",
  "layer": "protected-cultural-property",
  "lat": 32.743917,
  "lng": -0.581306,
  "wilaya_code": "45",
  "wilaya_name_ar": "النعامة",
  "wilaya_name_fr": "Naâma",
  "nid_ar": "545",
  "nid_fr": null,
  "match_m": null,
  "source": "patrimoineculturelalgerien.org",
  "name": "Ksar de Sidi Boutkhil – Aïn Sefra",
  "has_virtual_tour": false
 },
 {
  "name_ar": "الحنايا الرومانية",
  "name_fr": "Réservoirs d’Eau  de la Porte El Akwas",
  "layer": "protected-cultural-property",
  "lat": 36.264171,
  "lng": 2.750352,
  "wilaya_code": "26",
  "wilaya_name_ar": "المدية",
  "wilaya_name_fr": "Médéa",
  "nid_ar": "546",
  "nid_fr": "547",
  "match_m": 0,
  "source": "patrimoineculturelalgerien.org",
  "name": "Réservoirs d’Eau  de la Porte El Akwas",
  "has_virtual_tour": false
 },
 {
  "name_ar": "جزيرة رشقون",
  "name_fr": "Île de Rachgoun",
  "layer": "protected-cultural-property",
  "lat": 35.323886,
  "lng": -1.479888,
  "wilaya_code": "46",
  "wilaya_name_ar": "عين تموشنت",
  "wilaya_name_fr": "Aïn Témouchent",
  "nid_ar": "553",
  "nid_fr": null,
  "match_m": null,
  "source": "patrimoineculturelalgerien.org",
  "name": "Île de Rachgoun",
  "has_virtual_tour": false
 },
 {
  "name_ar": "الموقع الأثري الكتف",
  "name_fr": "Le site archéologique des tombes funéraires Mégalithiques \" EL KETFE \"",
  "layer": "protected-cultural-property",
  "lat": 35.490768,
  "lng": 7.26538,
  "wilaya_code": "40",
  "wilaya_name_ar": "خنشلة",
  "wilaya_name_fr": "Khenchela",
  "nid_ar": "555",
  "nid_fr": "1347",
  "match_m": 0,
  "source": "patrimoineculturelalgerien.org",
  "name": "Le site archéologique des tombes funéraires Mégalithiques \" EL KETFE \"",
  "has_virtual_tour": false
 },
 {
  "name_ar": "الضريح الملكي سيفاكس",
  "name_fr": "Mausolée royal de Syphax",
  "layer": "protected-cultural-property",
  "lat": 35.261807,
  "lng": -1.434404,
  "wilaya_code": "46",
  "wilaya_name_ar": "عين تموشنت",
  "wilaya_name_fr": "Aïn Témouchent",
  "nid_ar": "556",
  "nid_fr": null,
  "match_m": null,
  "source": "patrimoineculturelalgerien.org",
  "name": "Mausolée royal de Syphax",
  "has_virtual_tour": false
 },
 {
  "name_ar": "قصر الشلالة",
  "name_fr": "Ksar de Chellala",
  "layer": "protected-cultural-property",
  "lat": 33.035889,
  "lng": 0.059083,
  "wilaya_code": "32",
  "wilaya_name_ar": "البيض",
  "wilaya_name_fr": "El Bayadh",
  "nid_ar": "557",
  "nid_fr": null,
  "match_m": null,
  "source": "patrimoineculturelalgerien.org",
  "name": "Ksar de Chellala",
  "has_virtual_tour": false
 },
 {
  "name_ar": "سيدي يعقوب",
  "name_fr": "Sidi Yaâkoub",
  "layer": "protected-cultural-property",
  "lat": 35.255125,
  "lng": -1.548129,
  "wilaya_code": "46",
  "wilaya_name_ar": "عين تموشنت",
  "wilaya_name_fr": "Aïn Témouchent",
  "nid_ar": "559",
  "nid_fr": null,
  "match_m": null,
  "source": "patrimoineculturelalgerien.org",
  "name": "Sidi Yaâkoub",
  "has_virtual_tour": false
 },
 {
  "name_ar": "المعالم التاريخية الأثرية لقرية تابردقة",
  "name_fr": "Les Monuments historiques et archéologique du village de taberdaga",
  "layer": "protected-cultural-property",
  "lat": 35.022016,
  "lng": 7.020253,
  "wilaya_code": "40",
  "wilaya_name_ar": "خنشلة",
  "wilaya_name_fr": "Khenchela",
  "nid_ar": "560",
  "nid_fr": "1341",
  "match_m": 0,
  "source": "patrimoineculturelalgerien.org",
  "name": "Les Monuments historiques et archéologique du village de taberdaga",
  "has_virtual_tour": false
 },
 {
  "name_ar": "قصر بوسمغون",
  "name_fr": "Ksar de Bousemghoun",
  "layer": "protected-cultural-property",
  "lat": 32.863389,
  "lng": 0.019833,
  "wilaya_code": "32",
  "wilaya_name_ar": "البيض",
  "wilaya_name_fr": "El Bayadh",
  "nid_ar": "561",
  "nid_fr": null,
  "match_m": null,
  "source": "patrimoineculturelalgerien.org",
  "name": "Ksar de Bousemghoun",
  "has_virtual_tour": false
 },
 {
  "name_ar": "موقع عين الكيحل",
  "name_fr": "Site d'Aïn El Kihal",
  "layer": "protected-cultural-property",
  "lat": 35.202759,
  "lng": -1.195826,
  "wilaya_code": "46",
  "wilaya_name_ar": "عين تموشنت",
  "wilaya_name_fr": "Aïn Témouchent",
  "nid_ar": "562",
  "nid_fr": null,
  "match_m": null,
  "source": "patrimoineculturelalgerien.org",
  "name": "Site d'Aïn El Kihal",
  "has_virtual_tour": false
 },
 {
  "name_ar": "قصر استيتن",
  "name_fr": "Ksar de Stitten",
  "layer": "protected-cultural-property",
  "lat": 33.758972,
  "lng": 1.224222,
  "wilaya_code": "32",
  "wilaya_name_ar": "البيض",
  "wilaya_name_fr": "El Bayadh",
  "nid_ar": "563",
  "nid_fr": null,
  "match_m": null,
  "source": "patrimoineculturelalgerien.org",
  "name": "Ksar de Stitten",
  "has_virtual_tour": false
 },
 {
  "name_ar": "موقع الروماني أغبال",
  "name_fr": "Site romain d'Aghbal",
  "layer": "protected-cultural-property",
  "lat": 35.457181,
  "lng": -0.618975,
  "wilaya_code": "46",
  "wilaya_name_ar": "عين تموشنت",
  "wilaya_name_fr": "Aïn Témouchent",
  "nid_ar": "564",
  "nid_fr": null,
  "match_m": null,
  "source": "patrimoineculturelalgerien.org",
  "name": "Site romain d'Aghbal",
  "has_virtual_tour": false
 },
 {
  "name_ar": "حصن بنت الخص",
  "name_fr": "Fort de Bent El Khass",
  "layer": "protected-cultural-property",
  "lat": 33.059583,
  "lng": 1.183167,
  "wilaya_code": "32",
  "wilaya_name_ar": "البيض",
  "wilaya_name_fr": "El Bayadh",
  "nid_ar": "565",
  "nid_fr": null,
  "match_m": null,
  "source": "patrimoineculturelalgerien.org",
  "name": "Fort de Bent El Khass",
  "has_virtual_tour": false
 },
 {
  "name_ar": "موقع سيقا الأثري",
  "name_fr": "Siga",
  "layer": "protected-cultural-property",
  "lat": 35.265805,
  "lng": -1.448745,
  "wilaya_code": "46",
  "wilaya_name_ar": "عين تموشنت",
  "wilaya_name_fr": "Aïn Témouchent",
  "nid_ar": "567",
  "nid_fr": "102",
  "match_m": 0,
  "source": "patrimoineculturelalgerien.org",
  "name": "Siga",
  "has_virtual_tour": false
 },
 {
  "name_ar": "حوش الباي",
  "name_fr": "Hosh du Bey",
  "layer": "protected-cultural-property",
  "lat": 36.258563,
  "lng": 2.766407,
  "wilaya_code": "26",
  "wilaya_name_ar": "المدية",
  "wilaya_name_fr": "Médéa",
  "nid_ar": "568",
  "nid_fr": null,
  "match_m": null,
  "source": "patrimoineculturelalgerien.org",
  "name": "Hosh du Bey",
  "has_virtual_tour": false
 },
 {
  "name_ar": "المدينة الاثرية السفلى لامبيز تازولت",
  "name_fr": "Cité antique basse de Lambèse – Tazoult",
  "layer": "protected-cultural-property",
  "lat": 35.490194,
  "lng": 6.254682,
  "wilaya_code": "05",
  "wilaya_name_ar": "باتنة",
  "wilaya_name_fr": "Batna",
  "nid_ar": "570",
  "nid_fr": null,
  "match_m": null,
  "source": "patrimoineculturelalgerien.org",
  "name": "Cité antique basse de Lambèse – Tazoult",
  "has_virtual_tour": false
 },
 {
  "name_ar": "موقع ديانا فيتيرانوروم – زانة",
  "name_fr": "Site de Diana Veteranorum – Zana",
  "layer": "protected-cultural-property",
  "lat": 35.774444,
  "lng": 6.075556,
  "wilaya_code": "05",
  "wilaya_name_ar": "باتنة",
  "wilaya_name_fr": "Batna",
  "nid_ar": "581",
  "nid_fr": null,
  "match_m": null,
  "source": "patrimoineculturelalgerien.org",
  "name": "Site de Diana Veteranorum – Zana",
  "has_virtual_tour": false
 },
 {
  "name_ar": "المدينة العتيقة المدية",
  "name_fr": "Vieille ville de Médéa",
  "layer": "protected-cultural-property",
  "lat": 36.262996,
  "lng": 2.751596,
  "wilaya_code": "26",
  "wilaya_name_ar": "المدية",
  "wilaya_name_fr": "Médéa",
  "nid_ar": "584",
  "nid_fr": "585",
  "match_m": 0,
  "source": "patrimoineculturelalgerien.org",
  "name": "Vieille ville de Médéa",
  "has_virtual_tour": false
 },
 {
  "name_ar": "الموقع الاثري سانق",
  "name_fr": "Site Archéologique Saneg",
  "layer": "protected-cultural-property",
  "lat": 35.849715,
  "lng": 2.88824,
  "wilaya_code": "26",
  "wilaya_name_ar": "المدية",
  "wilaya_name_fr": "Médéa",
  "nid_ar": "586",
  "nid_fr": "587",
  "match_m": 0,
  "source": "patrimoineculturelalgerien.org",
  "name": "Site Archéologique Saneg",
  "has_virtual_tour": false
 },
 {
  "name_ar": "الزاوية التجانية بقمار",
  "name_fr": "Zaouïa Tidjania de Guemar",
  "layer": "protected-cultural-property",
  "lat": 33.490656,
  "lng": 6.8049,
  "wilaya_code": "39",
  "wilaya_name_ar": "الوادي",
  "wilaya_name_fr": "El Oued",
  "nid_ar": "599",
  "nid_fr": null,
  "match_m": null,
  "source": "patrimoineculturelalgerien.org",
  "name": "Zaouïa Tidjania de Guemar",
  "has_virtual_tour": false
 },
 {
  "name_ar": "الحي العتيق الاعشاش - المصاعبة",
  "name_fr": "Quartier antique d'El Achach – El Messaaba",
  "layer": "protected-cultural-property",
  "lat": 33.363681,
  "lng": 6.862575,
  "wilaya_code": "39",
  "wilaya_name_ar": "الوادي",
  "wilaya_name_fr": "El Oued",
  "nid_ar": "601",
  "nid_fr": null,
  "match_m": null,
  "source": "patrimoineculturelalgerien.org",
  "name": "Quartier antique d'El Achach – El Messaaba",
  "has_virtual_tour": false
 },
 {
  "name_ar": "كدية الثعلوب",
  "name_fr": "Kedia d'Ethaâloub",
  "layer": "protected-cultural-property",
  "lat": 35.614285,
  "lng": 4.600417,
  "wilaya_code": "28",
  "wilaya_name_ar": "المسيلة",
  "wilaya_name_fr": "M'Sila",
  "nid_ar": "602",
  "nid_fr": null,
  "match_m": null,
  "source": "patrimoineculturelalgerien.org",
  "name": "Kedia d'Ethaâloub",
  "has_virtual_tour": false
 },
 {
  "name_ar": "معلم الكوليج",
  "name_fr": "Monument du Collège",
  "layer": "protected-cultural-property",
  "lat": 36.269112,
  "lng": 4.845676,
  "wilaya_code": "34",
  "wilaya_name_ar": "برج بوعريريج",
  "wilaya_name_fr": "Bordj Bou Arreridj",
  "nid_ar": "616",
  "nid_fr": null,
  "match_m": null,
  "source": "patrimoineculturelalgerien.org",
  "name": "Monument du Collège",
  "has_virtual_tour": false
 },
 {
  "name_ar": "قرية القليعة",
  "name_fr": "Village d'El Guelaâ",
  "layer": "protected-cultural-property",
  "lat": 36.269711,
  "lng": 4.823029,
  "wilaya_code": "34",
  "wilaya_name_ar": "برج بوعريريج",
  "wilaya_name_fr": "Bordj Bou Arreridj",
  "nid_ar": "621",
  "nid_fr": null,
  "match_m": null,
  "source": "patrimoineculturelalgerien.org",
  "name": "Village d'El Guelaâ",
  "has_virtual_tour": false
 },
 {
  "name_ar": "مقبرة الجر وصفية الأنشاش",
  "name_fr": "Nécropole d'El Djer et Safiet El Anchach",
  "layer": "protected-cultural-property",
  "lat": 35.816398,
  "lng": 4.807545,
  "wilaya_code": "28",
  "wilaya_name_ar": "المسيلة",
  "wilaya_name_fr": "M'Sila",
  "nid_ar": "622",
  "nid_fr": null,
  "match_m": null,
  "source": "patrimoineculturelalgerien.org",
  "name": "Nécropole d'El Djer et Safiet El Anchach",
  "has_virtual_tour": false
 },
 {
  "name_ar": "هنشير الرمادة",
  "name_fr": "Henchir El Remada",
  "layer": "protected-cultural-property",
  "lat": 35.618679,
  "lng": 5.091944,
  "wilaya_code": "28",
  "wilaya_name_ar": "المسيلة",
  "wilaya_name_fr": "M'Sila",
  "nid_ar": "628",
  "nid_fr": null,
  "match_m": null,
  "source": "patrimoineculturelalgerien.org",
  "name": "Henchir El Remada",
  "has_virtual_tour": false
 },
 {
  "name_ar": "السور البيزنطي",
  "name_fr": "Le mur bizantin",
  "layer": "protected-cultural-property",
  "lat": 36.45,
  "lng": 6.271056,
  "wilaya_code": "43",
  "wilaya_name_ar": "ميلة",
  "wilaya_name_fr": "Mila",
  "nid_ar": "629",
  "nid_fr": "1469",
  "match_m": 0,
  "source": "patrimoineculturelalgerien.org",
  "name": "Le mur bizantin",
  "has_virtual_tour": false
 },
 {
  "name_ar": "خربة الرصاص",
  "name_fr": "Khirbet Errsas",
  "layer": "protected-cultural-property",
  "lat": 35.552983,
  "lng": 4.662736,
  "wilaya_code": "28",
  "wilaya_name_ar": "المسيلة",
  "wilaya_name_fr": "M'Sila",
  "nid_ar": "630",
  "nid_fr": null,
  "match_m": null,
  "source": "patrimoineculturelalgerien.org",
  "name": "Khirbet Errsas",
  "has_virtual_tour": false
 },
 {
  "name_ar": "محطة النقوش الحجرية (حاسي البشير)",
  "name_fr": "Station de gravures rupestres (Hassi El Bachir)",
  "layer": "protected-cultural-property",
  "lat": 32.52367,
  "lng": -0.49495,
  "wilaya_code": "45",
  "wilaya_name_ar": "النعامة",
  "wilaya_name_fr": "Naâma",
  "nid_ar": "634",
  "nid_fr": null,
  "match_m": null,
  "source": "patrimoineculturelalgerien.org",
  "name": "Station de gravures rupestres (Hassi El Bachir)",
  "has_virtual_tour": false
 },
 {
  "name_ar": "طاحونة فيريرو",
  "name_fr": "Moulin Ferrero",
  "layer": "protected-cultural-property",
  "lat": 35.191942,
  "lng": 4.165453,
  "wilaya_code": "28",
  "wilaya_name_ar": "المسيلة",
  "wilaya_name_fr": "M'Sila",
  "nid_ar": "635",
  "nid_fr": null,
  "match_m": null,
  "source": "patrimoineculturelalgerien.org",
  "name": "Moulin Ferrero",
  "has_virtual_tour": false
 },
 {
  "name_ar": "حلزونيات الجفين",
  "name_fr": "Escargotière d'El Djefine",
  "layer": "protected-cultural-property",
  "lat": 35.838182,
  "lng": 4.793989,
  "wilaya_code": "28",
  "wilaya_name_ar": "المسيلة",
  "wilaya_name_fr": "M'Sila",
  "nid_ar": "638",
  "nid_fr": null,
  "match_m": null,
  "source": "patrimoineculturelalgerien.org",
  "name": "Escargotière d'El Djefine",
  "has_virtual_tour": false
 },
 {
  "name_ar": "معتقل الجرف",
  "name_fr": "Camp d'internement d'El Djorf",
  "layer": "protected-cultural-property",
  "lat": 35.683921,
  "lng": 4.742504,
  "wilaya_code": "28",
  "wilaya_name_ar": "المسيلة",
  "wilaya_name_fr": "M'Sila",
  "nid_ar": "644",
  "nid_fr": null,
  "match_m": null,
  "source": "patrimoineculturelalgerien.org",
  "name": "Camp d'internement d'El Djorf",
  "has_virtual_tour": false
 },
 {
  "name_ar": "القاهرة",
  "name_fr": "El Qahira",
  "layer": "protected-cultural-property",
  "lat": 34.875607,
  "lng": 4.434024,
  "wilaya_code": "28",
  "wilaya_name_ar": "المسيلة",
  "wilaya_name_fr": "M'Sila",
  "nid_ar": "646",
  "nid_fr": null,
  "match_m": null,
  "source": "patrimoineculturelalgerien.org",
  "name": "El Qahira",
  "has_virtual_tour": false
 },
 {
  "name_ar": "المسرح الروماني",
  "name_fr": "Théâtre romain",
  "layer": "protected-cultural-property",
  "lat": 36.467194,
  "lng": 7.430194,
  "wilaya_code": "24",
  "wilaya_name_ar": "قالمة",
  "wilaya_name_fr": "Guelma",
  "nid_ar": "654",
  "nid_fr": null,
  "match_m": null,
  "source": "patrimoineculturelalgerien.org",
  "name": "Théâtre romain",
  "has_virtual_tour": false
 },
 {
  "name_ar": "حمامات رومانية",
  "name_fr": "Thermes romains",
  "layer": "protected-cultural-property",
  "lat": 36.462892,
  "lng": 7.430708,
  "wilaya_code": "24",
  "wilaya_name_ar": "قالمة",
  "wilaya_name_fr": "Guelma",
  "nid_ar": "657",
  "nid_fr": null,
  "match_m": null,
  "source": "patrimoineculturelalgerien.org",
  "name": "Thermes romains",
  "has_virtual_tour": false
 },
 {
  "name_ar": "المسبح الروماني",
  "name_fr": "Piscine romaine",
  "layer": "protected-cultural-property",
  "lat": 36.521047,
  "lng": 7.449022,
  "wilaya_code": "24",
  "wilaya_name_ar": "قالمة",
  "wilaya_name_fr": "Guelma",
  "nid_ar": "659",
  "nid_fr": null,
  "match_m": null,
  "source": "patrimoineculturelalgerien.org",
  "name": "Piscine romaine",
  "has_virtual_tour": false
 },
 {
  "name_ar": "موقع تيبيليس بسلاوة عنونة",
  "name_fr": "Site de Tibilis à Sellaoua Announa",
  "layer": "protected-cultural-property",
  "lat": 36.393386,
  "lng": 7.258906,
  "wilaya_code": "24",
  "wilaya_name_ar": "قالمة",
  "wilaya_name_fr": "Guelma",
  "nid_ar": "660",
  "nid_fr": null,
  "match_m": null,
  "source": "patrimoineculturelalgerien.org",
  "name": "Site de Tibilis à Sellaoua Announa",
  "has_virtual_tour": false
 },
 {
  "name_ar": "المقبرة الميقاليتية بالركنية",
  "name_fr": "Nécropole mégalithique de Roknia",
  "layer": "protected-cultural-property",
  "lat": 36.514679,
  "lng": 7.214572,
  "wilaya_code": "24",
  "wilaya_name_ar": "قالمة",
  "wilaya_name_fr": "Guelma",
  "nid_ar": "661",
  "nid_fr": null,
  "match_m": null,
  "source": "patrimoineculturelalgerien.org",
  "name": "Nécropole mégalithique de Roknia",
  "has_virtual_tour": false
 },
 {
  "name_ar": "عين النشمة",
  "name_fr": "Aïn Nechma",
  "layer": "protected-cultural-property",
  "lat": 36.439869,
  "lng": 7.393094,
  "wilaya_code": "24",
  "wilaya_name_ar": "قالمة",
  "wilaya_name_fr": "Guelma",
  "nid_ar": "663",
  "nid_fr": null,
  "match_m": null,
  "source": "patrimoineculturelalgerien.org",
  "name": "Aïn Nechma",
  "has_virtual_tour": false
 },
 {
  "name_ar": "غار الجماعة",
  "name_fr": "Grotte d'El Djemaâ",
  "layer": "protected-cultural-property",
  "lat": 36.507842,
  "lng": 7.119491,
  "wilaya_code": "24",
  "wilaya_name_ar": "قالمة",
  "wilaya_name_fr": "Guelma",
  "nid_ar": "664",
  "nid_fr": null,
  "match_m": null,
  "source": "patrimoineculturelalgerien.org",
  "name": "Grotte d'El Djemaâ",
  "has_virtual_tour": false
 },
 {
  "name_ar": "حمام الدباغ",
  "name_fr": "Hammam Debagh",
  "layer": "protected-cultural-property",
  "lat": 36.460078,
  "lng": 7.269316,
  "wilaya_code": "24",
  "wilaya_name_ar": "قالمة",
  "wilaya_name_fr": "Guelma",
  "nid_ar": "665",
  "nid_fr": null,
  "match_m": null,
  "source": "patrimoineculturelalgerien.org",
  "name": "Hammam Debagh",
  "has_virtual_tour": false
 },
 {
  "name_ar": "الحديقة الاثرية",
  "name_fr": "Jardin archéologique",
  "layer": "protected-cultural-property",
  "lat": 36.466583,
  "lng": 7.430389,
  "wilaya_code": "24",
  "wilaya_name_ar": "قالمة",
  "wilaya_name_fr": "Guelma",
  "nid_ar": "667",
  "nid_fr": null,
  "match_m": null,
  "source": "patrimoineculturelalgerien.org",
  "name": "Jardin archéologique",
  "has_virtual_tour": false
 },
 {
  "name_ar": "زاوية الشيخ الحفناوي",
  "name_fr": "Zaouïa Cheikh El Hefnaoui",
  "layer": "protected-cultural-property",
  "lat": 36.417919,
  "lng": 7.633447,
  "wilaya_code": "24",
  "wilaya_name_ar": "قالمة",
  "wilaya_name_fr": "Guelma",
  "nid_ar": "668",
  "nid_fr": null,
  "match_m": null,
  "source": "patrimoineculturelalgerien.org",
  "name": "Zaouïa Cheikh El Hefnaoui",
  "has_virtual_tour": false
 },
 {
  "name_ar": "القصر القديم بالمنيعة",
  "name_fr": "Ksar antique d'El Menia",
  "layer": "protected-cultural-property",
  "lat": 30.582778,
  "lng": 2.893333,
  "wilaya_code": "47",
  "wilaya_name_ar": "غرداية",
  "wilaya_name_fr": "Ghardaïa",
  "nid_ar": "673",
  "nid_fr": null,
  "match_m": null,
  "source": "patrimoineculturelalgerien.org",
  "name": "Ksar antique d'El Menia",
  "has_virtual_tour": false
 },
 {
  "name_ar": "بابي معسكر و تيارت",
  "name_fr": "Théâtre Régional de Saïda",
  "layer": "protected-cultural-property",
  "lat": 34.83002,
  "lng": 0.155092,
  "wilaya_code": "20",
  "wilaya_name_ar": "سعيدة",
  "wilaya_name_fr": "Saïda",
  "nid_ar": "690",
  "nid_fr": "79",
  "match_m": 111,
  "source": "patrimoineculturelalgerien.org",
  "name": "Théâtre Régional de Saïda",
  "has_virtual_tour": false
 },
 {
  "name_ar": "خلوة ابن خلدون",
  "name_fr": "Khalwa d'Ibn Khaldoun",
  "layer": "protected-cultural-property",
  "lat": 35.018738,
  "lng": 1.067439,
  "wilaya_code": "14",
  "wilaya_name_ar": "تيارت",
  "wilaya_name_fr": "Tiaret",
  "nid_ar": "694",
  "nid_fr": null,
  "match_m": null,
  "source": "patrimoineculturelalgerien.org",
  "name": "Khalwa d'Ibn Khaldoun",
  "has_virtual_tour": false
 },
 {
  "name_ar": "المسجد العتيق",
  "name_fr": "Mosquée antique",
  "layer": "protected-cultural-property",
  "lat": 34.832874,
  "lng": 0.152333,
  "wilaya_code": "20",
  "wilaya_name_ar": "سعيدة",
  "wilaya_name_fr": "Saïda",
  "nid_ar": "703",
  "nid_fr": null,
  "match_m": null,
  "source": "patrimoineculturelalgerien.org",
  "name": "Mosquée antique",
  "has_virtual_tour": false
 },
 {
  "name_ar": "آثار منصورة",
  "name_fr": "Le Minaret de Mansourah",
  "layer": "protected-cultural-property",
  "lat": 34.870768,
  "lng": -1.338939,
  "wilaya_code": "13",
  "wilaya_name_ar": "تلمسان",
  "wilaya_name_fr": "Tlemcen",
  "nid_ar": "714",
  "nid_fr": "103",
  "match_m": 0,
  "source": "patrimoineculturelalgerien.org",
  "name": "Le Minaret de Mansourah",
  "has_virtual_tour": false
 },
 {
  "name_ar": "قلعة المشور تلمسان",
  "name_fr": "Palais royal du Mechouar",
  "layer": "protected-cultural-property",
  "lat": 34.881607,
  "lng": -1.308965,
  "wilaya_code": "13",
  "wilaya_name_ar": "تلمسان",
  "wilaya_name_fr": "Tlemcen",
  "nid_ar": "715",
  "nid_fr": "95",
  "match_m": 0,
  "source": "patrimoineculturelalgerien.org",
  "name": "Palais royal du Mechouar",
  "has_virtual_tour": true
 },
 {
  "name_ar": "منارة الجامع العتيق بأقادير",
  "name_fr": "Le phare de l'ancienne mosquée d'Agadir:",
  "layer": "protected-cultural-property",
  "lat": 34.889444,
  "lng": -1.300056,
  "wilaya_code": "13",
  "wilaya_name_ar": "تلمسان",
  "wilaya_name_fr": "Tlemcen",
  "nid_ar": "716",
  "nid_fr": "1472",
  "match_m": 0,
  "source": "patrimoineculturelalgerien.org",
  "name": "Le phare de l'ancienne mosquée d'Agadir:",
  "has_virtual_tour": false
 },
 {
  "name_ar": "مجمع سيدي بومدين",
  "name_fr": "Mosquée Sidi Boumediene",
  "layer": "protected-cultural-property",
  "lat": 34.878056,
  "lng": -1.289611,
  "wilaya_code": "13",
  "wilaya_name_ar": "تلمسان",
  "wilaya_name_fr": "Tlemcen",
  "nid_ar": "717",
  "nid_fr": "96",
  "match_m": 21,
  "source": "patrimoineculturelalgerien.org",
  "name": "Mosquée Sidi Boumediene",
  "has_virtual_tour": false
 },
 {
  "name_ar": "قبة سيدي الداودي",
  "name_fr": "Le dôme de Sidi Al-Daoudi",
  "layer": "protected-cultural-property",
  "lat": 34.890861,
  "lng": -1.302,
  "wilaya_code": "13",
  "wilaya_name_ar": "تلمسان",
  "wilaya_name_fr": "Tlemcen",
  "nid_ar": "718",
  "nid_fr": "1473",
  "match_m": 0,
  "source": "patrimoineculturelalgerien.org",
  "name": "Le dôme de Sidi Al-Daoudi",
  "has_virtual_tour": false
 },
 {
  "name_ar": "مسجد و ضريح سيدي ابراهيم المصمودي",
  "name_fr": "Mosquée et mausolée de Sidi Brahim El Masmoudi",
  "layer": "protected-cultural-property",
  "lat": 34.881806,
  "lng": -1.311139,
  "wilaya_code": "13",
  "wilaya_name_ar": "تلمسان",
  "wilaya_name_fr": "Tlemcen",
  "nid_ar": "719",
  "nid_fr": null,
  "match_m": null,
  "source": "patrimoineculturelalgerien.org",
  "name": "Mosquée et mausolée de Sidi Brahim El Masmoudi",
  "has_virtual_tour": false
 },
 {
  "name_ar": "الحوض الكبير",
  "name_fr": "Grand bassin",
  "layer": "protected-cultural-property",
  "lat": 34.880528,
  "lng": -1.317333,
  "wilaya_code": "13",
  "wilaya_name_ar": "تلمسان",
  "wilaya_name_fr": "Tlemcen",
  "nid_ar": "720",
  "nid_fr": "1476",
  "match_m": 0,
  "source": "patrimoineculturelalgerien.org",
  "name": "Grand bassin",
  "has_virtual_tour": false
 },
 {
  "name_ar": "المسجد الأعظم ومرافقه",
  "name_fr": "La Grande Mosquée et ses installations",
  "layer": "protected-cultural-property",
  "lat": 34.884,
  "lng": -1.310389,
  "wilaya_code": "13",
  "wilaya_name_ar": "تلمسان",
  "wilaya_name_fr": "Tlemcen",
  "nid_ar": "721",
  "nid_fr": "1479",
  "match_m": 0,
  "source": "patrimoineculturelalgerien.org",
  "name": "La Grande Mosquée et ses installations",
  "has_virtual_tour": false
 },
 {
  "name_ar": "مسجد سيدي الحلوي",
  "name_fr": "Mosquée Sidi El Haloui",
  "layer": "protected-cultural-property",
  "lat": 34.888444,
  "lng": -1.307917,
  "wilaya_code": "13",
  "wilaya_name_ar": "تلمسان",
  "wilaya_name_fr": "Tlemcen",
  "nid_ar": "722",
  "nid_fr": null,
  "match_m": null,
  "source": "patrimoineculturelalgerien.org",
  "name": "Mosquée Sidi El Haloui",
  "has_virtual_tour": false
 },
 {
  "name_ar": "باب القرمادين",
  "name_fr": "Babe el karmadine",
  "layer": "protected-cultural-property",
  "lat": 34.886611,
  "lng": -1.316583,
  "wilaya_code": "13",
  "wilaya_name_ar": "تلمسان",
  "wilaya_name_fr": "Tlemcen",
  "nid_ar": "723",
  "nid_fr": "1501",
  "match_m": 14,
  "source": "patrimoineculturelalgerien.org",
  "name": "Babe el karmadine",
  "has_virtual_tour": false
 },
 {
  "name_ar": "باب الخميس",
  "name_fr": "Bab El Khemis",
  "layer": "protected-cultural-property",
  "lat": 34.874139,
  "lng": -1.325167,
  "wilaya_code": "13",
  "wilaya_name_ar": "تلمسان",
  "wilaya_name_fr": "Tlemcen",
  "nid_ar": "724",
  "nid_fr": null,
  "match_m": null,
  "source": "patrimoineculturelalgerien.org",
  "name": "Bab El Khemis",
  "has_virtual_tour": false
 },
 {
  "name_ar": "ضريح سيدي السنوسي",
  "name_fr": "Mosquée Sidi El Senousy",
  "layer": "protected-cultural-property",
  "lat": 34.880306,
  "lng": -1.299583,
  "wilaya_code": "13",
  "wilaya_name_ar": "تلمسان",
  "wilaya_name_fr": "Tlemcen",
  "nid_ar": "725",
  "nid_fr": "1481",
  "match_m": 0,
  "source": "patrimoineculturelalgerien.org",
  "name": "Mosquée Sidi El Senousy",
  "has_virtual_tour": false
 },
 {
  "name_ar": "عين الحنش",
  "name_fr": "Ain lahnech",
  "layer": "protected-cultural-property",
  "lat": 36.205833,
  "lng": 5.663333,
  "wilaya_code": "19",
  "wilaya_name_ar": "سطيف",
  "wilaya_name_fr": "Sétif",
  "nid_ar": "727",
  "nid_fr": "1446",
  "match_m": 0,
  "source": "patrimoineculturelalgerien.org",
  "name": "Ain lahnech",
  "has_virtual_tour": false
 },
 {
  "name_ar": "القلعة البيزنطية",
  "name_fr": "Lacitadelle",
  "layer": "protected-cultural-property",
  "lat": 36.191111,
  "lng": 5.404167,
  "wilaya_code": "19",
  "wilaya_name_ar": "سطيف",
  "wilaya_name_fr": "Sétif",
  "nid_ar": "728",
  "nid_fr": "1447",
  "match_m": 0,
  "source": "patrimoineculturelalgerien.org",
  "name": "Lacitadelle",
  "has_virtual_tour": false
 },
 {
  "name_ar": "زراية",
  "name_fr": "Zaraya",
  "layer": "protected-cultural-property",
  "lat": 35.796389,
  "lng": 5.679722,
  "wilaya_code": "19",
  "wilaya_name_ar": "سطيف",
  "wilaya_name_fr": "Sétif",
  "nid_ar": "729",
  "nid_fr": "1448",
  "match_m": 0,
  "source": "patrimoineculturelalgerien.org",
  "name": "Zaraya",
  "has_virtual_tour": false
 },
 {
  "name_ar": "عين الفوارة",
  "name_fr": "Ain El Fowara",
  "layer": "protected-cultural-property",
  "lat": 36.189167,
  "lng": 5.404722,
  "wilaya_code": "19",
  "wilaya_name_ar": "سطيف",
  "wilaya_name_fr": "Sétif",
  "nid_ar": "731",
  "nid_fr": "1450",
  "match_m": 0,
  "source": "patrimoineculturelalgerien.org",
  "name": "Ain El Fowara",
  "has_virtual_tour": false
 },
 {
  "name_ar": "كاف زمام",
  "name_fr": "Kef Zmem",
  "layer": "protected-cultural-property",
  "lat": 35.814167,
  "lng": 5.693611,
  "wilaya_code": "19",
  "wilaya_name_ar": "سطيف",
  "wilaya_name_fr": "Sétif",
  "nid_ar": "733",
  "nid_fr": "1449",
  "match_m": 0,
  "source": "patrimoineculturelalgerien.org",
  "name": "Kef Zmem",
  "has_virtual_tour": false
 },
 {
  "name_ar": "ميلة القديمة",
  "name_fr": "Vieille ville de Mila",
  "layer": "protected-cultural-property",
  "lat": 36.450836,
  "lng": 6.272797,
  "wilaya_code": "43",
  "wilaya_name_ar": "ميلة",
  "wilaya_name_fr": "Mila",
  "nid_ar": "750",
  "nid_fr": "1409",
  "match_m": 0,
  "source": "patrimoineculturelalgerien.org",
  "name": "Vieille ville de Mila",
  "has_virtual_tour": false
 },
 {
  "name_ar": "عين تامدة",
  "name_fr": "Site archéologique Ain Tamda",
  "layer": "protected-cultural-property",
  "lat": 36.3493,
  "lng": 6.145944,
  "wilaya_code": "43",
  "wilaya_name_ar": "ميلة",
  "wilaya_name_fr": "Mila",
  "nid_ar": "753",
  "nid_fr": "1553",
  "match_m": 0,
  "source": "patrimoineculturelalgerien.org",
  "name": "Site archéologique Ain Tamda",
  "has_virtual_tour": false
 },
 {
  "name_ar": "ضريح الصومعة بالخروب \" ضريح ماسينيسا \"",
  "name_fr": "Le tombeau de Massinissa",
  "layer": "protected-cultural-property",
  "lat": 36.272191,
  "lng": 6.725129,
  "wilaya_code": "25",
  "wilaya_name_ar": "قسنطينة",
  "wilaya_name_fr": "Constantine",
  "nid_ar": "755",
  "nid_fr": "104",
  "match_m": 2,
  "source": "patrimoineculturelalgerien.org",
  "name": "Le tombeau de Massinissa",
  "has_virtual_tour": false
 },
 {
  "name_ar": "الأقواس الرومانية",
  "name_fr": "Arcades romaines",
  "layer": "protected-cultural-property",
  "lat": 36.350462,
  "lng": 6.617342,
  "wilaya_code": "25",
  "wilaya_name_ar": "قسنطينة",
  "wilaya_name_fr": "Constantine",
  "nid_ar": "756",
  "nid_fr": null,
  "match_m": null,
  "source": "patrimoineculturelalgerien.org",
  "name": "Arcades romaines",
  "has_virtual_tour": false
 },
 {
  "name_ar": "المدينة القديمة بقسنطينة",
  "name_fr": "Vieille ville de Constantine",
  "layer": "protected-cultural-property",
  "lat": 36.364987,
  "lng": 6.612566,
  "wilaya_code": "25",
  "wilaya_name_ar": "قسنطينة",
  "wilaya_name_fr": "Constantine",
  "nid_ar": "757",
  "nid_fr": null,
  "match_m": null,
  "source": "patrimoineculturelalgerien.org",
  "name": "Vieille ville de Constantine",
  "has_virtual_tour": false
 },
 {
  "name_ar": "مسجد حسن باي",
  "name_fr": "Palais du Bey",
  "layer": "protected-cultural-property",
  "lat": 36.367138,
  "lng": 6.611696,
  "wilaya_code": "25",
  "wilaya_name_ar": "قسنطينة",
  "wilaya_name_fr": "Constantine",
  "nid_ar": "758",
  "nid_fr": "130",
  "match_m": 79,
  "source": "patrimoineculturelalgerien.org",
  "name": "Palais du Bey",
  "has_virtual_tour": false
 },
 {
  "name_ar": "مسجد سيدي لخضر",
  "name_fr": "Mosquée Sidi Lakhdar",
  "layer": "protected-cultural-property",
  "lat": 36.367646,
  "lng": 6.613884,
  "wilaya_code": "25",
  "wilaya_name_ar": "قسنطينة",
  "wilaya_name_fr": "Constantine",
  "nid_ar": "759",
  "nid_fr": null,
  "match_m": null,
  "source": "patrimoineculturelalgerien.org",
  "name": "Mosquée Sidi Lakhdar",
  "has_virtual_tour": false
 },
 {
  "name_ar": "الجامع الكبير",
  "name_fr": "Grande Mosquée",
  "layer": "protected-cultural-property",
  "lat": 36.366033,
  "lng": 6.612437,
  "wilaya_code": "25",
  "wilaya_name_ar": "قسنطينة",
  "wilaya_name_fr": "Constantine",
  "nid_ar": "760",
  "nid_fr": null,
  "match_m": null,
  "source": "patrimoineculturelalgerien.org",
  "name": "Grande Mosquée",
  "has_virtual_tour": false
 },
 {
  "name_ar": "ضريح لوليوس أربيكيوس",
  "name_fr": "Mausolée de Lollius Urbicus",
  "layer": "protected-cultural-property",
  "lat": 36.48977,
  "lng": 6.483471,
  "wilaya_code": "25",
  "wilaya_name_ar": "قسنطينة",
  "wilaya_name_fr": "Constantine",
  "nid_ar": "761",
  "nid_fr": null,
  "match_m": null,
  "source": "patrimoineculturelalgerien.org",
  "name": "Mausolée de Lollius Urbicus",
  "has_virtual_tour": false
 },
 {
  "name_ar": "الجامع و المدرسة الكتانية",
  "name_fr": "Mosquée et médersa El Kettania",
  "layer": "protected-cultural-property",
  "lat": 36.369687,
  "lng": 6.613233,
  "wilaya_code": "25",
  "wilaya_name_ar": "قسنطينة",
  "wilaya_name_fr": "Constantine",
  "nid_ar": "762",
  "nid_fr": null,
  "match_m": null,
  "source": "patrimoineculturelalgerien.org",
  "name": "Mosquée et médersa El Kettania",
  "has_virtual_tour": false
 },
 {
  "name_ar": "الخروب، المنزل الروماني بالموزينة",
  "name_fr": "El Khroub – villa romaine d'El Mouzina",
  "layer": "protected-cultural-property",
  "lat": 36.277821,
  "lng": 6.696115,
  "wilaya_code": "25",
  "wilaya_name_ar": "قسنطينة",
  "wilaya_name_fr": "Constantine",
  "nid_ar": "763",
  "nid_fr": null,
  "match_m": null,
  "source": "patrimoineculturelalgerien.org",
  "name": "El Khroub – villa romaine d'El Mouzina",
  "has_virtual_tour": false
 },
 {
  "name_ar": "قصر الباي",
  "name_fr": "Musée Public  National des Arts et Expressions Culturelles Traditionnelles",
  "layer": "protected-cultural-property",
  "lat": 36.367798,
  "lng": 6.611537,
  "wilaya_code": "25",
  "wilaya_name_ar": "قسنطينة",
  "wilaya_name_fr": "Constantine",
  "nid_ar": "764",
  "nid_fr": "195",
  "match_m": 9,
  "source": "patrimoineculturelalgerien.org",
  "name": "Musée Public  National des Arts et Expressions Culturelles Traditionnelles",
  "has_virtual_tour": true
 },
 {
  "name_ar": "ضريح سيدي عبد القادر بن محمد الملقب ( سيدي الشيخ)",
  "name_fr": "Mausolée de Sidi Abdelkader Ben Mohamed dit Sidi Cheikh",
  "layer": "protected-cultural-property",
  "lat": 32.891639,
  "lng": 0.545444,
  "wilaya_code": "32",
  "wilaya_name_ar": "البيض",
  "wilaya_name_fr": "El Bayadh",
  "nid_ar": "765",
  "nid_fr": null,
  "match_m": null,
  "source": "patrimoineculturelalgerien.org",
  "name": "Mausolée de Sidi Abdelkader Ben Mohamed dit Sidi Cheikh",
  "has_virtual_tour": false
 },
 {
  "name_ar": "مصلى الكاثوليك",
  "name_fr": "Chapelle catholique",
  "layer": "protected-cultural-property",
  "lat": 32.896528,
  "lng": 0.545528,
  "wilaya_code": "32",
  "wilaya_name_ar": "البيض",
  "wilaya_name_fr": "El Bayadh",
  "nid_ar": "766",
  "nid_fr": null,
  "match_m": null,
  "source": "patrimoineculturelalgerien.org",
  "name": "Chapelle catholique",
  "has_virtual_tour": false
 },
 {
  "name_ar": "قبر الكاتبة النمساوية إزابيل إبرهارد",
  "name_fr": "Tombe de l'écrivaine Isabelle Eberhardt",
  "layer": "protected-cultural-property",
  "lat": 32.749412,
  "lng": -0.588078,
  "wilaya_code": "45",
  "wilaya_name_ar": "النعامة",
  "wilaya_name_fr": "Naâma",
  "nid_ar": "767",
  "nid_fr": null,
  "match_m": null,
  "source": "patrimoineculturelalgerien.org",
  "name": "Tombe de l'écrivaine Isabelle Eberhardt",
  "has_virtual_tour": false
 },
 {
  "name_ar": "مركز التعذيب الإستعماري الدزيرة",
  "name_fr": "Centre de torture colonial d'El Dzira",
  "layer": "protected-cultural-property",
  "lat": 32.73358,
  "lng": -0.59872,
  "wilaya_code": "45",
  "wilaya_name_ar": "النعامة",
  "wilaya_name_fr": "Naâma",
  "nid_ar": "768",
  "nid_fr": null,
  "match_m": null,
  "source": "patrimoineculturelalgerien.org",
  "name": "Centre de torture colonial d'El Dzira",
  "has_virtual_tour": false
 },
 {
  "name_ar": "مقربلدية قديمة",
  "name_fr": "Ancien cimetière communal",
  "layer": "protected-cultural-property",
  "lat": 33.54661,
  "lng": -0.27926,
  "wilaya_code": "45",
  "wilaya_name_ar": "النعامة",
  "wilaya_name_fr": "Naâma",
  "nid_ar": "770",
  "nid_fr": null,
  "match_m": null,
  "source": "patrimoineculturelalgerien.org",
  "name": "Ancien cimetière communal",
  "has_virtual_tour": false
 },
 {
  "name_ar": "معتقل ومركز تعذيب بقلعة الشيخ بوعمامة ( مغرار التحتاني )",
  "name_fr": "Camp d'internement et centre de torture de la citadelle de Cheikh Bouamama (Moghrar Tahtani)",
  "layer": "protected-cultural-property",
  "lat": 32.49516,
  "lng": -0.46397,
  "wilaya_code": "45",
  "wilaya_name_ar": "النعامة",
  "wilaya_name_fr": "Naâma",
  "nid_ar": "774",
  "nid_fr": null,
  "match_m": null,
  "source": "patrimoineculturelalgerien.org",
  "name": "Camp d'internement et centre de torture de la citadelle de Cheikh Bouamama (Moghrar Tahtani)",
  "has_virtual_tour": false
 },
 {
  "name_ar": "مركزتعذيب محطة القطار",
  "name_fr": "Centre de torture de la gare ferroviaire",
  "layer": "protected-cultural-property",
  "lat": 32.36736,
  "lng": -0.80109,
  "wilaya_code": "45",
  "wilaya_name_ar": "النعامة",
  "wilaya_name_fr": "Naâma",
  "nid_ar": "775",
  "nid_fr": null,
  "match_m": null,
  "source": "patrimoineculturelalgerien.org",
  "name": "Centre de torture de la gare ferroviaire",
  "has_virtual_tour": false
 },
 {
  "name_ar": "أثار بصمات الديناصور",
  "name_fr": "Empreintes de dinosaures",
  "layer": "protected-cultural-property",
  "lat": 33.711639,
  "lng": 1.034278,
  "wilaya_code": "32",
  "wilaya_name_ar": "البيض",
  "wilaya_name_fr": "El Bayadh",
  "nid_ar": "777",
  "nid_fr": null,
  "match_m": null,
  "source": "patrimoineculturelalgerien.org",
  "name": "Empreintes de dinosaures",
  "has_virtual_tour": false
 },
 {
  "name_ar": "الموقع الروماني LUCU",
  "name_fr": "Site romain de Lucu",
  "layer": "protected-cultural-property",
  "lat": 34.952952,
  "lng": -0.115542,
  "wilaya_code": "20",
  "wilaya_name_ar": "سعيدة",
  "wilaya_name_fr": "Saïda",
  "nid_ar": "778",
  "nid_fr": null,
  "match_m": null,
  "source": "patrimoineculturelalgerien.org",
  "name": "Site romain de Lucu",
  "has_virtual_tour": false
 },
 {
  "name_ar": "مسجد سيدي بومدين",
  "name_fr": "Mosquée Sidi Boumediene",
  "layer": "protected-cultural-property",
  "lat": 34.877869,
  "lng": -1.289625,
  "wilaya_code": "13",
  "wilaya_name_ar": "تلمسان",
  "wilaya_name_fr": "Tlemcen",
  "nid_ar": "815",
  "nid_fr": null,
  "match_m": null,
  "source": "patrimoineculturelalgerien.org",
  "name": "Mosquée Sidi Boumediene",
  "has_virtual_tour": true
 },
 {
  "name_ar": "قصر الداي",
  "name_fr": "Palais du Dey d'Alger",
  "layer": "protected-cultural-property",
  "lat": 36.784335,
  "lng": 3.055006,
  "wilaya_code": "16",
  "wilaya_name_ar": "الجزائر",
  "wilaya_name_fr": "Alger",
  "nid_ar": "816",
  "nid_fr": "205",
  "match_m": 0,
  "source": "patrimoineculturelalgerien.org",
  "name": "Palais du Dey d'Alger",
  "has_virtual_tour": true
 },
 {
  "name_ar": "أضرحة لجدار الجنائزية",
  "name_fr": "Pyramide de Lejdar",
  "layer": "protected-cultural-property",
  "lat": 35.113055,
  "lng": 1.212484,
  "wilaya_code": "14",
  "wilaya_name_ar": "تيارت",
  "wilaya_name_fr": "Tiaret",
  "nid_ar": "819",
  "nid_fr": "109",
  "match_m": 0,
  "source": "patrimoineculturelalgerien.org",
  "name": "Pyramide de Lejdar",
  "has_virtual_tour": true
 },
 {
  "name_ar": "قصر القنادسة",
  "name_fr": "Ksar de Kenadsa Centre Hist.Vivant",
  "layer": "protected-cultural-property",
  "lat": 31.55572,
  "lng": -2.439607,
  "wilaya_code": "08",
  "wilaya_name_ar": "بشار",
  "wilaya_name_fr": "Bechar",
  "nid_ar": "822",
  "nid_fr": "54",
  "match_m": 0,
  "source": "patrimoineculturelalgerien.org",
  "name": "Ksar de Kenadsa Centre Hist.Vivant",
  "has_virtual_tour": false
 },
 {
  "name_ar": "قصر تماسين",
  "name_fr": "Ksar de Témacine",
  "layer": "protected-cultural-property",
  "lat": 33.016806,
  "lng": 6.018556,
  "wilaya_code": "30",
  "wilaya_name_ar": "ورقلة",
  "wilaya_name_fr": "Ouargla",
  "nid_ar": "823",
  "nid_fr": null,
  "match_m": null,
  "source": "patrimoineculturelalgerien.org",
  "name": "Ksar de Témacine",
  "has_virtual_tour": false
 },
 {
  "name_ar": "بقايا اسوار المدينة شرشال",
  "name_fr": "Vestiges des remparts de Cherchell",
  "layer": "protected-cultural-property",
  "lat": 36.6098,
  "lng": 2.19848,
  "wilaya_code": "42",
  "wilaya_name_ar": "تيبازة",
  "wilaya_name_fr": "Tipaza",
  "nid_ar": "825",
  "nid_fr": null,
  "match_m": null,
  "source": "patrimoineculturelalgerien.org",
  "name": "Vestiges des remparts de Cherchell",
  "has_virtual_tour": false
 },
 {
  "name_ar": "قصر ورقلة العتيق",
  "name_fr": "Ksar de Ouargla",
  "layer": "protected-cultural-property",
  "lat": 31.968139,
  "lng": 5.32725,
  "wilaya_code": "30",
  "wilaya_name_ar": "ورقلة",
  "wilaya_name_fr": "Ouargla",
  "nid_ar": "827",
  "nid_fr": "71",
  "match_m": 18,
  "source": "patrimoineculturelalgerien.org",
  "name": "Ksar de Ouargla",
  "has_virtual_tour": false
 },
 {
  "name_ar": "عين قريميدي",
  "name_fr": "Aïn Grimidi",
  "layer": "protected-cultural-property",
  "lat": 35.87645,
  "lng": 3.730046,
  "wilaya_code": "28",
  "wilaya_name_ar": "المسيلة",
  "wilaya_name_fr": "M'Sila",
  "nid_ar": "828",
  "nid_fr": null,
  "match_m": null,
  "source": "patrimoineculturelalgerien.org",
  "name": "Aïn Grimidi",
  "has_virtual_tour": false
 },
 {
  "name_ar": "زاوية الهامل",
  "name_fr": "Zaouïa d'El Hamel",
  "layer": "protected-cultural-property",
  "lat": 35.132447,
  "lng": 4.083856,
  "wilaya_code": "28",
  "wilaya_name_ar": "المسيلة",
  "wilaya_name_fr": "M'Sila",
  "nid_ar": "829",
  "nid_fr": null,
  "match_m": null,
  "source": "patrimoineculturelalgerien.org",
  "name": "Zaouïa d'El Hamel",
  "has_virtual_tour": false
 },
 {
  "name_ar": "مستشفى الدور",
  "name_fr": "Hôpital d'Eddour",
  "layer": "protected-cultural-property",
  "lat": 35.283315,
  "lng": 4.816208,
  "wilaya_code": "28",
  "wilaya_name_ar": "المسيلة",
  "wilaya_name_fr": "M'Sila",
  "nid_ar": "832",
  "nid_fr": null,
  "match_m": null,
  "source": "patrimoineculturelalgerien.org",
  "name": "Hôpital d'Eddour",
  "has_virtual_tour": false
 },
 {
  "name_ar": "قلعة ذياب الهلالي",
  "name_fr": "Citadelle de Diab El Hilali",
  "layer": "protected-cultural-property",
  "lat": 35.374298,
  "lng": 4.152735,
  "wilaya_code": "28",
  "wilaya_name_ar": "المسيلة",
  "wilaya_name_fr": "M'Sila",
  "nid_ar": "834",
  "nid_fr": null,
  "match_m": null,
  "source": "patrimoineculturelalgerien.org",
  "name": "Citadelle de Diab El Hilali",
  "has_virtual_tour": false
 },
 {
  "name_ar": "مسجد بني جلاب",
  "name_fr": "Le ksar de Mestaoua (Touggourt)",
  "layer": "protected-cultural-property",
  "lat": 33.106667,
  "lng": 6.067639,
  "wilaya_code": "30",
  "wilaya_name_ar": "ورقلة",
  "wilaya_name_fr": "Ouargla",
  "nid_ar": "836",
  "nid_fr": "72",
  "match_m": 27,
  "source": "patrimoineculturelalgerien.org",
  "name": "Le ksar de Mestaoua (Touggourt)",
  "has_virtual_tour": false
 },
 {
  "name_ar": "المتحف الصحراوي",
  "name_fr": "Musée saharien",
  "layer": "protected-cultural-property",
  "lat": 31.951316,
  "lng": 5.336126,
  "wilaya_code": "30",
  "wilaya_name_ar": "ورقلة",
  "wilaya_name_fr": "Ouargla",
  "nid_ar": "837",
  "nid_fr": null,
  "match_m": null,
  "source": "patrimoineculturelalgerien.org",
  "name": "Musée saharien",
  "has_virtual_tour": false
 },
 {
  "name_ar": "الموقع الأثري تبعليين",
  "name_fr": "Le site archéologique ( TIBALAINE )",
  "layer": "protected-cultural-property",
  "lat": 35.035085,
  "lng": 6.791699,
  "wilaya_code": "40",
  "wilaya_name_ar": "خنشلة",
  "wilaya_name_fr": "Khenchela",
  "nid_ar": "849",
  "nid_fr": "1339",
  "match_m": 0,
  "source": "patrimoineculturelalgerien.org",
  "name": "Le site archéologique ( TIBALAINE )",
  "has_virtual_tour": false
 },
 {
  "name_ar": "قصر تمنطيط",
  "name_fr": "Ksar de Tamentit",
  "layer": "protected-cultural-property",
  "lat": 27.765636,
  "lng": -0.260655,
  "wilaya_code": "01",
  "wilaya_name_ar": "أدرار",
  "wilaya_name_fr": "Adrar",
  "nid_ar": "851",
  "nid_fr": null,
  "match_m": null,
  "source": "patrimoineculturelalgerien.org",
  "name": "Ksar de Tamentit",
  "has_virtual_tour": false
 },
 {
  "name_ar": "قصر كاوة",
  "name_fr": "Ksar de Kaoua",
  "layer": "protected-cultural-property",
  "lat": 35.866699,
  "lng": 1.116606,
  "wilaya_code": "48",
  "wilaya_name_ar": "غليزان",
  "wilaya_name_fr": "Relizane",
  "nid_ar": "855",
  "nid_fr": null,
  "match_m": null,
  "source": "patrimoineculturelalgerien.org",
  "name": "Ksar de Kaoua",
  "has_virtual_tour": false
 },
 {
  "name_ar": "مدينة مازونة العتيقة",
  "name_fr": "Cité antique de Mazouna",
  "layer": "protected-cultural-property",
  "lat": 36.117054,
  "lng": 0.893865,
  "wilaya_code": "48",
  "wilaya_name_ar": "غليزان",
  "wilaya_name_fr": "Relizane",
  "nid_ar": "857",
  "nid_fr": null,
  "match_m": null,
  "source": "patrimoineculturelalgerien.org",
  "name": "Cité antique de Mazouna",
  "has_virtual_tour": false
 },
 {
  "name_ar": "مصنع الاسلحة الامير عبد القادر",
  "name_fr": "Manufacture d'Armes de l'Emir Abdelkader",
  "layer": "protected-cultural-property",
  "lat": 36.304931,
  "lng": 2.231544,
  "wilaya_code": "44",
  "wilaya_name_ar": "عين الدفلى",
  "wilaya_name_fr": "Aïn Defla",
  "nid_ar": "860",
  "nid_fr": "413",
  "match_m": 30,
  "source": "patrimoineculturelalgerien.org",
  "name": "Manufacture d'Armes de l'Emir Abdelkader",
  "has_virtual_tour": false
 },
 {
  "name_ar": "مدينة قلعة بني راشد العتيقة",
  "name_fr": "Cité antique de Kalâat Beni Rached",
  "layer": "protected-cultural-property",
  "lat": 35.605587,
  "lng": 0.336534,
  "wilaya_code": "48",
  "wilaya_name_ar": "غليزان",
  "wilaya_name_fr": "Relizane",
  "nid_ar": "862",
  "nid_fr": null,
  "match_m": null,
  "source": "patrimoineculturelalgerien.org",
  "name": "Cité antique de Kalâat Beni Rached",
  "has_virtual_tour": false
 },
 {
  "name_ar": "منارة مسجد البطحاء القديم",
  "name_fr": "MINARET DE L’ANCIENNE MOSQUEE TURQUE dite l'Horloge",
  "layer": "protected-cultural-property",
  "lat": 36.304763,
  "lng": 2.226797,
  "wilaya_code": "44",
  "wilaya_name_ar": "عين الدفلى",
  "wilaya_name_fr": "Aïn Defla",
  "nid_ar": "863",
  "nid_fr": "415",
  "match_m": 6,
  "source": "patrimoineculturelalgerien.org",
  "name": "MINARET DE L’ANCIENNE MOSQUEE TURQUE dite l'Horloge",
  "has_virtual_tour": false
 },
 {
  "name_ar": "موقع مينا الاثري",
  "name_fr": "Site archéologique de Mina",
  "layer": "protected-cultural-property",
  "lat": 35.714933,
  "lng": 0.56782,
  "wilaya_code": "48",
  "wilaya_name_ar": "غليزان",
  "wilaya_name_fr": "Relizane",
  "nid_ar": "864",
  "nid_fr": null,
  "match_m": null,
  "source": "patrimoineculturelalgerien.org",
  "name": "Site archéologique de Mina",
  "has_virtual_tour": false
 },
 {
  "name_ar": "مغارة مصراتة",
  "name_fr": "Grotte de Misrata",
  "layer": "protected-cultural-property",
  "lat": 35,
  "lng": 0,
  "wilaya_code": "48",
  "wilaya_name_ar": "غليزان",
  "wilaya_name_fr": "Relizane",
  "nid_ar": "867",
  "nid_fr": null,
  "match_m": null,
  "source": "patrimoineculturelalgerien.org",
  "name": "Grotte de Misrata",
  "has_virtual_tour": false
 },
 {
  "name_ar": "ضريح الجوران",
  "name_fr": "Mausolée d'El Djouran",
  "layer": "protected-cultural-property",
  "lat": 35.922812,
  "lng": 1.210972,
  "wilaya_code": "48",
  "wilaya_name_ar": "غليزان",
  "wilaya_name_fr": "Relizane",
  "nid_ar": "869",
  "nid_fr": null,
  "match_m": null,
  "source": "patrimoineculturelalgerien.org",
  "name": "Mausolée d'El Djouran",
  "has_virtual_tour": false
 },
 {
  "name_ar": "قصر كبابة",
  "name_fr": "Ksar de Kebaba",
  "layer": "protected-cultural-property",
  "lat": 35.914232,
  "lng": 1.25556,
  "wilaya_code": "48",
  "wilaya_name_ar": "غليزان",
  "wilaya_name_fr": "Relizane",
  "nid_ar": "870",
  "nid_fr": null,
  "match_m": null,
  "source": "patrimoineculturelalgerien.org",
  "name": "Ksar de Kebaba",
  "has_virtual_tour": false
 },
 {
  "name_ar": "المركب الديني سيدي احمد بن يوسف",
  "name_fr": "MOSQUEE SIDI AHMED BENYOUCEF",
  "layer": "protected-cultural-property",
  "lat": 36.304548,
  "lng": 2.225282,
  "wilaya_code": "44",
  "wilaya_name_ar": "عين الدفلى",
  "wilaya_name_fr": "Aïn Defla",
  "nid_ar": "871",
  "nid_fr": "414",
  "match_m": 46,
  "source": "patrimoineculturelalgerien.org",
  "name": "MOSQUEE SIDI AHMED BENYOUCEF",
  "has_virtual_tour": false
 },
 {
  "name_ar": "مغارة الرتايمية",
  "name_fr": "Grotte d'Er Retaïmia",
  "layer": "protected-cultural-property",
  "lat": 35.936064,
  "lng": 0.883332,
  "wilaya_code": "48",
  "wilaya_name_ar": "غليزان",
  "wilaya_name_fr": "Relizane",
  "nid_ar": "873",
  "nid_fr": null,
  "match_m": null,
  "source": "patrimoineculturelalgerien.org",
  "name": "Grotte d'Er Retaïmia",
  "has_virtual_tour": false
 },
 {
  "name_ar": "جسر  مينا",
  "name_fr": "Pont de Mina",
  "layer": "protected-cultural-property",
  "lat": 35.730442,
  "lng": 0.532803,
  "wilaya_code": "48",
  "wilaya_name_ar": "غليزان",
  "wilaya_name_fr": "Relizane",
  "nid_ar": "874",
  "nid_fr": null,
  "match_m": null,
  "source": "patrimoineculturelalgerien.org",
  "name": "Pont de Mina",
  "has_virtual_tour": false
 },
 {
  "name_ar": "الاسوار الرومانية",
  "name_fr": "Les Remparts",
  "layer": "protected-cultural-property",
  "lat": 36.302462,
  "lng": 2.227758,
  "wilaya_code": "44",
  "wilaya_name_ar": "عين الدفلى",
  "wilaya_name_fr": "Aïn Defla",
  "nid_ar": "875",
  "nid_fr": "417",
  "match_m": 58,
  "source": "patrimoineculturelalgerien.org",
  "name": "Les Remparts",
  "has_virtual_tour": false
 },
 {
  "name_ar": "قصبة مدينة تنس القديمة",
  "name_fr": "Casbah de la vieille ville de Ténès",
  "layer": "protected-cultural-property",
  "lat": 36.500712,
  "lng": 1.314116,
  "wilaya_code": "02",
  "wilaya_name_ar": "الشلف",
  "wilaya_name_fr": "Chlef",
  "nid_ar": "876",
  "nid_fr": null,
  "match_m": null,
  "source": "patrimoineculturelalgerien.org",
  "name": "Casbah de la vieille ville de Ténès",
  "has_virtual_tour": false
 },
 {
  "name_ar": "قلعة اولاد عبد الله-بلدية تاوقريت",
  "name_fr": "Citadelle d'Ouled Abdallah – commune de Taougrite",
  "layer": "protected-cultural-property",
  "lat": 36.225205,
  "lng": 0.873111,
  "wilaya_code": "02",
  "wilaya_name_ar": "الشلف",
  "wilaya_name_fr": "Chlef",
  "nid_ar": "877",
  "nid_fr": null,
  "match_m": null,
  "source": "patrimoineculturelalgerien.org",
  "name": "Citadelle d'Ouled Abdallah – commune de Taougrite",
  "has_virtual_tour": false
 },
 {
  "name_ar": "برج الشرق او الترك",
  "name_fr": "fort de l'est",
  "layer": "protected-cultural-property",
  "lat": 35.934171,
  "lng": 0.096415,
  "wilaya_code": "27",
  "wilaya_name_ar": "مستغانم",
  "wilaya_name_fr": "Mostaganem",
  "nid_ar": "880",
  "nid_fr": "1407",
  "match_m": 0,
  "source": "patrimoineculturelalgerien.org",
  "name": "fort de l'est",
  "has_virtual_tour": false
 },
 {
  "name_ar": "الملجأ الصخري لموقع جلال",
  "name_fr": "La grotte rocheuse du site archéologique de djallel",
  "layer": "protected-cultural-property",
  "lat": 34.924427,
  "lng": 6.900633,
  "wilaya_code": "40",
  "wilaya_name_ar": "خنشلة",
  "wilaya_name_fr": "Khenchela",
  "nid_ar": "881",
  "nid_fr": "1329",
  "match_m": 0,
  "source": "patrimoineculturelalgerien.org",
  "name": "La grotte rocheuse du site archéologique de djallel",
  "has_virtual_tour": false
 },